00000_Time_epoch,00000_Span_Time_epoch,00000_Time_boot_sec,00000_Span_Time_boot_sec,1_battery_remaining_avg,1_current_battery_avg,1_voltage_battery_avg,125_Vcc_avg,147_battery_remaining_avg,147_current_battery_avg,147_current_consumed_avg,165_Vcc_avg,168_direction_avg,168_speed_avg,178_pitch_avg,178_roll_avg,178_yaw_avg,182_altitude_avg,182_pitch_avg,182_roll_avg,182_yaw_avg,241_vibration_x_avg,241_vibration_y_avg,241_vibration_z_avg,27_xacc_avg,27_xgyro_avg,27_xmag_avg,27_yacc_avg,27_ygyro_avg,27_ymag_avg,27_zacc_avg,27_zgyro_avg,27_zmag_avg,29_press_abs_avg,29_press_diff_avg,29_temperature_avg,30_pitch_avg,30_pitchspeed_avg,30_roll_avg,30_rollspeed_avg,30_yaw_avg,30_yawspeed_avg,33_alt_avg,33_hdg_avg,33_relative_alt_avg,33_vx_avg,33_vy_avg,33_vz_avg,label,diagnosis
2022-12-29 11:56:28.282000,-1,135.098,-1.0,100.0,69.0,24372.0,4883.0,99.0,68.0,24.0,4890.0,-160.5103,0.2210169,0.00010069166,-0.01163869,-1.1539283333333332,42.85,0.0041956663333333,-0.0079486203333333,-1.1493883333333337,0.02611806,0.02451182,0.043899,-16.0,3.0,95.0,-2.0,5.0,249.0,-1072.0,0.0,329.0,1022.019,-0.08617187,3421.0,0.0041956663333333,0.0052186556666666,-0.0079486203333333,0.003282944,-1.1493883333333337,7.350783333333334e-05,42850.0,29415.0,-60.0,2.0,16.0,-36.0,0,None
2022-12-29 11:56:28.782000,0:00:00.500000,135.598,0.5,100.0,69.0,24372.0,4883.0,99.0,68.0,24.0,4874.0,-161.1036,0.16265,0.00010069166,-0.01163869,-1.1539283333333332,42.85,0.0041956663333333,-0.0079486203333333,-1.1493883333333337,0.02611806,0.02451182,0.043899,-16.0,3.0,95.0,-2.0,5.0,249.0,-1072.0,0.0,329.0,1022.019,-0.08617187,3421.0,0.0041956663333333,0.0052186556666666,-0.0079486203333333,0.003282944,-1.1493883333333337,7.350783333333334e-05,42850.0,29415.0,-60.0,2.0,16.0,-36.0,0,None
2022-12-29 11:56:29.281000,0:00:00.499000,136.098,0.5,100.0,64.0,24372.0,4887.0,99.0,60.0,24.0,4893.0,-161.364,0.1357606,-3.209750000000001e-05,-0.0116986549999999,-1.1538655,42.77,0.0043103529999999,-0.0080494275,-1.149288,0.02410569,0.0247236,0.03846157,-14.0,3.0,93.0,-3.0,5.0,248.0,-1071.0,0.0,330.0,1022.031,-0.07375,3422.0,0.0043103529999999,0.0052010775,-0.0080494275,0.0036477995,-1.149288,3.0121265e-05,42770.0,29416.0,-140.0,2.0,15.0,-38.0,0,None
2022-12-29 11:56:29.762000,0:00:00.481000,136.598,0.5,100.0,66.0,24363.0,4887.0,99.0,64.0,24.0,4850.0,-161.265,0.1380018,-0.0003549505333333,-0.0116622266666666,-1.1536283333333333,42.69,0.0043076833333333,-0.008004975,-1.14926,0.02397744,0.02268703,0.03535164,-14.0,3.0,97.0,-1.0,5.0,249.0,-1072.0,0.0,328.0,1022.013,-0.09203125,3424.0,0.0043076833333333,0.0050181446666666,-0.008004975,0.0026386,-1.14926,-0.0004888189,42680.0,29416.0,-230.0,2.0,15.0,-39.0,0,None
2022-12-29 11:56:30.282000,0:00:00.520000,137.118,0.5199999999999818,100.0,71.0,24378.0,4883.0,99.0,65.0,24.0,4890.0,-160.6854,0.1536502,0.0003332001,-0.01222203,-1.1534435,42.63,0.0043649735,-0.008051539,-1.1491635,0.02777722,0.02291148,0.03744353,-16.0,3.0,94.0,-2.0,5.0,246.0,-1069.0,0.0,328.0,1022.03,-0.07562499,3426.0,0.0043649735,0.005210388,-0.008051539,0.0034540605,-1.1491635,-0.0001736584949999,42630.0,29416.0,-280.0,2.0,15.0,-39.0,0,None
2022-12-29 11:56:30.801000,0:00:00.519000,137.618,0.5,100.0,123.0,24356.0,4887.0,99.0,162.0,24.0,4890.0,-159.8174,0.1745951,-0.0002838871333333,-0.01197723,-1.15339,42.59,0.0044764746666666,-0.0081216833333333,-1.1490143333333334,0.1232218,0.4090049,1.781919,-8.0,4.0,92.0,-5.0,8.0,247.0,-1073.0,52.0,332.0,1022.046,-0.05960937,3427.0,0.0044764746666666,0.003959076,-0.0081216833333333,0.0017895296666666,-1.1490143333333334,-0.0342728295,42600.0,29420.0,-310.0,2.0,15.0,-39.0,0,None
2022-12-29 11:56:31.282000,0:00:00.481000,138.118,0.5,100.0,105.0,24352.0,4890.0,99.0,101.0,24.0,4888.0,-159.3361,0.1909906,-3.888939e-05,-0.0119484,-1.1536985,42.575,0.004548559,-0.008058893,-1.148987,0.1028958,0.2691694,0.7353715,-10.0,-1.0,93.0,-1.0,3.0,247.0,-1073.0,-74.0,332.0,1022.042,-0.06289063,3428.0,0.004548559,0.005044378,-0.008058893,0.00498753,-1.148987,0.03506771,42590.0,29413.0,-320.0,3.0,15.0,-40.0,0,None
2022-12-29 11:56:31.822000,0:00:00.540000,138.639,0.521000000000015,100.0,110.0,24352.0,4890.0,99.0,106.0,25.0,4890.0,-158.8843,0.2185875,0.0001161446066666,-0.01211132,-1.1536376666666668,42.54333333333333,0.004614592,-0.007980407,-1.1488233333333333,0.1011832,0.2846381,0.5005237,-29.0,2.0,82.0,-40.0,4.0,237.0,-1083.0,3.0,325.0,1022.085,-0.02046875,3430.0,0.0046048286666666,0.0053956673333333,-0.0079811213333333,0.0024502371,-1.149158,-0.0082225476666666,42550.0,29413.0,-360.0,3.0,16.0,-40.0,0,None
2022-12-29 11:56:32.342000,0:00:00.520000,139.159,0.5199999999999818,100.0,1579.0,23930.0,4888.0,99.0,156.0,25.0,4893.0,-158.6081,0.2369816,0.0007167382,-0.011758695,-1.1548375000000002,42.515,0.005312719,-0.0075454025,-1.14894,0.1252737,0.2843959,0.4933439,-17.0,15.0,51.0,-43.0,0.0,223.0,-1053.0,5.0,309.0,1022.274,0.1684375,3431.0,0.005312719,0.0382124489999999,-0.0075454025,-0.007252922,-1.14894,0.0151304684999999,42520.0,29415.0,-390.0,2.0,17.0,-40.0,0,None
2022-12-29 11:56:32.842000,0:00:00.500000,139.659,0.5,100.0,1362.0,23986.0,4890.0,99.0,1693.0,27.0,4893.0,-158.4355,0.2621955,0.0306975733333333,-0.0140994833333333,-1.1461826666666666,42.69,0.0347185733333333,-0.0092543266666666,-1.1397723333333334,0.550302,0.9605824,4.617216,-18.0,9.0,81.0,0.0,-15.0,242.0,-1236.0,21.0,293.0,1022.298,0.1929687,3433.0,0.0347185733333333,-0.0044963799999999,-0.0092543266666666,-0.0085217166666666,-1.1397723333333334,0.0077715899999999,42750.0,29482.0,-160.0,-10.0,29.0,51.0,0,None
2022-12-29 11:56:33.362000,0:00:00.520000,140.179,0.5200000000000102,100.0,1645.0,23903.0,4883.0,99.0,1657.0,29.0,4883.0,-158.1164,0.2694252,-0.0059981685,-0.0128179925,-1.1489035,43.35,-0.0022081124999999,-0.0058978484999999,-1.141958,0.3724775,1.265942,3.751854,-28.0,41.0,82.0,-19.0,-92.0,279.0,-1221.0,13.0,311.0,1021.931,-0.1742187,3434.0,-0.0022081124999999,-0.097028905,-0.0058978484999999,0.032958595,-1.141958,-0.0015078005,43520.0,29447.0,610.0,-28.0,29.0,137.0,0,None
2022-12-29 11:56:33.882000,0:00:00.520000,140.699,0.5200000000000102,100.0,1565.0,23903.0,4880.0,99.0,1635.0,31.0,4890.0,-156.9989,0.2766724,-0.0359590866666666,0.0074396304333333,-1.145524,44.63666666666666,-0.0315126566666666,0.0107236007,-1.1382733333333332,0.3568482,1.632056,5.812091,-28.0,89.0,85.0,-25.0,-56.0,268.0,-1181.0,-14.0,302.0,1021.803,-0.3017187,3436.0,-0.0315126566666666,-0.0511820066666666,0.0107236007,0.0463093223333333,-1.1382733333333332,0.0146138316666666,44910.0,29490.0,2000.0,-25.0,14.0,216.0,0,None
2022-12-29 11:56:34.402000,0:00:00.520000,141.22,0.5209999999999866,100.0,1580.0,23899.0,4887.0,99.0,1626.0,33.0,4882.0,-155.5406,0.2767467,-0.03421664,0.02304163,-1.146946,46.27,-0.02898659,0.0281689499999999,-1.149612,0.3759351,1.356913,4.132627,-33.0,6.0,79.0,-42.0,88.0,255.0,-1021.0,-10.0,264.0,1021.657,-0.4484375,3438.0,-0.02898659,0.02715937,0.0281689499999999,0.0179043575,-1.149612,-0.05321008,46560.0,29333.0,3650.0,-10.0,-1.0,260.0,0,None
2022-12-29 11:56:34.942000,0:00:00.540000,141.76,0.539999999999992,100.0,1620.0,23881.0,4893.0,99.0,1788.0,36.0,4883.0,-153.7185,0.2756566,-0.00309367812,0.0223526056666666,-1.1650786666666668,48.04,0.001095003,0.0264770186666666,-1.177286,0.3013991,1.282507,6.009151,-23.0,-21.0,81.0,8.0,140.0,269.0,-1177.0,-31.0,293.0,1021.445,-0.6597656,3439.0,0.001095003,0.0060301566666666,0.0264770186666666,-0.07845918,-1.177286,-0.04823656,48310.0,29263.0,5400.0,0.0,2.0,299.0,0,None
2022-12-29 11:56:35.460000,0:00:00.518000,142.281,0.521000000000015,100.0,1297.0,23952.0,4888.0,99.0,1345.0,38.0,4890.0,-150.4359,0.2665347,-0.0120578855,0.013446814,-1.18576,49.805,-0.00800585535,0.020192025,-1.197078,0.420161,1.342136,6.082771,-51.0,76.0,89.0,-59.0,-75.0,253.0,-855.0,15.0,313.0,1021.235,-0.8705469,3440.0,-0.00800585535,-0.046243873,0.020192025,0.1238203,-1.197078,0.003874575,50100.0,29154.0,7190.0,-5.0,11.0,266.0,0,None
2022-12-29 11:56:36,0:00:00.540000,142.821,0.539999999999992,100.0,1012.0,24026.0,4885.0,99.0,964.0,40.0,4883.0,-146.1082,0.2542632,-0.0242192066666666,0.0432238833333333,-1.1615993333333334,51.18666666666667,-0.0194555033333333,0.0496958266666666,-1.1711410000000002,0.4432784,1.111767,5.880955,-58.0,134.0,92.0,4.0,125.0,262.0,-877.0,68.0,279.0,1021.095,-1.010234,3442.0,-0.0194555033333333,0.01490711,0.0496958266666666,0.0247596449999999,-1.1711410000000002,0.0532963999999999,51400.0,29335.0,8490.0,2.0,16.0,157.0,0,None
2022-12-29 11:56:36.520000,0:00:00.520000,143.341,0.5200000000000102,100.0,1123.0,23971.0,4888.0,99.0,948.0,41.0,4891.0,-141.2678,0.2425127,-0.0352389,0.04549359,-1.1451034999999998,51.995000000000005,-0.03118037,0.051674675,-1.152805,0.7477151,1.124451,3.480782,-47.0,-50.0,94.0,-37.0,32.0,262.0,-868.0,21.0,284.0,1021.012,-1.093672,3444.0,-0.03118037,-0.013449718,0.051674675,-0.099356585,-1.152805,0.02697354,52090.0,29411.0,9180.0,24.0,30.0,76.0,0,None
2022-12-29 11:56:37.020000,0:00:00.500000,143.841,0.5,100.0,1099.0,23980.0,4890.0,99.0,1068.0,43.0,4890.0,-131.5225,0.2406726,-0.03605632,0.0019411976666666,-1.146748,52.403333333333336,-0.0302115733333333,0.0071042133333333,-1.151952,0.6104658,1.131376,5.722538,-59.0,-21.0,110.0,-36.0,17.0,244.0,-960.0,-6.0,267.0,1021.016,-1.089453,3445.0,-0.0302115733333333,0.006132375,0.0071042133333333,-0.09023188,-1.151952,-0.0141522156666666,52460.0,29400.0,9550.0,32.0,40.0,35.0,0,None
2022-12-29 11:56:37.560000,0:00:00.540000,144.381,0.539999999999992,100.0,1141.0,23977.0,4890.0,99.0,1137.0,44.0,4880.0,-124.5398,0.2450785,-0.0462307533333333,-0.0336634566666666,-1.1552766666666665,52.656666666666666,-0.04116432,-0.0254132633333333,-1.1589973333333334,0.4574802,1.297695,8.753117,-41.0,-58.0,109.0,-33.0,-23.0,226.0,-1012.0,21.0,309.0,1020.962,-1.143281,3447.0,-0.04116432,-0.0532682633333333,-0.0254132633333333,0.0020434873333333,-1.1589973333333334,-0.0114368533333333,52660.0,29372.0,9750.0,17.0,33.0,14.0,0,None
2022-12-29 11:56:38.060000,0:00:00.500000,144.881,0.5,100.0,1209.0,23925.0,4890.0,99.0,1070.0,46.0,4890.0,-114.2871,0.2633333,-0.05918771,-0.006812986,-1.1649349999999998,52.760000000000005,-0.05415706,-0.0006198029999999,-1.1666795,0.4694849,1.34461,2.963034,-70.0,82.0,101.0,-23.0,7.0,247.0,-1101.0,-41.0,287.0,1020.97,-1.135234,3449.0,-0.05415706,-0.0105194955,-0.0006198029999999,0.058679365,-1.1666795,-0.00626733,52760.0,29318.0,9850.0,2.0,20.0,5.0,0,None
2022-12-29 11:56:38.580000,0:00:00.520000,145.401,0.5200000000000102,100.0,1152.0,23962.0,4893.0,99.0,1186.0,48.0,4882.0,-107.7683,0.2841993,-0.0590992866666666,0.0150902043333333,-1.169191,52.82,-0.05404761,0.0206552166666666,-1.168625,0.5158546,1.030107,3.464216,-57.0,39.0,102.0,-48.0,-19.0,256.0,-1090.0,-7.0,276.0,1020.905,-1.200156,3450.0,-0.05404761,0.0175234433333333,0.0206552166666666,0.0361236733333333,-1.168625,-0.0037719656666666,52820.0,29307.0,9910.0,0.0,9.0,-2.0,0,None
2022-12-29 11:56:39.120000,0:00:00.540000,145.941,0.539999999999992,100.0,1164.0,23944.0,4891.0,99.0,1118.0,49.0,4890.0,-99.11395,0.3295651,-0.040858805,0.023121115,-1.171592,52.870000000000005,-0.036281135,0.02718641,-1.1687765,0.3677517,1.266531,8.409566,-29.0,6.0,100.0,-39.0,58.0,288.0,-1009.0,15.0,302.0,1020.877,-1.228359,3451.0,-0.0371043199999999,0.0528540899999999,0.027305045,0.017505555,-1.1693175,0.024371455,52860.0,29301.0,9950.0,6.0,2.0,-9.0,0,None
2022-12-29 11:56:39.659000,0:00:00.539000,146.48,0.5389999999999873,100.0,1110.0,23950.0,4891.5,99.0,1048.0,51.0,4893.0,-91.85489,0.3839595,-0.0314351633333333,0.0245798533333333,-1.1687713333333336,52.91,-0.0290156166666666,0.0292726166666666,-1.1647236666666665,0.6099175,1.119384,4.488687,-68.5,6.0,93.5,-30.0,-10.0,249.0,-1058.5,-8.0,292.5,1020.873,-1.231992,3453.5,-0.0290156166666666,0.0017311911333333,0.0292726166666666,0.0037253433333333,-1.1647236666666665,-0.0071340103333333,52910.0,29328.0,10000.0,9.0,7.0,-15.0,0,None
2022-12-29 11:56:40.160000,0:00:00.501000,146.981,0.5010000000000048,100.0,1106.0,23951.0,4893.0,99.0,1127.0,53.0,4877.0,-87.73602,0.4217538,-0.0342504649999999,0.01595461,-1.171393,52.92,-0.031680585,0.021630205,-1.166196,0.5565742,1.14096,3.885412,-39.0,21.0,102.0,-66.0,-13.0,245.0,-974.0,38.0,299.0,1020.854,-1.251406,3456.0,-0.031680585,-0.004201219,0.021630205,-0.0146462065,-1.166196,-0.005416135,52920.0,29319.0,10010.0,10.0,12.0,-23.0,0,None
2022-12-29 11:56:40.660000,0:00:00.500000,147.481,0.5,100.0,1108.0,23955.0,4890.0,99.0,1106.0,54.0,4864.0,-82.35915,0.4791096,-0.0366172966666666,0.0153442533333333,-1.1698943333333334,52.92666666666667,-0.0343470466666666,0.0214368233333333,-1.1639903333333332,0.4725034,2.050055,10.08414,-34.0,7.0,91.0,0.0,19.0,267.0,-1024.0,4.0,303.0,1020.852,-1.252891,3458.0,-0.0343470466666666,0.000882979,0.0214368233333333,0.0214369013333333,-1.1639903333333332,-0.0079210859999999,52930.0,29329.0,10020.0,9.0,12.0,-24.0,0,None
2022-12-29 11:56:41.180000,0:00:00.520000,148.001,0.5200000000000102,100.0,1149.0,23917.0,4890.0,99.0,1108.0,56.0,4877.0,-79.30172,0.5183238,-0.0348076033333333,0.0285827733333333,-1.1715486666666666,52.91333333333333,-0.0318986166666666,0.0344225366666666,-1.1639613333333332,0.5992466,1.130838,4.839316,-85.0,12.0,103.0,-9.0,40.0,257.0,-1090.0,-22.0,289.0,1020.827,-1.278203,3459.0,-0.0319849,0.04446148,0.03415712,0.0280002403333333,-1.1638753333333334,0.0065066022333333,52910.0,29326.0,10000.0,7.0,15.0,-29.0,0,None
2022-12-29 11:56:41.680000,0:00:00.500000,148.501,0.5,100.0,1080.0,23966.0,4877.0,99.0,1149.0,57.0,4890.0,-75.42931,0.5787256,-0.033614475,0.028496655,-1.171289,52.945,-0.03176004,0.0339894,-1.1624925,0.5475432,1.135355,7.216369,-46.0,-7.0,104.0,-55.0,11.0,265.0,-1104.0,1.0,301.0,1020.844,-1.260703,3461.0,-0.03176004,-0.0140076024999999,0.0339894,-0.033016555,-1.1624925,0.0090048299999999,52940.0,29341.0,10030.0,11.0,21.0,-29.0,0,None
2022-12-29 11:56:42.220000,0:00:00.540000,149.041,0.539999999999992,100.0,1129.0,23924.0,4890.0,99.0,1080.0,59.0,4883.0,-72.08881,0.6392333,-0.03526275,0.0113385536666666,-1.1731566666666666,52.96,-0.03259933,0.0179593366666666,-1.162483,0.5638417,1.054259,5.062671,-63.0,-4.0,103.0,-40.0,20.0,267.0,-1148.0,-4.0,321.0,1020.849,-1.256094,3462.0,-0.03259933,-0.0008298923333333,0.0179593366666666,-0.006120674,-1.162483,-0.0129282425333333,52960.0,29342.0,10050.0,13.0,27.0,-30.0,0,None
2022-12-29 11:56:42.720000,0:00:00.500000,149.541,0.5,100.0,1078.0,23946.0,4890.0,99.0,1129.0,60.0,4888.0,-70.13972,0.6793098,-0.036337395,0.0137300725,-1.16907,52.975,-0.033326675,0.02106417,-1.157493,0.5035177,1.375251,11.80374,-38.0,34.0,94.0,-22.0,33.0,257.0,-1195.0,15.0,274.0,1020.824,-1.280859,3463.0,-0.033326675,0.0251827649999999,0.02106417,0.053545765,-1.157493,0.01528957,52970.0,29353.0,10060.0,8.0,26.0,-29.0,0,None
2022-12-29 11:56:43.240000,0:00:00.520000,150.061,0.5200000000000102,100.0,1075.0,23953.0,4887.0,99.0,1078.0,62.0,4887.0,-67.6726,0.7395658,-0.0276901733333333,0.02280398,-1.1668736666666666,52.99,-0.0249658,0.0292548033333333,-1.1534726666666668,0.516842,1.224327,10.03039,-40.0,66.0,81.0,28.0,35.0,287.0,-1077.0,0.0,294.0,1020.868,-1.236875,3466.0,-0.0249658,0.02509615,0.0292548033333333,0.0150012399999999,-1.1534726666666668,-0.0097014133333333,52990.0,29398.0,10080.0,10.0,29.0,-31.0,0,None
2022-12-29 11:56:43.740000,0:00:00.500000,150.561,0.5,99.0,1142.0,23912.0,4887.0,99.0,1056.0,64.0,4890.0,-66.30213,0.7802634,-0.0344545849999999,0.0124322755,-1.1673205,52.995000000000005,-0.0326247199999999,0.01799276,-1.152311,0.6925272,1.612013,8.312432,-73.0,-45.0,97.0,-48.0,-45.0,234.0,-959.0,0.0,313.0,1020.845,-1.260234,3467.0,-0.0326247199999999,-0.03100388,0.01799276,-0.063518655,-1.152311,0.013185624,53000.0,29394.0,10090.0,11.0,37.0,-36.0,0,None
2022-12-29 11:56:44.260000,0:00:00.520000,151.081,0.5199999999999818,99.0,1158.0,23927.0,4890.0,99.0,1111.0,65.0,4890.0,-64.40474,0.840408,-0.0591924966666666,0.0040011753333333,-1.171251,52.96666666666667,-0.0561019766666666,0.0113665486666666,-1.1549913333333333,0.4733182,1.290201,10.79374,-57.0,2.0,107.0,5.0,25.0,253.0,-1042.0,0.0,293.0,1020.833,-1.271797,3468.0,-0.0562936533333333,-0.0065685533333333,0.0114236986666666,0.0064686686666666,-1.154873,0.005915007,52970.0,29387.0,10060.0,10.0,36.0,-35.0,0,None
2022-12-29 11:56:44.760000,0:00:00.500000,151.581,0.5,99.0,1106.0,23939.0,4880.0,99.0,1137.0,67.0,4880.0,-63.28233,0.8811247,-0.056563475,0.0076297645,-1.177369,52.965,-0.05302353,0.014591875,-1.159921,0.5293955,1.643113,7.891404,-60.0,0.0,117.0,-29.0,24.0,266.0,-1100.0,-27.0,300.0,1020.849,-1.256016,3470.0,-0.05302353,0.0135135565,0.014591875,0.0114569275,-1.159921,-0.00118827,52960.0,29360.0,10050.0,8.0,24.0,-36.0,0,None
2022-12-29 11:56:45.280000,0:00:00.520000,152.101,0.5200000000000102,99.0,1134.0,23918.0,4882.0,99.0,1154.0,68.0,4880.0,-61.81972,0.9439372,-0.0424477699999999,0.01322017,-1.181764,52.97,-0.0392164633333333,0.0197513466666666,-1.163881,0.3886451,1.967402,9.696584,-45.0,8.0,103.0,-61.0,49.0,247.0,-916.0,7.0,291.0,1020.833,-1.271953,3471.0,-0.0392164633333333,0.0397059666666666,0.0197513466666666,0.0126330523,-1.163881,0.001438984,52970.0,29339.0,10060.0,9.0,16.0,-31.0,0,None
2022-12-29 11:56:45.780000,0:00:00.500000,152.601,0.5,99.0,1121.0,23951.0,4883.0,99.0,1151.0,70.0,4883.0,-60.97343,0.9859917,-0.03254598,0.014578245,-1.1842795000000002,52.97,-0.029864485,0.0210489349999999,-1.166162,0.4509197,1.392068,5.819502,-45.0,-8.0,99.0,-12.0,28.0,250.0,-1133.0,0.0,292.0,1020.818,-1.286719,3473.0,-0.029864485,0.01989179,0.0210489349999999,0.0038547184999999,-1.166162,0.0056954398,52970.0,29318.0,10060.0,8.0,15.0,-32.0,0,None
2022-12-29 11:56:46.300000,0:00:00.520000,153.121,0.5200000000000102,99.0,1173.0,23934.0,4890.0,99.0,1134.0,71.0,4890.0,-59.81469,1.046267,-0.02835288,0.0153878766666666,-1.1814053333333332,52.98333333333333,-0.02544128,0.0220590433333333,-1.162375333333333,0.5775019,1.182221,4.125047,-70.0,24.0,91.0,-49.0,25.0,261.0,-958.0,4.0,282.0,1020.81,-1.294922,3474.0,-0.02544128,-0.00180577,0.0220590433333333,0.0024601316666666,-1.162375333333333,0.0051257623333333,52980.0,29335.0,10070.0,8.0,15.0,-35.0,0,None
2022-12-29 11:56:46.820000,0:00:00.520000,153.642,0.5209999999999866,99.0,1145.0,23927.0,4893.0,99.0,1092.0,73.0,4893.0,-58.76739,1.101836,-0.028369395,0.01314862,-1.183224,52.995000000000005,-0.02610378,0.02044452,-1.1627775,0.5413928,1.29181,9.466177,-42.0,0.0,95.0,5.0,-2.0,276.0,-1136.0,-27.0,321.0,1020.825,-1.279766,3476.0,-0.02610378,-0.0045063765,0.02044452,-0.0177571305,-1.1627775,0.000170605,52990.0,29344.0,10080.0,8.0,20.0,-34.0,0,None
2022-12-29 11:56:47.340000,0:00:00.520000,154.162,0.5200000000000102,99.0,1141.0,23922.0,4893.0,99.0,1191.0,75.0,4893.0,-58.12825,1.136189,-0.0293867866666666,0.0095802743333333,-1.1867416666666666,53.02333333333333,-0.0261259833333333,0.0167309433333333,-1.1651533333333333,0.4587927,1.614455,7.912239,-51.0,-24.0,94.0,-65.0,17.0,272.0,-1002.0,0.0,306.0,1020.797,-1.307734,3478.0,-0.0261259833333333,-0.0018012766666666,0.0167309433333333,-0.0197032189999999,-1.1651533333333333,0.0128703033333333,53020.0,29327.0,10110.0,8.0,24.0,-33.0,0,None
2022-12-29 11:56:47.862000,0:00:00.522000,154.684,0.5219999999999914,98.0,1031.0,23930.0,4890.0,99.0,1097.0,77.0,4896.0,-57.27663,1.184267,-0.02611483,-0.00263063175,-1.1923625,53.055,-0.0233014299999999,0.005098314,-1.170213,0.4905758,1.386923,6.529391,-61.0,5.0,92.0,-55.0,52.0,255.0,-1044.0,9.0,316.0,1020.825,-1.279922,3479.0,-0.0233014299999999,-0.03633694,0.005098314,-0.0042208,-1.170213,-0.0225397699999999,53050.0,29305.0,10140.0,3.0,25.0,-34.0,0,None
2022-12-29 11:56:48.362000,0:00:00.500000,155.204,0.5200000000000102,98.0,1145.0,23921.0,4898.0,99.0,1161.0,78.0,4883.0,-56.80617,1.213872,-0.0381345533333333,0.0125211023333333,-1.189578,53.06,-0.0350676833333333,0.0201722266666666,-1.166583666666667,0.4659121,1.439014,7.470295,-52.0,66.0,100.0,-15.0,-43.0,263.0,-1154.0,26.0,308.0,1020.774,-1.331484,3480.0,-0.0350676833333333,-0.03101085,0.0201722266666666,0.05634695,-1.166583666666667,0.0016616739999999,53060.0,29313.0,10150.0,-8.0,26.0,-38.0,0,None
2022-12-29 11:56:48.902000,0:00:00.540000,155.724,0.5199999999999818,98.0,1129.0,23895.0,4890.0,99.0,1153.0,80.0,4896.0,-56.17457,1.256352,-0.044922825,0.02934306,-1.1892475,53.08,-0.04056882,0.037450455,-1.165387,0.4894043,1.21553,8.730372,-64.0,26.0,92.0,-21.0,43.0,270.0,-1013.0,-29.0,284.0,1020.796,-1.309062,3482.0,-0.04056882,-0.0104349875,0.037450455,0.015659739,-1.165387,0.0169245715,53070.0,29324.0,10160.0,-7.0,23.0,-40.0,0,None
2022-12-29 11:56:49.422000,0:00:00.520000,156.244,0.5200000000000102,98.0,1138.0,23888.0,4880.0,99.0,1143.0,81.0,4901.0,-55.48344,1.298854,-0.0538478299999999,0.0318455766666666,-1.1913896666666668,53.11333333333334,-0.0497982466666666,0.0390166499999999,-1.1666053333333333,0.4907471,1.532126,9.602164,-58.0,-19.0,99.0,-76.0,23.0,276.0,-911.0,0.0,296.0,1020.765,-1.340703,3483.0,-0.0497982466666666,0.018016123,0.0390166499999999,-0.0012805206666666,-1.1666053333333333,0.0033236364,53100.0,29314.0,10190.0,0.0,17.0,-43.0,0,None
2022-12-29 11:56:49.942000,0:00:00.520000,156.764,0.5200000000000102,98.0,1065.0,23911.0,4893.0,99.0,1056.0,83.0,4901.0,-55.0184,1.328645,-0.0254314,0.025311145,-1.1875425000000002,53.14,-0.021801715,0.03297311,-1.161488,0.4840373,1.288457,9.985092,-22.0,-10.0,90.0,1.0,99.0,280.0,-1049.0,16.0,306.0,1020.826,-1.279063,3485.0,-0.021801715,0.056716925,0.03297311,-0.0345622749999999,-1.161488,0.020976605,53140.0,29335.0,10230.0,10.0,11.0,-40.0,0,None
2022-12-29 11:56:50.482000,0:00:00.540000,157.304,0.539999999999992,98.0,999.0,23947.0,4893.0,99.0,1020.0,84.0,4901.0,-54.312,1.371136,-0.0021327833333333,0.0167303966666666,-1.1736236666666666,53.13333333333333,0.000835555,0.0245880966666666,-1.1473076666666666,0.534197,1.503066,12.98205,-26.0,44.0,99.0,-52.0,41.0,283.0,-1099.0,68.0,317.0,1020.863,-1.241953,3486.0,0.000835555,0.0290543099999999,0.0245880966666666,-0.0230381666666666,-1.1473076666666666,0.0235727523333333,53140.0,29388.0,10230.0,11.0,18.0,-38.0,0,None
2022-12-29 11:56:50.582000,0:00:00.100000,157.404,0.0999999999999943,98.0,999.0,23947.0,4893.0,99.0,1196.0,86.0,4893.0,-54.312,1.371136,-0.0021327833333333,0.0167303966666666,-1.1736236666666666,53.13333333333333,0.000835555,0.0245880966666666,-1.1473076666666666,0.5982172,1.381498,8.992817,-26.0,44.0,99.0,-52.0,41.0,283.0,-1099.0,68.0,317.0,1020.863,-1.241953,3486.0,0.000835555,0.0290543099999999,0.0245880966666666,-0.0230381666666666,-1.1473076666666666,0.0235727523333333,53100.0,29510.0,10190.0,7.0,33.0,-39.0,0,None
2022-12-29 11:56:50.683000,0:00:00.101000,157.505,0.100999999999999,98.0,1120.0,23899.0,4890.0,99.0,1096.0,86.0,4893.0,-54.07348,1.383493,0.003387995,0.01865502,-1.158772,53.09,0.006521275,0.02593731,-1.132054,0.5562118,1.591181,9.700381,-10.0,-36.0,96.0,-34.0,-66.0,263.0,-1114.0,60.0,314.0,1020.846,-1.259609,3487.0,0.006521275,-0.07932732,0.02593731,0.01748503,-1.132054,0.02398977,53100.0,29510.0,10190.0,7.0,33.0,-39.0,0,None
2022-12-29 11:56:50.783000,0:00:00.100000,157.605,0.0999999999999943,98.0,1120.0,23899.0,4890.0,99.0,1120.0,87.0,4880.0,-54.07348,1.383493,0.003387995,0.01865502,-1.158772,53.09,0.006521275,0.02593731,-1.132054,0.5366371,1.390382,10.16796,-10.0,-36.0,96.0,-34.0,-66.0,263.0,-1114.0,60.0,314.0,1020.846,-1.259609,3487.0,0.006521275,-0.07932732,0.02593731,0.01748503,-1.132054,0.02398977,53100.0,29510.0,10190.0,7.0,33.0,-39.0,0,None
2022-12-29 11:56:50.881000,0:00:00.098000,157.704,0.0990000000000179,98.0,1120.0,23899.0,4890.0,99.0,1184.0,87.0,4900.0,-53.83826,1.394834,-0.01402614,0.01577811,-1.155429,53.07,-0.01220674,0.0247066,-1.128557,0.6240066,1.295795,8.513237,-10.0,-36.0,96.0,-34.0,-66.0,263.0,-1114.0,60.0,314.0,1020.846,-1.259609,3487.0,-0.01220674,-0.120505,0.0247066,0.03784747,-1.128557,0.002247346,53100.0,29510.0,10190.0,7.0,33.0,-39.0,0,None
2022-12-29 11:56:50.982000,0:00:00.101000,157.805,0.100999999999999,98.0,1120.0,23899.0,4890.0,99.0,1073.0,87.0,4871.0,-53.83826,1.394834,-0.01402614,0.01577811,-1.155429,53.07,-0.01220674,0.0247066,-1.128557,0.5140174,1.351617,9.502253,-10.0,-36.0,96.0,-34.0,-66.0,263.0,-1114.0,60.0,314.0,1020.846,-1.259609,3487.0,-0.01220674,-0.120505,0.0247066,0.03784747,-1.128557,0.002247346,53100.0,29510.0,10190.0,7.0,33.0,-39.0,0,None
2022-12-29 11:56:51.082000,0:00:00.100000,157.905,0.0999999999999943,98.0,1120.0,23899.0,4890.0,99.0,1052.0,88.0,4896.0,-53.60056,1.405087,-0.05132552,0.008212565,-1.159914,53.05,-0.04945713,0.01772284,-1.133086,0.6217918,1.71969,10.82132,-10.0,-36.0,96.0,-34.0,-66.0,263.0,-1114.0,60.0,314.0,1020.846,-1.259609,3487.0,-0.04945713,-0.281961,0.01772284,-0.07351401,-1.133086,-0.05677223,53050.0,29500.0,10140.0,4.0,35.0,-37.0,0,None
2022-12-29 11:56:51.182000,0:00:00.100000,158.005,0.0999999999999943,98.0,1184.0,23863.0,4890.0,99.0,1181.0,88.0,4875.0,-53.60056,1.405087,-0.05132552,0.008212565,-1.159914,53.05,-0.04945713,0.01772284,-1.133086,0.5427249,1.275592,8.460875,-50.0,-5.0,118.0,-51.0,-254.0,293.0,-1145.0,-58.0,321.0,1020.771,-1.334219,3489.0,-0.04945713,-0.281961,0.01772284,-0.07351401,-1.133086,-0.05677223,53050.0,29500.0,10140.0,4.0,35.0,-37.0,0,None
2022-12-29 11:56:51.282000,0:00:00.100000,158.105,0.0999999999999943,98.0,1184.0,23863.0,4890.0,99.0,1184.0,88.0,4890.0,-53.35572,1.414526,-0.1038707,0.002443665,-1.16528,53.04,-0.09990134,0.01080044,-1.138076,0.5583912,1.389683,10.58836,-50.0,-5.0,118.0,-51.0,-254.0,293.0,-1145.0,-58.0,321.0,1020.771,-1.334219,3489.0,-0.09990134,-0.2813979,0.01080044,0.02352251,-1.138076,-0.01288488,53050.0,29500.0,10140.0,4.0,35.0,-37.0,0,None
2022-12-29 11:56:51.382000,0:00:00.100000,158.205,0.1000000000000227,98.0,1184.0,23863.0,4890.0,99.0,1165.0,88.0,4887.0,-53.35572,1.414526,-0.1038707,0.002443665,-1.16528,53.04,-0.09990134,0.01080044,-1.138076,0.4921075,1.197407,8.577802,-50.0,-5.0,118.0,-51.0,-254.0,293.0,-1145.0,-58.0,321.0,1020.771,-1.334219,3489.0,-0.09990134,-0.2813979,0.01080044,0.02352251,-1.138076,-0.01288488,53050.0,29500.0,10140.0,4.0,35.0,-37.0,0,None
2022-12-29 11:56:51.482000,0:00:00.100000,158.305,0.0999999999999943,98.0,1184.0,23863.0,4890.0,99.0,1228.0,89.0,4896.0,-53.1108,1.423729,-0.1485854,0.008253257,-1.168306,53.05,-0.1435799,0.01720316,-1.141132,0.4896352,1.315953,8.178367,-50.0,-5.0,118.0,-51.0,-254.0,293.0,-1145.0,-58.0,321.0,1020.771,-1.334219,3489.0,-0.1435799,-0.1511288,0.01720316,0.05802595,-1.141132,0.003644132,53050.0,29500.0,10140.0,4.0,35.0,-37.0,0,None
2022-12-29 11:56:51.582000,0:00:00.100000,158.405,0.0999999999999943,98.0,1184.0,23863.0,4890.0,99.0,1216.0,89.0,4887.0,-53.1108,1.423729,-0.1485854,0.008253257,-1.168306,53.05,-0.1435799,0.01720316,-1.141132,0.4878678,1.684785,8.823572,-50.0,-5.0,118.0,-51.0,-254.0,293.0,-1145.0,-58.0,321.0,1020.771,-1.334219,3489.0,-0.1435799,-0.1511288,0.01720316,0.05802595,-1.141132,0.003644132,53080.0,29437.0,10170.0,24.0,-14.0,-21.0,0,None
2022-12-29 11:56:51.682000,0:00:00.100000,158.505,0.0999999999999943,98.0,1285.0,23855.0,4893.0,99.0,1252.0,90.0,4890.0,-52.90252,1.432504,-0.17643,0.01266691,-1.173575,53.09,-0.1702967,0.02150855,-1.146629,0.4791088,1.518124,9.159142,-33.0,75.0,151.0,-39.0,-69.0,271.0,-1087.0,7.0,263.0,1020.767,-1.338203,3491.0,-0.1702967,-0.09491917,0.02150855,0.07079059,-1.146629,-0.05297523,53080.0,29437.0,10170.0,24.0,-14.0,-21.0,0,None
2022-12-29 11:56:51.782000,0:00:00.100000,158.605,0.0999999999999943,98.0,1285.0,23855.0,4893.0,99.0,1285.0,90.0,4880.0,-52.90252,1.432504,-0.17643,0.01266691,-1.173575,53.09,-0.1702967,0.02150855,-1.146629,0.4188967,1.271698,7.0083,-33.0,75.0,151.0,-39.0,-69.0,271.0,-1087.0,7.0,263.0,1020.767,-1.338203,3491.0,-0.1702967,-0.09491917,0.02150855,0.07079059,-1.146629,-0.05297523,53080.0,29437.0,10170.0,24.0,-14.0,-21.0,0,None
2022-12-29 11:56:51.882000,0:00:00.100000,158.705,0.1000000000000227,98.0,1285.0,23855.0,4893.0,99.0,1270.0,90.0,4874.0,-52.7048,1.4407,-0.1858133,0.01793515,-1.180797,53.16,-0.1784047,0.0270486,-1.154308,0.4625049,1.598214,9.025698,-33.0,75.0,151.0,-39.0,-69.0,271.0,-1087.0,7.0,263.0,1020.767,-1.338203,3491.0,-0.1784047,0.05735802,0.0270486,-0.001720733,-1.154308,-0.02810827,53080.0,29437.0,10170.0,24.0,-14.0,-21.0,0,None
2022-12-29 11:56:51.982000,0:00:00.100000,158.805,0.0999999999999943,98.0,1285.0,23855.0,4893.0,99.0,1254.0,91.0,4883.0,-52.7048,1.4407,-0.1858133,0.01793515,-1.180797,53.16,-0.1784047,0.0270486,-1.154308,0.4340205,1.633973,7.286508,-33.0,75.0,151.0,-39.0,-69.0,271.0,-1087.0,7.0,263.0,1020.767,-1.338203,3491.0,-0.1784047,0.05735802,0.0270486,-0.001720733,-1.154308,-0.02810827,53080.0,29437.0,10170.0,24.0,-14.0,-21.0,0,None
2022-12-29 11:56:52.100000,0:00:00.118000,158.923,0.117999999999995,98.0,1285.0,23855.0,4893.0,99.0,1141.0,91.0,4896.0,-52.51565,1.448515,-0.170657,0.01641884,-1.191382,53.27,-0.1640797,0.02414066,-1.164654,0.3688627,1.399336,6.316557,-33.0,75.0,151.0,-39.0,-69.0,271.0,-1087.0,7.0,263.0,1020.767,-1.338203,3491.0,-0.1640797,0.1047027,0.02414066,0.004378949,-1.164654,-0.01244093,53330.0,29320.0,10420.0,60.0,-91.0,18.0,0,None
2022-12-29 11:56:52.202000,0:00:00.102000,159.025,0.1020000000000038,97.0,1080.0,23923.0,4890.0,99.0,1177.0,91.0,4893.0,-52.33095,1.455824,-0.170657,0.01641884,-1.191382,53.27,-0.1640797,0.02414066,-1.164654,0.4205813,1.156856,6.492746,-31.0,-11.0,129.0,-52.0,61.0,264.0,-1045.0,8.0,287.0,1020.711,-1.394063,3492.0,-0.1640797,0.1047027,0.02414066,0.004378949,-1.164654,-0.01244093,53330.0,29320.0,10420.0,60.0,-91.0,18.0,0,None
2022-12-29 11:56:52.302000,0:00:00.100000,159.125,0.0999999999999943,97.0,1080.0,23923.0,4890.0,99.0,1080.0,92.0,4890.0,-52.33095,1.455824,-0.1533908,0.01625815,-1.193605,53.42,-0.1477466,0.02217436,-1.166443,0.4958685,1.147461,8.852481,-31.0,-11.0,129.0,-52.0,61.0,264.0,-1045.0,8.0,287.0,1020.711,-1.394063,3492.0,-0.1477466,0.08723389,0.02217436,-0.03427642,-1.166443,-0.01221158,53330.0,29320.0,10420.0,60.0,-91.0,18.0,0,None
2022-12-29 11:56:52.402000,0:00:00.100000,159.225,0.0999999999999943,97.0,1080.0,23923.0,4890.0,99.0,989.0,92.0,4896.0,-52.15158,1.462983,-0.1533908,0.01625815,-1.193605,53.42,-0.1477466,0.02217436,-1.166443,0.5425804,1.216268,10.08574,-31.0,-11.0,129.0,-52.0,61.0,264.0,-1045.0,8.0,287.0,1020.711,-1.394063,3492.0,-0.1477466,0.08723389,0.02217436,-0.03427642,-1.166443,-0.01221158,53330.0,29320.0,10420.0,60.0,-91.0,18.0,0,None
2022-12-29 11:56:52.502000,0:00:00.100000,159.325,0.0999999999999943,97.0,1080.0,23923.0,4890.0,99.0,992.0,92.0,4896.0,-52.15158,1.462983,-0.13175,0.007440975,-1.193141,53.57,-0.1259746,0.0133113,-1.165649,0.4917594,1.219859,11.65442,-31.0,-11.0,129.0,-52.0,61.0,264.0,-1045.0,8.0,287.0,1020.711,-1.394063,3492.0,-0.1259746,0.1034215,0.0133113,-0.02801957,-1.165649,0.01740233,53330.0,29320.0,10420.0,60.0,-91.0,18.0,0,None
2022-12-29 11:56:52.602000,0:00:00.100000,159.425,0.1000000000000227,97.0,1080.0,23923.0,4890.0,99.0,1103.0,92.0,4890.0,-51.97609,1.470077,-0.13175,0.007440975,-1.193141,53.57,-0.1259746,0.0133113,-1.165649,0.5139641,1.359222,12.28441,-31.0,-11.0,129.0,-52.0,61.0,264.0,-1045.0,8.0,287.0,1020.711,-1.394063,3492.0,-0.1259746,0.1034215,0.0133113,-0.02801957,-1.165649,0.01740233,53700.0,29357.0,10790.0,83.0,-148.0,23.0,0,None
2022-12-29 11:56:52.702000,0:00:00.100000,159.525,0.0999999999999943,97.0,937.0,23936.0,4896.0,99.0,1073.0,93.0,4893.0,-51.97609,1.470077,-0.1120268,0.004730384,-1.18708,53.72,-0.1079389,0.0107635,-1.159442,0.5722319,1.295227,9.912067,-46.0,-44.0,126.0,0.0,95.0,254.0,-1008.0,8.0,296.0,1020.798,-1.307578,3493.0,-0.1079389,0.08687039,0.0107635,-0.003055015,-1.159442,0.002358592,53700.0,29357.0,10790.0,83.0,-148.0,23.0,0,None
2022-12-29 11:56:52.802000,0:00:00.100000,159.625,0.0999999999999943,97.0,937.0,23936.0,4896.0,99.0,937.0,93.0,4893.0,-51.81111,1.477273,-0.1120268,0.004730384,-1.18708,53.72,-0.1079389,0.0107635,-1.159442,0.476545,1.603351,9.080529,-46.0,-44.0,126.0,0.0,95.0,254.0,-1008.0,8.0,296.0,1020.798,-1.307578,3493.0,-0.1079389,0.08687039,0.0107635,-0.003055015,-1.159442,0.002358592,53700.0,29357.0,10790.0,83.0,-148.0,23.0,0,None
2022-12-29 11:56:52.902000,0:00:00.100000,159.725,0.0999999999999943,97.0,937.0,23936.0,4896.0,99.0,1130.0,93.0,4901.0,-51.81111,1.477273,-0.09002459,0.00144046,-1.184182,53.84,-0.08644453,0.008226953,-1.157212,0.4567193,1.575191,11.28651,-46.0,-44.0,126.0,0.0,95.0,254.0,-1008.0,8.0,296.0,1020.798,-1.307578,3493.0,-0.08644453,0.09225751,0.008226953,0.0750207,-1.157212,0.009735527,53700.0,29357.0,10790.0,83.0,-148.0,23.0,0,None
2022-12-29 11:56:53.002000,0:00:00.100000,159.825,0.0999999999999943,97.0,937.0,23936.0,4896.0,99.0,1209.0,94.0,4888.0,-51.65634,1.484743,-0.09002459,0.00144046,-1.184182,53.84,-0.08644453,0.008226953,-1.157212,0.3931963,1.775459,10.74704,-46.0,-44.0,126.0,0.0,95.0,254.0,-1008.0,8.0,296.0,1020.798,-1.307578,3493.0,-0.08644453,0.09225751,0.008226953,0.0750207,-1.157212,0.009735527,53700.0,29357.0,10790.0,83.0,-148.0,23.0,0,None
2022-12-29 11:56:53.120000,0:00:00.118000,159.943,0.1180000000000234,97.0,937.0,23936.0,4896.0,99.0,1072.0,94.0,4890.0,-51.65634,1.484743,-0.08081819,-0.002087164,-1.182684,53.94,-0.07895917,0.003778748,-1.156083,0.4663145,1.646026,8.958202,-46.0,-44.0,126.0,0.0,95.0,254.0,-1008.0,8.0,296.0,1020.798,-1.307578,3493.0,-0.07895917,-0.01150743,0.003778748,-0.02975936,-1.156083,-0.004048456,53980.0,29367.0,11070.0,91.0,-179.0,33.0,0,None
2022-12-29 11:56:53.202000,0:00:00.082000,160.025,0.0819999999999936,97.0,1106.0,23876.0,4890.0,99.0,1030.0,94.0,4890.0,-51.50861,1.492181,-0.08081819,-0.002087164,-1.182684,53.94,-0.07895917,0.003778748,-1.156083,0.4787868,1.324443,8.513947,-70.0,57.0,137.0,-19.0,-83.0,264.0,-1023.0,-23.0,315.0,1020.769,-1.336172,3495.0,-0.07895917,-0.01150743,0.003778748,-0.02975936,-1.156083,-0.004048456,53980.0,29367.0,11070.0,91.0,-179.0,33.0,0,None
2022-12-29 11:56:53.302000,0:00:00.100000,160.125,0.0999999999999943,97.0,1106.0,23876.0,4890.0,99.0,1106.0,94.0,4895.0,-51.50861,1.492181,-0.08669269,0.006072089,-1.189007,54.05,-0.08636892,0.01309345,-1.162814,0.5340296,1.41046,10.18678,-70.0,57.0,137.0,-19.0,-83.0,264.0,-1023.0,-23.0,315.0,1020.769,-1.336172,3495.0,-0.08636892,-0.008714562,0.01309345,0.1177317,-1.162814,-0.04451885,53980.0,29367.0,11070.0,91.0,-179.0,33.0,0,None
2022-12-29 11:56:53.402000,0:00:00.100000,160.225,0.0999999999999943,97.0,1106.0,23876.0,4890.0,99.0,1047.0,95.0,4893.0,-51.36603,1.499262,-0.08669269,0.006072089,-1.189007,54.05,-0.08636892,0.01309345,-1.162814,0.6303159,1.207273,7.95217,-70.0,57.0,137.0,-19.0,-83.0,264.0,-1023.0,-23.0,315.0,1020.769,-1.336172,3495.0,-0.08636892,-0.008714562,0.01309345,0.1177317,-1.162814,-0.04451885,53980.0,29367.0,11070.0,91.0,-179.0,33.0,0,None
2022-12-29 11:56:53.502000,0:00:00.100000,160.325,0.0999999999999943,97.0,1106.0,23876.0,4890.0,99.0,1197.0,95.0,4901.0,-51.36603,1.499262,-0.07957471,0.02608999,-1.195002,54.15,-0.07850454,0.03274519,-1.168475,0.6924688,1.23727,6.46927,-70.0,57.0,137.0,-19.0,-83.0,264.0,-1023.0,-23.0,315.0,1020.769,-1.336172,3495.0,-0.07850454,0.05419015,0.03274519,0.08614524,-1.168475,-0.02625792,53980.0,29367.0,11070.0,91.0,-179.0,33.0,0,None
2022-12-29 11:56:53.602000,0:00:00.100000,160.425,0.1000000000000227,97.0,1106.0,23876.0,4890.0,99.0,1264.0,95.0,4890.0,-51.23005,1.506016,-0.07957471,0.02608999,-1.195002,54.15,-0.07850454,0.03274519,-1.168475,0.7322366,1.601454,6.625135,-70.0,57.0,137.0,-19.0,-83.0,264.0,-1023.0,-23.0,315.0,1020.769,-1.336172,3495.0,-0.07850454,0.05419015,0.03274519,0.08614524,-1.168475,-0.02625792,54260.0,29270.0,11350.0,107.0,-196.0,39.0,0,None
2022-12-29 11:56:53.702000,0:00:00.100000,160.525,0.0999999999999943,97.0,931.0,23942.0,4893.0,99.0,1067.0,96.0,4895.0,-51.23005,1.506016,-0.09330731,0.02011622,-1.202283,54.27,-0.09099941,0.02680855,-1.175469,0.8543044,1.539872,5.568257,-87.0,-24.0,109.0,3.0,-292.0,276.0,-1053.0,-39.0,292.0,1020.778,-1.326953,3496.0,-0.09099941,-0.2386805,0.02680855,-0.07105086,-1.175469,-0.01396269,54260.0,29270.0,11350.0,107.0,-196.0,39.0,0,None
2022-12-29 11:56:53.802000,0:00:00.100000,160.625,0.0999999999999943,97.0,931.0,23942.0,4893.0,99.0,931.0,96.0,4883.0,-51.09716,1.512671,-0.09330731,0.02011622,-1.202283,54.27,-0.09099941,0.02680855,-1.175469,0.8896115,1.523492,8.379543,-87.0,-24.0,109.0,3.0,-292.0,276.0,-1053.0,-39.0,292.0,1020.778,-1.326953,3496.0,-0.09099941,-0.2386805,0.02680855,-0.07105086,-1.175469,-0.01396269,54260.0,29270.0,11350.0,107.0,-196.0,39.0,0,None
2022-12-29 11:56:53.902000,0:00:00.100000,160.725,0.0999999999999943,97.0,931.0,23942.0,4893.0,99.0,1193.0,96.0,4900.0,-51.09716,1.512671,-0.1365767,0.006651156,-1.214445,54.39,-0.1344209,0.01238856,-1.186916,0.7077469,1.413978,10.46625,-87.0,-24.0,109.0,3.0,-292.0,276.0,-1053.0,-39.0,292.0,1020.778,-1.326953,3496.0,-0.1344209,-0.1407021,0.01238856,-0.1691834,-1.186916,-0.07881242,54260.0,29270.0,11350.0,107.0,-196.0,39.0,0,None
2022-12-29 11:56:54.002000,0:00:00.100000,160.825,0.0999999999999943,97.0,931.0,23942.0,4893.0,99.0,1261.0,97.0,4890.0,-50.96641,1.519245,-0.1365767,0.006651156,-1.214445,54.39,-0.1344209,0.01238856,-1.186916,0.6170141,1.456194,9.479057,-87.0,-24.0,109.0,3.0,-292.0,276.0,-1053.0,-39.0,292.0,1020.778,-1.326953,3496.0,-0.1344209,-0.1407021,0.01238856,-0.1691834,-1.186916,-0.07881242,54260.0,29270.0,11350.0,107.0,-196.0,39.0,0,None
2022-12-29 11:56:54.120000,0:00:00.118000,160.943,0.1180000000000234,97.0,931.0,23942.0,4893.0,99.0,1517.0,97.0,4880.0,-50.96641,1.519245,-0.1498454,-0.0007304589,-1.222464,54.51,-0.148391,0.006480379,-1.194886,0.5234883,1.453197,7.850467,-87.0,-24.0,109.0,3.0,-292.0,276.0,-1053.0,-39.0,292.0,1020.778,-1.326953,3496.0,-0.148391,0.0001876455,0.006480379,0.05109189,-1.194886,-0.0263825,54560.0,29154.0,11650.0,124.0,-231.0,36.0,0,None
2022-12-29 11:56:54.202000,0:00:00.082000,161.025,0.0819999999999936,97.0,1389.0,23816.0,4895.0,99.0,1514.0,98.0,4893.0,-50.84344,1.525901,-0.1498454,-0.0007304589,-1.222464,54.51,-0.148391,0.006480379,-1.194886,0.4741818,1.636374,8.036684,-63.0,-68.0,132.0,24.0,61.0,293.0,-1233.0,11.0,302.0,1020.624,-1.480937,3497.0,-0.148391,0.0001876455,0.006480379,0.05109189,-1.194886,-0.0263825,54560.0,29154.0,11650.0,124.0,-231.0,36.0,0,None
2022-12-29 11:56:54.302000,0:00:00.100000,161.125,0.0999999999999943,97.0,1389.0,23816.0,4895.0,99.0,1389.0,98.0,4891.0,-50.84344,1.525901,-0.1463591,-0.009762825,-1.221844,54.63,-0.1444596,-0.001311726,-1.194717,0.5240648,1.444226,6.823193,-63.0,-68.0,132.0,24.0,61.0,293.0,-1233.0,11.0,302.0,1020.624,-1.480937,3497.0,-0.1444596,-0.02197453,-0.001311726,-0.03132695,-1.194717,-0.006562486,54560.0,29154.0,11650.0,124.0,-231.0,36.0,0,None
2022-12-29 11:56:54.402000,0:00:00.100000,161.225,0.0999999999999943,97.0,1389.0,23816.0,4895.0,99.0,1284.0,98.0,4893.0,-50.73513,1.532452,-0.1463591,-0.009762825,-1.221844,54.63,-0.1444596,-0.001311726,-1.194717,0.4799587,1.583279,6.21957,-63.0,-68.0,132.0,24.0,61.0,293.0,-1233.0,11.0,302.0,1020.624,-1.480937,3497.0,-0.1444596,-0.02197453,-0.001311726,-0.03132695,-1.194717,-0.006562486,54560.0,29154.0,11650.0,124.0,-231.0,36.0,0,None
2022-12-29 11:56:54.522000,0:00:00.120000,161.345,0.1200000000000045,97.0,1389.0,23816.0,4895.0,99.0,1281.0,99.0,4882.0,-50.73513,1.532452,-0.1330734,-0.01530282,-1.217487,54.78,-0.1319529,-0.006219042,-1.190529,0.5017195,1.72867,7.555194,-63.0,-68.0,132.0,24.0,61.0,293.0,-1233.0,11.0,302.0,1020.624,-1.480937,3497.0,-0.1319529,0.0168579,-0.006219042,0.01898279,-1.190529,0.003652545,54560.0,29154.0,11650.0,124.0,-231.0,36.0,0,None
2022-12-29 11:56:54.622000,0:00:00.100000,161.445,0.0999999999999943,97.0,1389.0,23816.0,4895.0,99.0,1053.0,99.0,4890.0,-50.63749,1.539179,-0.1371125,-0.01585877,-1.214193,54.95,-0.1352901,-0.008339491,-1.186792,0.5224782,1.946069,9.411104,-63.0,-68.0,132.0,24.0,61.0,293.0,-1233.0,11.0,302.0,1020.624,-1.480937,3497.0,-0.1352901,0.09413429,-0.008339491,-0.01682833,-1.186792,-0.006147034,54940.0,29199.0,12030.0,135.0,-267.0,50.0,0,None
2022-12-29 11:56:54.722000,0:00:00.100000,161.545,0.0999999999999943,97.0,1039.0,23907.0,4893.0,99.0,1053.0,99.0,4890.0,-50.63749,1.539179,-0.1371125,-0.01585877,-1.214193,54.95,-0.1352901,-0.008339491,-1.186792,0.5131437,1.992052,9.827506,-84.0,28.0,123.0,-67.0,73.0,259.0,-901.0,0.0,306.0,1020.648,-1.457109,3499.0,-0.1352901,0.09413429,-0.008339491,-0.01682833,-1.186792,-0.006147034,54940.0,29199.0,12030.0,135.0,-267.0,50.0,0,None
2022-12-29 11:56:54.840000,0:00:00.118000,161.663,0.1180000000000234,97.0,1039.0,23907.0,4893.0,99.0,1039.0,100.0,4893.0,-50.54797,1.545872,-0.1486892,-0.01635033,-1.211654,55.13,-0.14788,-0.006322177,-1.184874,0.5283518,1.954048,10.61419,-84.0,28.0,123.0,-67.0,73.0,259.0,-901.0,0.0,306.0,1020.648,-1.457109,3499.0,-0.14788,-0.06311785,-0.006322177,0.07114214,-1.184874,0.02936853,54940.0,29199.0,12030.0,135.0,-267.0,50.0,0,None
2022-12-29 11:56:54.922000,0:00:00.082000,161.745,0.0819999999999936,97.0,1039.0,23907.0,4893.0,99.0,1189.0,100.0,4896.0,-50.54797,1.545872,-0.1486892,-0.01635033,-1.211654,55.13,-0.14788,-0.006322177,-1.184874,0.5226623,1.816467,9.940197,-84.0,28.0,123.0,-67.0,73.0,259.0,-901.0,0.0,306.0,1020.648,-1.457109,3499.0,-0.14788,-0.06311785,-0.006322177,0.07114214,-1.184874,0.02936853,54940.0,29199.0,12030.0,135.0,-267.0,50.0,0,None
2022-12-29 11:56:55.022000,0:00:00.100000,161.845,0.0999999999999943,97.0,1039.0,23907.0,4893.0,99.0,1189.0,100.0,4891.0,-50.46616,1.552627,-0.1471153,-0.007218028,-1.208907,55.28,-0.1452312,0.00206339,-1.182337,0.4726377,1.745584,11.53924,-84.0,28.0,123.0,-67.0,73.0,259.0,-901.0,0.0,306.0,1020.648,-1.457109,3499.0,-0.1452312,0.0707529,0.00206339,0.04614926,-1.182337,-0.0199849,54940.0,29199.0,12030.0,135.0,-267.0,50.0,0,None
2022-12-29 11:56:55.122000,0:00:00.100000,161.945,0.0999999999999943,97.0,1039.0,23907.0,4893.0,99.0,1303.0,101.0,4877.0,-50.46616,1.552627,-0.1471153,-0.007218028,-1.208907,55.28,-0.1452312,0.00206339,-1.182337,0.4627644,1.700602,10.32137,-84.0,28.0,123.0,-67.0,73.0,259.0,-901.0,0.0,306.0,1020.648,-1.457109,3499.0,-0.1452312,0.0707529,0.00206339,0.04614926,-1.182337,-0.0199849,55340.0,29231.0,12430.0,134.0,-306.0,42.0,0,None
2022-12-29 11:56:55.262000,0:00:00.140000,162.085,0.1400000000000147,97.0,1299.0,23839.0,4890.0,99.0,1374.0,101.0,4895.0,-50.39368,1.559387,-0.1410773,0.009009276,-1.204974,55.46,-0.1395307,0.01765535,-1.179086,0.5026176,1.783262,9.345609,-86.0,75.0,131.0,-27.0,8.0,241.0,-1118.0,18.0,275.0,1020.557,-1.548125,3500.0,-0.1395307,0.08142363,0.01765535,0.05217106,-1.179086,0.03532843,55340.0,29231.0,12430.0,134.0,-306.0,42.0,0,None
2022-12-29 11:56:55.362000,0:00:00.100000,162.185,0.0999999999999943,97.0,1299.0,23839.0,4890.0,99.0,1304.0,102.0,4883.0,-50.39368,1.559387,-0.1410773,0.009009276,-1.204974,55.46,-0.1395307,0.01765535,-1.179086,0.4850945,1.485219,8.235731,-86.0,75.0,131.0,-27.0,8.0,241.0,-1118.0,18.0,275.0,1020.557,-1.548125,3500.0,-0.1395307,0.08142363,0.01765535,0.05217106,-1.179086,0.03532843,55340.0,29231.0,12430.0,134.0,-306.0,42.0,0,None
2022-12-29 11:56:55.480000,0:00:00.118000,162.303,0.117999999999995,97.0,1299.0,23839.0,4890.0,99.0,1313.0,102.0,4896.0,-50.32346,1.566222,-0.1378917,0.008694664,-1.205026,55.61,-0.1362721,0.01662887,-1.179328,0.5056248,1.496358,7.627468,-86.0,75.0,131.0,-27.0,8.0,241.0,-1118.0,18.0,275.0,1020.557,-1.548125,3500.0,-0.1362721,-0.05952862,0.01662887,0.01584185,-1.179328,0.006311974,55340.0,29231.0,12430.0,134.0,-306.0,42.0,0,None
2022-12-29 11:56:55.562000,0:00:00.082000,162.385,0.0819999999999936,97.0,1299.0,23839.0,4890.0,99.0,1138.0,102.0,4883.0,-50.32346,1.566222,-0.1378917,0.008694664,-1.205026,55.61,-0.1362721,0.01662887,-1.179328,0.5663486,1.556831,9.578509,-86.0,75.0,131.0,-27.0,8.0,241.0,-1118.0,18.0,275.0,1020.557,-1.548125,3500.0,-0.1362721,-0.05952862,0.01662887,0.01584185,-1.179328,0.006311974,55340.0,29231.0,12430.0,134.0,-306.0,42.0,0,None
2022-12-29 11:56:55.682000,0:00:00.120000,162.505,0.1200000000000045,97.0,1400.0,23802.0,4896.0,99.0,1211.0,103.0,4893.0,-50.26276,1.572829,-0.14113,0.0130668,-1.205115,55.79,-0.1394861,0.02150012,-1.179515,0.5279378,1.749014,10.76764,-99.0,-25.0,120.0,-25.0,109.0,263.0,-998.0,13.0,278.0,1020.515,-1.589844,3501.0,-0.1394861,0.1096863,0.02150012,-0.02597236,-1.179515,0.01368416,55770.0,29240.0,12860.0,148.0,-338.0,50.0,0,None
2022-12-29 11:56:55.803000,0:00:00.121000,162.626,0.1210000000000093,97.0,1400.0,23802.0,4896.0,99.0,1400.0,103.0,4887.0,-50.21213,1.579634,-0.14113,0.0130668,-1.205115,55.79,-0.1394861,0.02150012,-1.179515,0.5529556,1.704587,10.35192,-99.0,-25.0,120.0,-25.0,109.0,263.0,-998.0,13.0,278.0,1020.515,-1.589844,3501.0,-0.1394861,0.1096863,0.02150012,-0.02597236,-1.179515,0.01368416,55770.0,29240.0,12860.0,148.0,-338.0,50.0,0,None
2022-12-29 11:56:55.902000,0:00:00.099000,162.725,0.0989999999999895,97.0,1400.0,23802.0,4896.0,99.0,1391.0,103.0,4896.0,-50.21213,1.579634,-0.1289491,0.01513702,-1.211809,55.99,-0.1269196,0.01973662,-1.185185,0.5035363,1.347995,8.828444,-99.0,-25.0,120.0,-25.0,109.0,263.0,-998.0,13.0,278.0,1020.515,-1.589844,3501.0,-0.1269196,-0.0007444515,0.01973662,0.005058532,-1.185185,-0.009713758,55770.0,29240.0,12860.0,148.0,-338.0,50.0,0,None
2022-12-29 11:56:56.002000,0:00:00.100000,162.825,0.0999999999999943,97.0,1400.0,23802.0,4896.0,99.0,1266.0,104.0,4891.0,-50.16994,1.586397,-0.1289491,0.01513702,-1.211809,55.99,-0.1269196,0.01973662,-1.185185,0.5001954,1.240816,7.972391,-99.0,-25.0,120.0,-25.0,109.0,263.0,-998.0,13.0,278.0,1020.515,-1.589844,3501.0,-0.1269196,-0.0007444515,0.01973662,0.005058532,-1.185185,-0.009713758,55770.0,29240.0,12860.0,148.0,-338.0,50.0,0,None
2022-12-29 11:56:56.102000,0:00:00.100000,162.925,0.1000000000000227,97.0,1400.0,23802.0,4896.0,99.0,1070.0,104.0,4883.0,-50.16994,1.586397,-0.1311654,0.005619255,-1.215172,56.2,-0.1307538,0.01135469,-1.188668,0.6084627,1.29855,7.277993,-99.0,-25.0,120.0,-25.0,109.0,263.0,-998.0,13.0,278.0,1020.515,-1.589844,3501.0,-0.1307538,-0.03209722,0.01135469,-0.06625593,-1.188668,-0.002228447,55770.0,29240.0,12860.0,148.0,-338.0,50.0,0,None
2022-12-29 11:56:56.222000,0:00:00.120000,163.045,0.1199999999999761,97.0,1094.0,23871.0,4887.0,99.0,957.0,104.0,4891.0,-50.12769,1.59304,-0.1311654,0.005619255,-1.215172,56.2,-0.1307538,0.01135469,-1.188668,0.7733356,1.317802,8.403296,-104.0,68.0,127.0,-23.0,3.0,261.0,-911.0,21.0,293.0,1020.467,-1.638203,3503.0,-0.1307538,-0.03209722,0.01135469,-0.06625593,-1.188668,-0.002228447,56270.0,29188.0,13360.0,164.0,-361.0,72.0,0,None
2022-12-29 11:56:56.323000,0:00:00.101000,163.146,0.100999999999999,97.0,1094.0,23871.0,4887.0,99.0,1094.0,105.0,4883.0,-50.12769,1.59304,-0.1444026,0.01179493,-1.208103,56.44,-0.1432539,0.01786581,-1.181483,0.772959,1.453289,9.615081,-104.0,68.0,127.0,-23.0,3.0,261.0,-911.0,21.0,293.0,1020.467,-1.638203,3503.0,-0.1432539,-0.04204036,0.01786581,-0.0527778,-1.181483,0.04866449,56270.0,29188.0,13360.0,164.0,-361.0,72.0,0,None
2022-12-29 11:56:56.422000,0:00:00.099000,163.246,0.1000000000000227,97.0,1094.0,23871.0,4887.0,99.0,1035.0,105.0,4896.0,-50.09232,1.599756,-0.1444026,0.01179493,-1.208103,56.44,-0.1432539,0.01786581,-1.181483,0.6790307,1.271996,8.516103,-104.0,68.0,127.0,-23.0,3.0,261.0,-911.0,21.0,293.0,1020.467,-1.638203,3503.0,-0.1432539,-0.04204036,0.01786581,-0.0527778,-1.181483,0.04866449,56270.0,29188.0,13360.0,164.0,-361.0,72.0,0,None
2022-12-29 11:56:56.522000,0:00:00.100000,163.346,0.0999999999999943,97.0,1094.0,23871.0,4887.0,99.0,1159.0,105.0,4890.0,-50.09232,1.599756,-0.1468323,-0.003243014,-1.209441,56.64,-0.1457319,0.003782881,-1.182698,0.6839299,1.422214,6.016649,-104.0,68.0,127.0,-23.0,3.0,261.0,-911.0,21.0,293.0,1020.467,-1.638203,3503.0,-0.1457319,-0.06775014,0.003782881,-0.117818,-1.182698,-0.0742083,56270.0,29188.0,13360.0,164.0,-361.0,72.0,0,None
2022-12-29 11:56:56.623000,0:00:00.101000,163.446,0.0999999999999943,97.0,1094.0,23871.0,4887.0,99.0,1135.0,106.0,4896.0,-50.06072,1.606392,-0.1468323,-0.003243014,-1.209441,56.64,-0.1457319,0.003782881,-1.182698,0.617582,1.398654,5.546427,-104.0,68.0,127.0,-23.0,3.0,261.0,-911.0,21.0,293.0,1020.467,-1.638203,3503.0,-0.1457319,-0.06775014,0.003782881,-0.117818,-1.182698,-0.0742083,56270.0,29188.0,13360.0,164.0,-361.0,72.0,0,None
2022-12-29 11:56:56.723000,0:00:00.100000,163.546,0.0999999999999943,97.0,1188.0,23846.0,4893.0,99.0,1248.0,106.0,4861.0,-50.06072,1.606392,-0.1484233,-0.004393591,-1.217685,56.83,-0.1475379,0.002068385,-1.190832,0.6423865,1.107335,6.854627,-103.0,66.0,132.0,-21.0,-33.0,249.0,-1024.0,-33.0,285.0,1020.412,-1.692969,3504.0,-0.1475379,-0.007850011,0.002068385,0.04483618,-1.190832,-0.004265278,56790.0,29181.0,13880.0,173.0,-383.0,69.0,0,None
2022-12-29 11:56:56.823000,0:00:00.100000,163.646,0.0999999999999943,97.0,1188.0,23846.0,4893.0,99.0,1188.0,106.0,4890.0,-50.03785,1.612999,-0.1484233,-0.004393591,-1.217685,56.83,-0.1475379,0.002068385,-1.190832,0.6279376,1.181046,8.815437,-103.0,66.0,132.0,-21.0,-33.0,249.0,-1024.0,-33.0,285.0,1020.412,-1.692969,3504.0,-0.1475379,-0.007850011,0.002068385,0.04483618,-1.190832,-0.004265278,56790.0,29181.0,13880.0,173.0,-383.0,69.0,0,None
2022-12-29 11:56:56.923000,0:00:00.100000,163.746,0.1000000000000227,97.0,1188.0,23846.0,4893.0,99.0,1233.0,107.0,4896.0,-50.03785,1.612999,-0.1510419,0.002214895,-1.215031,57.03,-0.1493853,0.008766824,-1.187962,0.6469137,1.801335,9.278727,-103.0,66.0,132.0,-21.0,-33.0,249.0,-1024.0,-33.0,285.0,1020.412,-1.692969,3504.0,-0.1493853,0.04848805,0.008766824,0.07913056,-1.187962,0.03156257,56790.0,29181.0,13880.0,173.0,-383.0,69.0,0,None
2022-12-29 11:56:57.022000,0:00:00.099000,163.846,0.0999999999999943,97.0,1188.0,23846.0,4893.0,99.0,1200.0,107.0,4890.0,-50.0224,1.619534,-0.1510419,0.002214895,-1.215031,57.03,-0.1493853,0.008766824,-1.187962,0.6454493,1.66047,11.67346,-103.0,66.0,132.0,-21.0,-33.0,249.0,-1024.0,-33.0,285.0,1020.412,-1.692969,3504.0,-0.1493853,0.04848805,0.008766824,0.07913056,-1.187962,0.03156257,56790.0,29181.0,13880.0,173.0,-383.0,69.0,0,None
2022-12-29 11:56:57.122000,0:00:00.100000,163.946,0.0999999999999943,97.0,1188.0,23846.0,4893.0,99.0,1147.0,107.0,4893.0,-50.0224,1.619534,-0.1570645,-0.002925351,-1.216462,57.23,-0.1555725,0.003134748,-1.189226,0.6707901,1.723616,11.86296,-103.0,66.0,132.0,-21.0,-33.0,249.0,-1024.0,-33.0,285.0,1020.412,-1.692969,3504.0,-0.1555725,0.08048226,0.003134748,0.008832962,-1.189226,-0.02260411,56790.0,29181.0,13880.0,173.0,-383.0,69.0,0,None
2022-12-29 11:56:57.222000,0:00:00.100000,164.046,0.0999999999999943,96.0,1146.0,23851.0,4890.0,99.0,1190.0,108.0,4893.0,-50.0127,1.626064,-0.1570645,-0.002925351,-1.216462,57.23,-0.1555725,0.003134748,-1.189226,0.5930328,1.678797,10.37802,-110.0,68.0,139.0,0.0,37.0,230.0,-1192.0,-57.0,283.0,1020.337,-1.768516,3505.0,-0.1555725,0.08048226,0.003134748,0.008832962,-1.189226,-0.02260411,57290.0,29179.0,14380.0,181.0,-409.0,68.0,0,None
2022-12-29 11:56:57.322000,0:00:00.100000,164.146,0.0999999999999943,96.0,1146.0,23851.0,4890.0,99.0,1146.0,108.0,4900.0,-50.0127,1.626064,-0.1573456,0.002919927,-1.216973,57.44,-0.1559574,0.009500267,-1.190442,0.6965807,1.498077,7.236338,-110.0,68.0,139.0,0.0,37.0,230.0,-1192.0,-57.0,283.0,1020.337,-1.768516,3505.0,-0.1559574,-0.01094102,0.009500267,0.0194445,-1.190442,-0.002427432,57290.0,29179.0,14380.0,181.0,-409.0,68.0,0,None
2022-12-29 11:56:57.422000,0:00:00.100000,164.246,0.1000000000000227,96.0,1146.0,23851.0,4890.0,99.0,1184.0,108.0,4903.0,-50.01297,1.632596,-0.1573456,0.002919927,-1.216973,57.44,-0.1559574,0.009500267,-1.190442,0.7887767,1.553102,6.794713,-110.0,68.0,139.0,0.0,37.0,230.0,-1192.0,-57.0,283.0,1020.337,-1.768516,3505.0,-0.1559574,-0.01094102,0.009500267,0.0194445,-1.190442,-0.002427432,57290.0,29179.0,14380.0,181.0,-409.0,68.0,0,None
2022-12-29 11:56:57.522000,0:00:00.100000,164.346,0.0999999999999943,96.0,1146.0,23851.0,4890.0,99.0,1110.0,109.0,4900.0,-50.01297,1.632596,-0.1677763,0.006703006,-1.215561,57.64,-0.1668221,0.01255895,-1.188644,0.7405754,1.510718,8.810343,-110.0,68.0,139.0,0.0,37.0,230.0,-1192.0,-57.0,283.0,1020.337,-1.768516,3505.0,-0.1668221,-0.05840887,0.01255895,0.01834068,-1.188644,-0.005038674,57290.0,29179.0,14380.0,181.0,-409.0,68.0,0,None
2022-12-29 11:56:57.622000,0:00:00.100000,164.446,0.0999999999999943,96.0,1146.0,23851.0,4890.0,99.0,1223.0,109.0,4896.0,-50.02113,1.639151,-0.1677763,0.006703006,-1.215561,57.64,-0.1668221,0.01255895,-1.188644,0.6454282,1.594341,9.867731,-110.0,68.0,139.0,0.0,37.0,230.0,-1192.0,-57.0,283.0,1020.337,-1.768516,3505.0,-0.1668221,-0.05840887,0.01255895,0.01834068,-1.188644,-0.005038674,57290.0,29179.0,14380.0,181.0,-409.0,68.0,0,None
2022-12-29 11:56:57.722000,0:00:00.100000,164.546,0.0999999999999943,96.0,1154.0,23870.0,4893.0,99.0,1289.0,109.0,4890.0,-50.02113,1.639151,-0.1676442,0.001691352,-1.215005,57.84,-0.1670314,0.006363088,-1.187582,0.6700175,1.767004,9.463928,-150.0,-20.0,137.0,-24.0,-157.0,268.0,-1070.0,-40.0,308.0,1020.206,-1.89875,3507.0,-0.1670314,-0.08910724,0.006363088,-0.002225151,-1.187582,0.0153794,57800.0,29192.0,14890.0,186.0,-438.0,64.0,0,None
2022-12-29 11:56:57.822000,0:00:00.100000,164.646,0.0999999999999943,96.0,1154.0,23870.0,4893.0,99.0,1154.0,110.0,4893.0,-50.02879,1.64552,-0.1676442,0.001691352,-1.215005,57.84,-0.1670314,0.006363088,-1.187582,0.6653185,1.712077,8.757196,-150.0,-20.0,137.0,-24.0,-157.0,268.0,-1070.0,-40.0,308.0,1020.206,-1.89875,3507.0,-0.1670314,-0.08910724,0.006363088,-0.002225151,-1.187582,0.0153794,57800.0,29192.0,14890.0,186.0,-438.0,64.0,0,None
2022-12-29 11:56:57.922000,0:00:00.100000,164.746,0.1000000000000227,96.0,1154.0,23870.0,4893.0,99.0,1390.0,110.0,4896.0,-50.02879,1.64552,-0.1707472,0.01749827,-1.212789,58.04,-0.1696239,0.02286365,-1.185518,0.6326957,1.510474,7.562319,-150.0,-20.0,137.0,-24.0,-157.0,268.0,-1070.0,-40.0,308.0,1020.206,-1.89875,3507.0,-0.1696239,-0.2105712,0.02286365,0.1056092,-1.185518,0.02868186,57800.0,29192.0,14890.0,186.0,-438.0,64.0,0,None
2022-12-29 11:56:58.022000,0:00:00.100000,164.846,0.0999999999999943,96.0,1154.0,23870.0,4893.0,99.0,1447.0,110.0,4896.0,-50.03423,1.65197,-0.1707472,0.01749827,-1.212789,58.04,-0.1696239,0.02286365,-1.185518,0.7108669,1.353145,7.216133,-150.0,-20.0,137.0,-24.0,-157.0,268.0,-1070.0,-40.0,308.0,1020.206,-1.89875,3507.0,-0.1696239,-0.2105712,0.02286365,0.1056092,-1.185518,0.02868186,57800.0,29192.0,14890.0,186.0,-438.0,64.0,0,None
2022-12-29 11:56:58.122000,0:00:00.100000,164.946,0.0999999999999943,96.0,1154.0,23870.0,4893.0,99.0,1434.0,111.0,4887.0,-50.03423,1.65197,-0.1643149,0.005288001,-1.21494,58.26,-0.1626126,0.0119703,-1.187597,0.7194051,1.732027,10.24039,-150.0,-20.0,137.0,-24.0,-157.0,268.0,-1070.0,-40.0,308.0,1020.206,-1.89875,3507.0,-0.1626126,-0.1262585,0.0119703,0.02548586,-1.187597,-0.003700415,57800.0,29192.0,14890.0,186.0,-438.0,64.0,0,None
2022-12-29 11:56:58.242000,0:00:00.120000,165.066,0.1200000000000045,96.0,762.0,23981.0,4896.0,99.0,1440.0,111.0,4891.0,-50.04128,1.658389,-0.1643149,0.005288001,-1.21494,58.26,-0.1626126,0.0119703,-1.187597,0.8495736,1.536845,9.914063,-117.0,147.0,143.0,-50.0,-286.0,245.0,-943.0,37.0,290.0,1020.186,-1.918984,3508.0,-0.1626126,-0.1262585,0.0119703,0.02548586,-1.187597,-0.003700415,58360.0,29196.0,15450.0,194.0,-464.0,79.0,0,None
2022-12-29 11:56:58.342000,0:00:00.100000,165.166,0.0999999999999943,96.0,762.0,23981.0,4896.0,99.0,1069.0,112.0,4896.0,-50.04128,1.658389,-0.1944112,0.02689579,-1.212331,58.56,-0.1932822,0.03325795,-1.185206,0.7909149,1.435332,11.89433,-117.0,147.0,143.0,-50.0,-286.0,245.0,-943.0,37.0,290.0,1020.186,-1.918984,3508.0,-0.1932822,-0.03791746,0.03325795,0.06537585,-1.185206,0.03112342,58360.0,29196.0,15450.0,194.0,-464.0,79.0,0,None
2022-12-29 11:56:58.442000,0:00:00.100000,165.266,0.0999999999999943,96.0,762.0,23981.0,4896.0,99.0,1347.0,112.0,4900.0,-50.0566,1.664884,-0.1944112,0.02689579,-1.212331,58.56,-0.1932822,0.03325795,-1.185206,0.690928,1.50124,10.57153,-117.0,147.0,143.0,-50.0,-286.0,245.0,-943.0,37.0,290.0,1020.186,-1.918984,3508.0,-0.1932822,-0.03791746,0.03325795,0.06537585,-1.185206,0.03112342,58360.0,29196.0,15450.0,194.0,-464.0,79.0,0,None
2022-12-29 11:56:58.542000,0:00:00.100000,165.366,0.1000000000000227,96.0,762.0,23981.0,4896.0,99.0,1455.0,112.0,4896.0,-50.0566,1.664884,-0.1654803,0.02110696,-1.210842,58.82,-0.165062,0.02531794,-1.183295,0.707679,1.398623,9.777139,-117.0,147.0,143.0,-50.0,-286.0,245.0,-943.0,37.0,290.0,1020.186,-1.918984,3508.0,-0.165062,0.05547404,0.02531794,-0.02304969,-1.183295,-0.01578522,58360.0,29196.0,15450.0,194.0,-464.0,79.0,0,None
2022-12-29 11:56:58.662000,0:00:00.120000,165.486,0.1199999999999761,96.0,1119.0,23861.0,4890.0,99.0,1169.0,113.0,4880.0,-50.07595,1.671547,-0.1654803,0.02110696,-1.210842,58.82,-0.165062,0.02531794,-1.183295,0.8154024,1.38218,10.68189,-128.0,8.0,133.0,-31.0,73.0,265.0,-1136.0,39.0,277.0,1020.064,-2.041641,3509.0,-0.165062,0.05547404,0.02531794,-0.02304969,-1.183295,-0.01578522,58360.0,29196.0,15450.0,194.0,-464.0,79.0,0,None
2022-12-29 11:56:58.762000,0:00:00.100000,165.586,0.1000000000000227,96.0,1119.0,23861.0,4890.0,99.0,1119.0,113.0,4882.0,-50.07595,1.671547,-0.1496079,0.02113839,-1.211062,59.12,-0.1501416,0.02557165,-1.183388,0.8326766,1.389274,12.20027,-128.0,8.0,133.0,-31.0,73.0,265.0,-1136.0,39.0,277.0,1020.064,-2.041641,3509.0,-0.1501416,0.09271209,0.02557165,0.004913287,-1.183388,-0.04860836,59070.0,29226.0,16160.0,211.0,-486.0,81.0,0,None
2022-12-29 11:56:58.862000,0:00:00.100000,165.686,0.0999999999999943,96.0,1119.0,23861.0,4890.0,99.0,1173.0,113.0,4903.0,-50.09494,1.678427,-0.1496079,0.02113839,-1.211062,59.12,-0.1501416,0.02557165,-1.183388,0.8388597,1.461138,12.61511,-128.0,8.0,133.0,-31.0,73.0,265.0,-1136.0,39.0,277.0,1020.064,-2.041641,3509.0,-0.1501416,0.09271209,0.02557165,0.004913287,-1.183388,-0.04860836,59070.0,29226.0,16160.0,211.0,-486.0,81.0,0,None
2022-12-29 11:56:58.962000,0:00:00.100000,165.786,0.0999999999999943,96.0,1119.0,23861.0,4890.0,99.0,1100.0,114.0,4851.0,-50.09494,1.678427,-0.1705903,0.01335433,-1.209963,59.4,-0.1717972,0.01929532,-1.182752,0.8504649,1.386749,11.8537,-128.0,8.0,133.0,-31.0,73.0,265.0,-1136.0,39.0,277.0,1020.064,-2.041641,3509.0,-0.1717972,-0.2551636,0.01929532,-0.04033725,-1.182752,0.02613401,59070.0,29226.0,16160.0,211.0,-486.0,81.0,0,None
2022-12-29 11:56:59.062000,0:00:00.100000,165.886,0.0999999999999943,96.0,1119.0,23861.0,4890.0,99.0,1242.0,114.0,4903.0,-50.10939,1.685349,-0.1705903,0.01335433,-1.209963,59.4,-0.1717972,0.01929532,-1.182752,0.7882268,1.835517,11.01773,-128.0,8.0,133.0,-31.0,73.0,265.0,-1136.0,39.0,277.0,1020.064,-2.041641,3509.0,-0.1717972,-0.2551636,0.01929532,-0.04033725,-1.182752,0.02613401,59070.0,29226.0,16160.0,211.0,-486.0,81.0,0,None
2022-12-29 11:56:59.162000,0:00:00.100000,165.986,0.0999999999999943,96.0,1369.0,23798.0,4896.0,99.0,1222.0,114.0,4882.0,-50.10939,1.685349,-0.1895133,0.01456339,-1.208347,59.67,-0.1907044,0.02133393,-1.181368,0.6609036,1.688283,10.05813,-129.0,-38.0,159.0,19.0,-76.0,278.0,-1087.0,-5.0,289.0,1019.942,-2.163125,3511.0,-0.1907044,-0.002715756,0.02133393,-0.0411623,-1.181368,0.03460208,59070.0,29226.0,16160.0,211.0,-486.0,81.0,0,None
2022-12-29 11:56:59.262000,0:00:00.100000,166.086,0.1000000000000227,96.0,1369.0,23798.0,4896.0,99.0,1369.0,115.0,4864.0,-50.1227,1.692259,-0.1895133,0.01456339,-1.208347,59.67,-0.1907044,0.02133393,-1.181368,0.7609707,1.645625,9.067333,-129.0,-38.0,159.0,19.0,-76.0,278.0,-1087.0,-5.0,289.0,1019.942,-2.163125,3511.0,-0.1907044,-0.002715756,0.02133393,-0.0411623,-1.181368,0.03460208,59750.0,29228.0,16840.0,221.0,-504.0,83.0,0,None
2022-12-29 11:56:59.362000,0:00:00.100000,166.186,0.0999999999999943,96.0,1369.0,23798.0,4896.0,99.0,1422.0,115.0,4877.0,-50.1227,1.692259,-0.1841813,0.01768645,-1.207037,59.95,-0.1852076,0.02383799,-1.179754,0.731788,1.85599,9.951058,-129.0,-38.0,159.0,19.0,-76.0,278.0,-1087.0,-5.0,289.0,1019.942,-2.163125,3511.0,-0.1852076,0.1238492,0.02383799,0.01502777,-1.179754,-0.001566868,59750.0,29228.0,16840.0,221.0,-504.0,83.0,0,None
