00000_Time_epoch,00000_Time_boot_sec,00000_Span_Time_boot_sec,1_battery_remaining_avg,1_current_battery_avg,1_voltage_battery_avg,125_Vcc_avg,147_battery_remaining_avg,147_current_battery_avg,147_current_consumed_avg,165_Vcc_avg,168_direction_avg,168_speed_avg,178_pitch_avg,178_roll_avg,178_yaw_avg,182_altitude_avg,182_pitch_avg,182_roll_avg,182_yaw_avg,241_vibration_x_avg,241_vibration_y_avg,241_vibration_z_avg,27_xacc_avg,27_xgyro_avg,27_xmag_avg,27_yacc_avg,27_ygyro_avg,27_ymag_avg,27_zacc_avg,27_zgyro_avg,27_zmag_avg,29_press_abs_avg,29_press_diff_avg,29_temperature_avg,30_pitch_avg,30_pitchspeed_avg,30_roll_avg,30_rollspeed_avg,30_yaw_avg,30_yawspeed_avg,33_alt_avg,33_hdg_avg,33_relative_alt_avg,33_vx_avg,33_vy_avg,33_vz_avg,label,diagnosis
2023-01-01 16:07:25.900,344.258,0.0999999999999999,68.0,86.0,22567.0,4891.0,99.0,88.0,79.0,4881.2,-150.65368,0.2803238,-0.0011437123333333,-0.0220813833333333,-1.0874976666666665,28.22666666666667,0.0051983223333333,-0.0226705733333333,-1.128462,0.023838582,0.027154996,0.03495793,-13.2,0.0,111.4,7.6,5.6,242.4,-1059.0,-1.6,337.0,1020.9194,-0.053843748,3168.4,0.0051983223333333,0.0062351566666666,-0.0226705733333333,0.0006166521,-1.128462,-0.002047439,28210.0,29535.0,0.0,-5.0,13.0,17.0,0,None
2023-01-01 16:07:26.450,344.754,0.0999999999999999,68.0,82.0,22598.0,4875.0,99.0,72.8,79.0,4860.6,-151.14152,0.26880724,-0.001315422,-0.021925745,-1.0871765,28.245,0.0051395575,-0.02250643,-1.1284295,0.0258797479999999,0.024084722,0.0364330359999999,-14.2,0.0,110.4,7.4,6.0,243.8,-1059.8,-1.4,338.0,1020.911,-0.0620312499999999,3169.0,0.0051395575,0.005867679,-0.02250643,0.00042105235,-1.1284295,-0.0013590135,28240.0,29535.0,30.0,-5.0,13.0,18.0,0,None
2023-01-01 16:07:27.000,345.3106666666667,0.103333333333334,68.0,164.5,22564.5,4887.5,99.0,152.66666666666666,79.16666666666667,4881.333333333333,-151.29684999999998,0.2856481333333333,-0.0009246292,-0.0224454199999999,-1.0870713333333333,28.263333333333332,0.0051383723333333,-0.0225228,-1.128393,0.0636019466666666,0.0864716,0.7855611516666667,-13.333333333333334,-0.5,110.0,10.5,7.0,247.33333333333331,-1055.3333333333333,0.8333333333333334,337.5,1020.9203333333334,-0.0529817683333333,3169.6666666666665,0.0051383723333333,0.0073066619999999,-0.0225228,-0.0008472574666666,-1.128393,-0.0036779866666666,28260.0,29535.0,50.0,-4.0,12.5,18.5,0,None
2023-01-01 16:07:27.550,345.882,0.1079999999999926,68.0,110.0,22417.0,4750.0,99.0,137.4,80.0,4857.8,-151.17332,0.32293454,-0.0008747509333333,-0.0223374699999999,-1.0869463333333331,28.263333333333332,0.005251452,-0.0226525533333333,-1.1286683333333334,0.11488665,0.1317772199999999,0.8503265000000001,-2.8,-1.5,112.6,3.0,7.3,240.4,-1067.4,-5.2,335.4,1020.9396,-0.033499996,3170.6,0.005251452,0.0057286926666666,-0.0226525533333333,0.0009486823333333,-1.1286683333333334,-0.0138605633333333,28260.0,29538.0,50.0,-5.0,13.0,19.0,0,None
2023-01-01 16:07:28.100,346.4226,0.1040000000000076,68.0,1364.0,22235.0,4883.0,99.0,491.2,80.0,4883.4,-150.93524,0.35700294,-0.0009519286,-0.022994485,-1.08587,28.255000000000003,0.005544141,-0.023203875,-1.1277735,0.28142656,0.25320678,1.50364462,-23.4,7.4,112.4,19.8,7.8,238.0,-1056.8,10.8,301.6,1021.0122,0.039078124,3171.2,0.005544141,-0.002940309,-0.023203875,-0.0038027179999999,-1.1277735,0.02613789,28260.0,29536.0,50.0,-5.0,14.0,21.0,0,None
2023-01-01 16:07:28.650,346.9911666666667,0.1034999999999967,67.0,1642.0,22163.0,4879.0,99.0,1811.3333333333333,82.16666666666667,4881.5,-150.78603333333334,0.4016306333333333,0.0030190673333333,-0.0100062703333333,-1.0842716666666667,28.36666666666667,0.0093952556666666,-0.0104597239999999,-1.1262473333333334,0.5598735499999999,1.411093666666667,4.961655,-4.833333333333333,28.166666666666668,97.16666666666669,-28.33333333333333,8.0,240.0,-1289.1666666666667,22.83333333333333,290.1666666666667,1021.2536666666666,0.2803255166666666,3172.0,0.0093952556666666,-0.0198110266666666,-0.0104597239999999,0.01957559,-1.1262473333333334,0.0128977333333333,28410.0,29554.0,200.0,-9.0,8.0,102.0,0,None
2023-01-01 16:07:29.200,347.567,0.1039999999999963,67.0,1989.0,21907.0,4882.0,99.0,1996.2,85.6,4880.6,-151.30176,0.45052958,0.0026493603666666,-0.0088835513333333,-1.0655566666666665,29.153333333333336,0.0099879923333333,-0.0097129193333333,-1.1068083333333332,0.46744694,1.1301005400000002,3.2118422000000004,2.8,-24.2,102.6,-25.4,14.2,233.2,-1282.2,26.8,268.6,1020.8816,-0.091625004,3172.8,0.0099879923333333,0.0098916566666666,-0.0097129193333333,-0.0314896366666666,-1.1068083333333332,0.0168722476666666,29110.0,29650.0,900.0,-10.0,0.0,211.0,0,None
2023-01-01 16:07:29.750,348.0748,0.0998000000000046,66.0,2001.0,21965.0,4882.0,99.0,1996.6,88.2,4877.4,-152.79764,0.47926936,0.0140668,0.00500102,-1.060488,30.26,0.02057144,0.0056706319999999,-1.101818,0.5033364199999999,0.8749288,2.6280046,0.0,94.0,103.8,-24.8,18.4,241.6,-1160.0,-30.4,280.2,1020.7002,-0.2731875,3173.6,0.02057144,0.07436587,0.0056706319999999,0.154069395,-1.101818,-0.030995309,30200.0,29698.0,1990.0,-17.0,-9.0,300.0,0,None
2023-01-01 16:07:30.300,348.625,0.1001666666666664,66.0,1881.0,21974.0,4888.0,99.0,1807.3333333333333,91.33333333333331,4815.833333333333,-154.34951666666663,0.4916179333333333,0.009425263,0.0346223066666666,-1.087497333333333,31.680000000000003,0.015618924,0.0333531366666666,-1.1580383333333335,0.4822487333333332,0.71372615,2.719917166666667,8.666666666666666,31.166666666666668,95.0,-18.666666666666668,-8.5,258.5,-1093.6666666666667,-44.5,265.5,1020.4916666666668,-0.4816796833333333,3174.1666666666665,0.015618924,0.014467915,0.0333531366666666,0.0471811333333333,-1.1580383333333335,-0.0586839233333333,31620.0,29276.0,3410.0,-6.0,-7.0,330.0,0,None
2023-01-01 16:07:30.850,349.19100000000003,0.1039999999999963,65.0,1523.0,22098.0,4885.0,99.0,1679.8,93.8,4882.2,-156.83888000000002,0.49776366,0.0185239433333333,0.0150175986666666,-1.0973306666666665,33.55,0.0254023433333333,0.0138929966666666,-1.181278,0.40987022,1.1914603600000002,5.345510599999999,20.5,-125.9,97.1,3.4,55.6,257.9,-1019.0,8.6,287.2,1020.283,-0.68997655,3175.4,0.0254023433333333,0.0953729666666666,0.0138929966666666,-0.1749048666666667,-1.181278,0.0062141566666666,33210.0,29227.0,5000.0,19.0,-7.0,332.0,0,None
2023-01-01 16:07:31.400,349.7516666666667,0.103333333333334,64.5,1252.5,22112.5,4886.0,99.0,1301.5,96.16666666666669,4883.166666666667,-160.25433333333334,0.5015629333333333,0.00402371,-0.00983013,-1.0865546666666666,35.22666666666667,0.0119005966666666,-0.0074899466666666,-1.1704306666666666,0.4183519833333333,1.5702406666666668,10.147299,46.333333333333336,144.66666666666666,97.66666666666669,-12.166666666666666,-178.16666666666666,244.0,-958.5,20.166666666666668,317.6666666666667,1020.0611666666668,-0.91183595,3176.0,0.0119005966666666,-0.1942619633333333,-0.0074899466666666,0.1392782666666666,-1.1704306666666666,0.0306814166666666,34680.0,29262.0,6470.0,21.0,-14.0,310.0,0,None
2023-01-01 16:07:31.950,350.2988,0.0998000000000047,64.0,1434.0,22087.0,4891.0,99.0,1275.4,98.0,4890.2,-165.59538000000003,0.51473204,-0.11366385,0.10249936,-1.02266035,36.27,-0.10151589,0.10202721,-1.1069575,0.5144985,1.03833592,4.3538856,51.0,121.8,145.2,-22.4,-41.4,265.0,-932.4,356.8,248.6,1019.9308,-1.04240612,3177.0,-0.10151589,-0.1114305,0.10202721,0.179911885,-1.1069575,0.3168104499999999,35870.0,29337.0,7660.0,31.0,-43.0,240.0,0,None
2023-01-01 16:07:32.500,350.84833333333336,0.0968333333333362,64.0,1434.0,22098.0,4888.0,99.0,1442.1666666666667,100.16666666666669,4863.666666666667,-172.15275,0.5395409,-0.1005763666666666,0.0746291766666666,-0.8359037333333333,36.98666666666667,-0.0870445133333333,0.0750461033333333,-0.9185132666666668,0.6144307,0.9528771666666668,6.6792023333333335,20.166666666666668,-63.66666666666666,195.16666666666663,-53.333333333333336,187.5,238.83333333333331,-1005.0,353.5,263.6666666666667,1019.8066666666668,-1.1665235,3177.6666666666665,-0.0870445133333333,0.1858861333333333,0.0750461033333333,-0.059167768,-0.9185132666666668,0.3557510333333333,37020.0,30789.5,8810.0,128.0,-109.0,167.0,0,None
2023-01-01 16:07:33.050,351.399,0.0999999999999999,63.0,1432.0,22096.0,4883.0,99.0,1443.2,102.4,4890.8,-34.40932,0.5633060400000001,-0.0143975931666666,0.0366144966666666,-0.6155439666666667,37.74666666666667,-0.0071588163333333,0.0407689566666666,-0.6961037000000001,0.4654187800000001,1.26218532,8.2531316,-2.8,8.2,219.6,-53.4,89.0,188.4,-1055.0,360.0,280.4,1019.72,-1.2528594,3178.6,-0.0071588163333333,0.12491311,0.0407689566666666,0.0046706176666666,-0.6961037000000001,0.3727819999999999,37970.0,32390.0,9760.0,172.0,-138.0,145.0,0,None
2023-01-01 16:07:33.600,351.95166666666665,0.1033333333333246,63.0,1507.0,22067.0,4891.0,99.0,1421.8333333333333,104.66666666666669,4889.5,175.65283333333335,0.5859158000000001,-0.004927705,0.0442421,-0.3984687333333332,38.47,-0.0001726956666666,0.04924873,-0.47847,0.4389797166666666,1.2742645333333336,7.711980833333332,-10.166666666666666,-7.5,246.33333333333331,-41.0,-17.166666666666668,147.83333333333334,-1018.8333333333334,357.0,290.5,1019.6121666666668,-1.3607683333333334,3179.5,-0.0001726956666666,-0.0314221533333333,0.04924873,-0.0302956356666666,-0.47847,0.3350807666666666,38560.0,33433.0,10350.0,176.0,-128.0,135.0,0,None
2023-01-01 16:07:34.150,352.515,0.0999999999999999,63.0,1474.0,21949.0,4755.0,99.0,1445.0,106.8,4809.2,169.95754000000002,0.6065006000000001,-0.03065454,0.033555935,-0.28882125,39.06,-0.02769134,0.04051665,-0.3681158,0.51560078,1.08275374,7.9129434,-21.8,0.4,281.2,-48.8,-17.4,112.8,-1046.6,-1.4,287.2,1019.5306,-1.4427656,3180.2,-0.02769134,-0.07036052,0.04051665,-0.0073333965,-0.3681158,0.03949289,39140.0,33909.0,10930.0,185.0,-128.0,122.0,0,None
2023-01-01 16:07:34.700,353.065,0.1000000000000037,63.0,1629.0,22020.0,4888.0,99.0,1542.6666666666667,109.0,4889.333333333333,164.4422,0.6258489666666667,-0.03298585,0.0463291433333333,-0.3167439,39.59666666666667,-0.0288834066666666,0.0537396966666666,-0.3980759333333333,0.5187796666666667,0.9980674166666668,6.4903830000000005,-18.5,42.833333333333336,269.1666666666667,-53.16666666666666,8.666666666666666,110.0,-1044.5,-56.833333333333336,263.0,1019.443,-1.5302085,3181.0,-0.0288834066666666,0.0183137156666666,0.0537396966666666,0.06511449,-0.3980759333333333,-0.07358215,39680.0,33681.0,11470.0,194.0,-128.0,116.0,0,None
2023-01-01 16:07:35.250,353.615,0.0999999999999999,62.0,1540.0,22025.0,4885.0,99.0,1527.2,111.4,4864.6,158.90118,0.64521344,-0.0447729466666666,0.0475267433333333,-0.3371051333333333,40.21666666666666,-0.0398573,0.0541820366666666,-0.4208334333333333,0.4594450999999999,1.1879346199999998,6.1255734,-13.2,-53.0,275.8,-53.4,-32.0,124.8,-1060.8,-30.2,278.6,1019.3872,-1.5859064,3181.8,-0.0398573,-0.031938926,0.0541820366666666,-0.0639508833333333,-0.4208334333333333,-0.0272701286666666,40200.0,33610.0,11990.0,207.0,-123.0,111.0,0,None
2023-01-01 16:07:35.800,354.165,0.1000000000000037,62.0,1265.0,22107.0,4888.0,99.0,1306.6666666666667,113.5,4890.833333333333,153.34083333333334,0.6696311,-0.0552940466666666,0.0332397999999999,-0.3766214666666667,40.82333333333333,-0.0482413499999999,0.03926476,-0.4599742666666666,0.5401103333333334,1.1887020833333335,9.705158833333334,-16.5,8.666666666666666,279.3333333333333,-71.16666666666667,4.166666666666667,141.66666666666666,-1096.0,-98.66666666666669,293.1666666666667,1019.335,-1.6380076666666668,3182.6666666666665,-0.0482413499999999,0.00384828,0.03926476,0.00331642,-0.4599742666666666,-0.0742055933333333,40710.0,33437.0,12500.0,225.0,-132.0,109.0,0,None
2023-01-01 16:07:36.350,354.71500000000003,0.0999999999999999,62.0,1343.0,22121.0,4890.0,99.0,1477.2,115.6,4890.4,148.0152,0.69809388,-0.03239801,0.0332297349999999,-0.41672045,41.275,-0.0249792299999999,0.039330435,-0.5010699,0.46538452,1.15488582,9.439669,-11.4,-12.0,267.8,-51.8,28.4,144.0,-1013.8,-88.8,272.0,1019.2628,-1.7102344000000005,3183.8,-0.0249792299999999,0.069361325,0.039330435,-0.0034829049999999,-0.5010699,-0.0970549149999999,41180.0,33187.0,12970.0,243.0,-143.0,98.0,0,None
2023-01-01 16:07:36.900,355.26500000000004,0.0999999999999942,61.5,1519.0,21954.0,4889.0,99.0,1455.5,117.83333333333331,4891.166666666667,143.0879666666667,0.7301224166666667,-0.0255727833333333,0.0443500966666666,-0.4557778333333333,41.72333333333333,-0.01730321,0.0508092533333333,-0.5419577000000001,0.4779153499999999,1.5183101666666667,9.4814075,-14.666666666666666,-11.833333333333334,254.83333333333331,-66.66666666666667,33.833333333333336,162.0,-1063.5,-53.16666666666666,276.1666666666667,1019.2133333333333,-1.7600258333333336,3184.1666666666665,-0.01730321,0.0609963333333333,0.0508092533333333,0.029438955,-0.5419577000000001,-0.0679251966666666,41840.0,32860.0,13630.0,252.5,-154.0,101.5,0,None
2023-01-01 16:07:37.450,355.819,0.1040000000000076,61.0,1587.0,22013.0,4885.0,99.0,1622.8,120.2,4884.4,138.4386,0.7678341,-0.0063657919999999,0.0282155,-0.4863830666666666,42.27,0.0025086233333333,0.0348426833333333,-0.5730451333333333,0.47707354,1.4709705999999998,6.8529374,-15.2,-36.2,247.0,-59.6,41.2,155.2,-1087.2,-56.8,278.4,1019.1218,-1.8514842,3185.2,0.0025086233333333,0.0727575866666666,0.0348426833333333,-0.10507435,-0.5730451333333333,-0.0719440733333333,42550.0,32585.0,14340.0,248.0,-159.0,109.0,0,None
2023-01-01 16:07:38.000,356.3592,0.1120000000000004,61.0,1704.0,21914.0,4882.0,99.0,1448.4,122.8,4800.6,134.23184,0.8090867599999999,-0.02555389,0.0332324133333333,-0.5329088666666667,42.88666666666666,-0.0162770433333333,0.04067257,-0.6221134333333334,0.5508057799999999,1.4787714,10.1773016,-5.8,71.4,240.8,-81.2,-54.6,157.2,-981.6,-55.8,287.6,1019.0848,-1.8883904,3186.2,-0.0162770433333333,-0.0502156633333333,0.04067257,-0.0067172133333333,-0.6221134333333334,-0.0544751963333333,43080.0,32399.0,14870.0,246.0,-172.0,104.0,0,None
2023-01-01 16:07:38.550,356.899,0.1039999999999963,60.0,1582.0,21967.0,4883.0,99.0,1637.4,124.8,4882.0,130.07502000000002,0.8592732599999999,-0.0031978249999999,0.062771235,-0.53008565,43.385,0.0064143422,0.069993565,-0.62085975,0.4632162199999999,1.37343336,6.650343599999999,-16.2,22.2,229.4,-58.3,36.7,175.1,-1061.9,21.8,286.7,1018.9986,-1.9747187,3187.0,0.0064143422,0.05307808,0.069993565,0.068279915,-0.62085975,0.0288263575,43580.0,32483.0,15370.0,245.0,-166.0,105.0,0,None
2023-01-01 16:07:39.100,357.443,0.1079999999999926,60.0,1590.0,21860.0,4883.0,99.0,1600.0,127.2,4857.2,126.53254,0.90962224,-0.012445058,0.0561240899999999,-0.5207744666666666,43.93,-0.0018664810333333,0.06175139,-0.6109072333333333,0.45625076,1.3816471200000002,6.0779636,-19.6,-51.6,239.0,-71.2,-5.2,175.4,-1082.2,11.2,274.0,1018.9626,-2.0105938,3187.8,-0.0018664810333333,-0.0060134033333333,0.06175139,-0.0433720336666666,-0.6109072333333333,0.0082860662999999,44100.0,32508.0,15890.0,248.0,-158.0,113.0,0,None
2023-01-01 16:07:39.650,357.96320000000003,0.1040000000000076,60.0,1155.0,22094.0,4882.0,99.0,1310.0,129.6,4884.4,123.32826,0.96391572,-0.012294135,0.028610975,-0.5357347,44.48,-0.0014177114999999,0.035745165,-0.62750635,0.44597858,1.54049,9.8950002,-20.4,-51.0,238.8,-71.6,-9.2,160.0,-1041.2,-71.2,280.8,1018.9258,-2.0472968,3188.6,-0.0014177114999999,-0.02564768,0.035745165,-0.0463268374999999,-0.62750635,-0.09989811,44660.0,32305.0,16450.0,244.0,-163.0,120.0,0,None
2023-01-01 16:07:40.200,358.545,0.1066666666666643,60.0,1167.0,22089.0,4874.0,99.0,1169.8333333333333,131.5,4833.166666666667,120.21016666666668,1.0278689666666667,-0.0301144666666666,0.0239529366666666,-0.5736180333333333,45.01666666666667,-0.0177859,0.0316228466666666,-0.6668800666666668,0.5911658,1.2719939666666666,14.086021166666669,7.416666666666667,30.0,242.91666666666663,-65.83333333333333,15.75,184.08333333333331,-1066.5833333333333,-55.333333333333336,310.5,1018.8989166666668,-2.07446625,3189.5,-0.0177859,0.0043743133333333,0.0316228466666666,0.0172907051666666,-0.6668800666666668,-0.029334743,45180.0,32148.0,16970.0,252.0,-191.0,115.0,0,None
2023-01-01 16:07:40.750,359.115,0.0999999999999999,60.0,1487.0,21876.0,4882.0,99.0,1338.2,133.4,4853.8,117.28922,1.102732,0.0199397156666666,0.0629318,-0.5545597666666666,45.57666666666666,0.031390985,0.0702719133333333,-0.6478909,0.613311,1.4548912,13.56361,4.2,69.4,226.4,-84.0,142.6,185.4,-1040.4,109.6,294.6,1018.8064,-2.1668904,3190.4,0.031390985,0.13136411,0.0702719133333333,0.0462657333333333,-0.6478909,0.1090642866666666,45630.0,32295.0,17420.0,259.0,-203.0,110.0,0,None
2023-01-01 16:07:41.300,359.6518,0.1081999999999993,60.0,1454.0,22002.0,4888.0,99.0,1475.4,135.8,4885.2,115.32418,1.162528,0.08277487,0.089083335,-0.46268515,46.085,0.0914008749999999,0.0960791749999999,-0.55606705,0.57480114,1.1360959,8.8451202,-22.0,0.4,210.0,-72.4,25.4,176.4,-1079.0,137.8,297.0,1018.6914,-2.281875,3190.8,0.0914008749999999,-0.016752,0.0960791749999999,-0.026268382,-0.55606705,0.131938385,46150.0,32866.0,17940.0,229.0,-168.0,115.0,0,None
2023-01-01 16:07:41.850,360.17220000000003,0.1039999999999963,59.0,1371.0,22078.0,4883.0,99.0,1407.4,137.8,4829.6,112.98324,1.2380306,0.0162527366666666,0.07326469,-0.4561363,46.623333333333335,0.025274952,0.0805958333333333,-0.5507507666666667,0.5358083199999999,0.79971868,12.276527000000002,-19.8,-16.6,233.2,-88.4,-152.6,157.4,-1055.0,-29.8,291.4,1018.6738,-2.2992656,3192.0,0.025274952,-0.1357903733333333,0.0805958333333333,-0.0015049546666666,-0.5507507666666667,-0.0332706,46690.0,32836.0,18480.0,206.0,-145.0,119.0,0,None
2023-01-01 16:07:42.400,360.708,0.108000000000004,59.0,1519.0,21995.0,4890.0,99.0,1339.8,139.6,4888.4,111.11098,1.3069392,-0.034987965,0.059205775,-0.49505905,47.16,-0.02122359,0.066458005,-0.5906989,0.53118118,1.311003,14.345802,-3.2,14.5,251.3,-93.3,-51.8,165.9,-1082.7,-79.9,280.2,1018.6141,-2.3589844,3192.6,-0.02122359,-0.024927215,0.066458005,0.07792336,-0.5906989,-0.09826808,47220.0,32589.0,19010.0,213.0,-155.0,118.0,0,None
2023-01-01 16:07:42.950,361.287,0.1038333333333317,59.0,1409.5,21975.0,4889.0,99.0,1514.8333333333333,142.0,4883.833333333333,109.36808333333332,1.38164,-0.0157689739333333,0.0787485366666666,-0.5129781999999999,47.64333333333334,-0.0027919786666666,0.0848638,-0.6093185,0.5285730666666667,1.4336886666666666,10.141958666666666,-0.6666666666666666,-29.5,244.0,-75.83333333333333,75.5,183.16666666666663,-1075.5,-20.83333333333333,284.5,1018.563,-2.410078166666666,3193.6666666666665,-0.0027919786666666,0.0869027066666666,0.0848638,-0.0175837333333333,-0.6093185,-0.009566728,47700.0,32504.0,19490.0,235.0,-161.0,114.0,0,None
2023-01-01 16:07:43.500,361.843,0.1040000000000076,59.0,1403.0,22008.0,4888.0,99.0,1337.4,144.0,4883.2,107.76756,1.4575196,0.0208359283333333,0.05189226,-0.5261026333333333,48.23,0.0316611533333333,0.0581516633333333,-0.6229543333333334,0.5078056799999999,1.482026,10.847900200000002,4.4,-20.0,233.0,-102.0,53.2,171.8,-1055.0,-33.0,295.8,1018.5054,-2.46775,3194.6,0.0316611533333333,0.05331322,0.0581516633333333,-0.0295693666666666,-0.6229543333333334,-0.0339733266666666,48190.0,32441.0,19980.0,242.0,-167.0,116.0,0,None
2023-01-01 16:07:44.050,362.367,0.1039999999999963,59.0,1608.0,21985.0,4746.0,99.0,1484.0,146.4,4880.0,106.37982,1.5320698,0.032893115,0.059531605,-0.533942,48.735,0.04379175,0.066834665,-0.63170005,0.56402146,1.4305610000000002,10.2832148,2.4,35.6,223.2,-82.2,15.2,184.6,-1043.2,4.8,303.2,1018.4378,-2.535578,3195.0,0.04379175,-0.01991079,0.066834665,0.0429168059999999,-0.63170005,-0.0085764449999999,48700.0,32379.0,20490.0,232.0,-169.0,117.0,0,None
2023-01-01 16:07:44.600,362.9356666666667,0.103333333333334,58.0,1338.0,22016.0,4877.0,99.0,1377.1666666666667,148.66666666666666,4877.5,104.92976666666664,1.626056333333333,0.03270315,0.0624425133333333,-0.5298467000000001,49.26,0.04390479,0.06861571,-0.6271661999999999,0.5469936333333333,1.4762271666666666,10.359583166666669,11.666666666666666,4.5,220.66666666666663,-85.41666666666667,-10.833333333333334,179.25,-1051.75,0.9166666666666666,281.1666666666667,1018.3833333333332,-2.5901496666666666,3196.0,0.04390479,-0.0093696008999999,0.06861571,-0.0158807399999999,-0.6271661999999999,-0.010791807,49210.0,32411.0,21000.0,225.0,-166.0,126.0,0,None
2023-01-01 16:07:45.150,363.499,0.0999999999999999,58.0,1129.0,22085.0,4872.0,99.0,1208.6,150.6,4887.2,103.84086,1.709593,0.0222552933333333,0.0717752366666666,-0.5197910333333333,49.89333333333334,0.0324463533333333,0.0784647233333333,-0.6185069333333333,0.5703826399999999,1.46054,14.08606,23.8,68.8,230.6,-61.8,39.8,178.4,-985.0,58.2,298.6,1018.2984,-2.6745936,3197.0,0.0324463533333333,0.0520226196666666,0.0784647233333333,0.0041226926666666,-0.6185069333333333,0.0474334733333333,49750.0,32412.0,21540.0,226.0,-165.0,131.0,0,None
2023-01-01 16:07:45.700,364.0556666666666,0.0999999999999942,58.0,1446.0,21869.0,4748.0,99.0,1487.5,152.66666666666666,4883.5,102.94483333333336,1.7916103333333335,0.0433817933333333,0.0801358133333333,-0.4925164333333333,50.48,0.0534889833333333,0.0860554333333333,-0.5922850666666667,0.5128195333333334,1.4029191666666667,11.119928,4.5,-20.5,230.66666666666663,-81.83333333333333,13.0,180.83333333333331,-1128.6666666666667,21.5,288.6666666666667,1018.2351666666668,-2.7376953333333334,3197.833333333333,0.0534889833333333,0.0198992366666666,0.0860554333333333,0.0158101933333333,-0.5922850666666667,0.02374088,50250.0,32559.0,22040.0,227.0,-162.0,120.0,0,None
2023-01-01 16:07:46.250,364.611,0.1040000000000077,58.0,1469.0,21975.0,4879.0,99.0,1447.0,154.8,4882.2,102.14818,1.8739522,0.02722333,0.07359272,-0.49609755,50.98,0.03649341,0.079505855,-0.59637175,0.48847004,1.406962,10.1228402,11.4,-41.2,231.0,-96.2,-48.4,167.4,-1017.0,-24.6,291.2,1018.1734,-2.7998436,3198.8,0.03649341,-0.0576232849999999,0.079505855,-0.02363859,-0.59637175,-0.032593635,50730.0,32625.0,22520.0,219.0,-147.0,124.0,0,None
2023-01-01 16:07:46.800,365.135,0.1039999999999963,58.0,1396.0,22015.0,4871.0,99.0,1421.6,157.0,4879.8,101.50368,1.9539044,0.0071223989999999,0.0604705133333333,-0.5185931666666667,51.51333333333333,0.01832555,0.0663893033333333,-0.6198461333333333,0.51106336,1.52160692,11.4556476,15.6,-2.2,235.8,-85.2,-19.4,179.6,-1053.4,-47.6,298.8,1018.0962,-2.8767188,3199.2,0.01832555,0.0033421366666666,0.0663893033333333,-0.0432632966666666,-0.6198461333333333,-0.0469110133333333,51250.0,32526.0,23040.0,219.0,-143.0,124.0,0,None
2023-01-01 16:07:47.350,365.675,0.1120000000000004,58.0,1236.0,22046.0,4883.0,99.0,1428.0,159.0,4880.2,100.96424,2.0409032,0.01443782,0.05529448,-0.5393275500000001,52.055,0.02604307,0.060567085,-0.64156155,0.54134364,1.4744694,12.5528786,22.0,-29.6,232.8,-81.0,40.2,175.2,-1061.6,-32.6,285.4,1018.0518,-2.9214218,3199.8,0.02604307,-0.0298060699999999,0.060567085,-0.04950848,-0.64156155,-0.0339802415,52065.0,32337.0,23855.0,230.0,-155.5,125.0,0,None
2023-01-01 16:07:47.900,366.199,0.1039999999999963,58.0,1273.0,22073.0,4875.0,99.0,1357.0,161.2,4877.4,100.56342,2.1210034,0.0423345633333333,0.0536934033333333,-0.5444617666666667,52.60999999999999,0.0526631466666666,0.0589321333333333,-0.6476435,0.54307832,1.3979718,11.2950358,11.8,13.5,212.6,-84.5,52.8,176.0,-1025.6,-3.6,299.1,1017.9755,-2.9976718,3200.8,0.0526631466666666,0.0429367476666666,0.0589321333333333,-0.0024092466666666,-0.6476435,-0.0064539413333333,52900.0,32292.0,24690.0,218.0,-159.0,112.0,0,None
2023-01-01 16:07:48.450,366.789,0.103333333333334,57.5,1301.5,21940.0,4876.0,98.0,1298.3333333333333,163.33333333333334,4875.166666666667,100.23073333333332,2.205809,0.03086747,0.0521544033333333,-0.5360447333333332,53.27333333333334,0.0405378666666666,0.0573229366666666,-0.6413617333333334,0.5778744499999999,1.3909427166666666,11.553285,6.5,-7.5,220.16666666666663,-95.5,-45.66666666666666,163.66666666666666,-1093.0,14.666666666666666,290.1666666666667,1017.9155,-3.0577083333333337,3201.6666666666665,0.0405378666666666,-0.0290711433333333,0.0573229366666666,-0.0294761166666666,-0.6413617333333334,0.0172361633333333,53420.0,32338.0,25210.0,207.0,-156.0,123.0,0,None
2023-01-01 16:07:49.000,367.347,0.1040000000000076,57.0,1194.0,22051.0,4875.0,98.0,1126.0,165.0,4878.0,99.966304,2.2890056,0.017866825,0.065602155,-0.53506695,53.815,0.027781585,0.070459665,-0.6414597,0.52205696,1.4478114000000002,15.585264,12.0,97.0,228.6,-106.4,-17.2,190.4,-1020.6,-9.0,307.8,1017.8526,-3.1206092,3202.4,0.027781585,-0.0115788445,0.070459665,0.1474873,-0.6414597,-0.03551335,53960.0,32317.0,25750.0,202.0,-164.0,119.0,0,None
2023-01-01 16:07:49.550,367.871,0.1120000000000004,57.0,1341.0,21904.0,4882.0,98.0,1332.6,167.0,4795.2,99.773918,2.3654052,0.0048556699999999,0.09408541,-0.5152951666666666,54.32,0.0153422913333333,0.0974924766666666,-0.6222423666666667,0.55534072,1.31397342,11.3485202,17.8,-6.5,231.3,-73.7,40.2,192.0,-1038.9,67.8,285.1,1017.7801,-3.1930389,3203.0,0.0153422913333333,0.0520689,0.0974924766666666,-0.0241389033333333,-0.6222423666666667,0.07226486,54450.0,32488.0,26240.0,219.0,-160.0,109.0,0,None
2023-01-01 16:07:50.100,368.419,0.1039999999999963,57.0,1364.0,22000.0,4877.0,98.0,1408.4,169.0,4879.6,99.597718,2.446947,-0.0011085410333333,0.07779057,-0.4946015666666666,54.906666666666666,0.0096664126666666,0.0809008666666666,-0.6019150999999999,0.4798983199999999,1.4567402,12.8425178,7.2,-73.8,234.2,-87.2,-22.8,175.4,-1062.0,36.4,292.4,1017.7166,-3.256547,3203.8,0.0096664126666666,-0.0196702843333333,0.0809008666666666,-0.1129944766666666,-0.6019150999999999,0.0288306783333333,54940.0,32579.0,26730.0,234.0,-154.0,117.0,0,None
2023-01-01 16:07:50.650,368.999,0.103333333333334,57.0,1313.0,21917.0,4883.0,98.0,1272.8333333333333,171.0,4810.333333333333,99.46001666666668,2.5277510000000003,0.0356850733333333,0.0393710766666666,-0.5187295,55.52333333333333,0.0464114733333333,0.0438250666666666,-0.6272269,0.47742075,1.4168971666666663,11.825103333333336,-5.333333333333333,-52.5,230.0,-77.5,90.16666666666669,159.33333333333334,-1067.8333333333333,-95.0,288.5,1017.6893333333334,-3.283698,3204.6666666666665,0.0464114733333333,0.06904534,0.0438250666666666,-0.0230751699999999,-0.6272269,-0.1024924333333333,55450.0,32449.0,27240.0,236.0,-153.0,123.0,0,None
2023-01-01 16:07:51.200,369.579,0.1079999999999926,57.0,1274.0,22028.0,4877.0,98.0,1218.0,173.4,4880.4,99.329452,2.6105354000000003,0.024661735,0.031357795,-0.5653836,56.025000000000006,0.03415378,0.03707908,-0.6749594,0.5602796800000001,1.5176354,12.677318,0.8,21.9,220.7,-60.6,-84.3,177.0,-1091.1,-74.3,312.2,1017.6336,-3.3395544,3205.8,0.03415378,-0.08378773,0.03707908,0.032451515,-0.6749594,-0.0595743299999999,55960.0,32160.0,27750.0,214.0,-151.0,120.0,0,None
2023-01-01 16:07:51.750,370.131,0.108000000000004,57.0,1282.0,22007.0,4874.0,98.0,1285.4,175.0,4829.0,99.273772,2.6834974000000003,0.0138770216666666,0.05877542,-0.5720729333333333,56.51000000000001,0.02505301,0.0625952766666666,-0.6827456999999999,0.53586324,1.4732982,11.708078,1.6,45.2,221.0,-49.6,48.2,180.4,-1055.6,28.8,292.2,1017.546,-3.427156,3206.4,0.02505301,0.0384621233333333,0.0625952766666666,0.0130847333333333,-0.6827456999999999,0.0085215386666666,56470.0,32079.0,28260.0,208.0,-153.0,118.0,0,None
2023-01-01 16:07:52.300,370.663,0.108000000000004,57.0,1218.0,21923.0,4888.0,98.0,1112.4,176.8,4853.8,99.272276,2.7472444,-0.0036881915,0.0178062225,-0.59742245,56.965,0.0074799555,0.020089975,-0.7088345,0.5200471400000001,1.4452484,10.320685999999998,4.6,-148.6,228.6,-88.8,-78.8,183.4,-1001.0,-137.0,310.6,1017.4688,-3.504531,3207.2,0.0074799555,-0.0834902245,0.020089975,-0.15107058,-0.7088345,-0.125096435,56920.0,31994.0,28710.0,211.0,-152.0,113.0,0,None
2023-01-01 16:07:52.850,371.195,0.1039999999999963,57.0,1026.0,22116.0,4871.0,98.0,1019.0,178.4,4890.2,99.320418,2.8118806,-0.0219889066666666,-0.003168419,-0.6978781333333334,57.330000000000005,-0.0105626346666666,-7.769966666666655e-05,-0.8104019333333333,0.4702864,1.4023166,10.5161654,19.6,6.9,215.2,-82.0,20.5,188.6,-994.5,-202.8,303.6,1017.4309,-3.5421641,3207.8,-0.0105626346666666,0.0122045766666666,-7.769966666666655e-05,0.0149863483333333,-0.8104019333333333,-0.1665025666666666,57310.0,31395.0,29100.0,209.0,-185.0,81.0,0,None
2023-01-01 16:07:53.400,371.747,0.1159999999999968,57.0,1187.0,22057.0,4895.0,98.0,1029.8,180.0,4857.6,99.495092,2.868285,-0.001942012,0.0102119885,-0.7768524,57.55,0.008917689,0.0114479949999999,-0.89110765,0.61205398,1.0006917999999998,9.6570894,18.0,51.4,187.8,-60.8,77.8,208.6,-982.4,-122.4,309.8,1017.4266,-3.5465156,3208.4,0.008917689,0.07826464,0.0114479949999999,0.08012077,-0.89110765,-0.117123725,57540.0,30914.0,29330.0,207.0,-217.0,57.0,0,None
2023-01-01 16:07:53.950,372.303,0.1040000000000076,57.0,1217.0,22032.0,4871.0,98.0,1123.6,181.6,4889.2,99.745212,2.9179494,0.0413052066666666,0.0150443143333333,-0.8133344,57.64333333333334,0.0508549399999999,0.0161023116666666,-0.928288,0.54181524,1.3912764199999998,14.097464400000002,3.5,34.9,161.1,-62.3,87.4,221.0,-1079.2,-53.2,308.7,1017.4067,-3.5665701,3209.2,0.0508549399999999,0.0974045066666666,0.0161023116666666,-0.00225856,-0.928288,-0.0494283553333333,57640.0,30682.0,29430.0,202.0,-230.0,40.0,0,None
2023-01-01 16:07:54.500,372.839,0.1079999999999927,57.0,1325.0,21986.0,4885.0,98.0,1216.6,183.4,4883.6,99.968052,2.9575174000000004,0.0501149766666666,0.006205392,-0.8127688000000001,57.71333333333334,0.05823327,0.0082839663333333,-0.9284231333333332,0.6146941000000001,1.15991938,13.670934,5.4,-90.4,153.0,-39.4,-56.8,210.2,-1071.6,29.8,296.0,1017.353,-3.6201092,3209.8,0.05823327,-0.0035047866666666,0.0082839663333333,-0.0800899833333333,-0.9284231333333332,0.0213819196666666,57690.0,30649.0,29480.0,185.0,-216.0,35.0,0,None
2023-01-01 16:07:55.050,373.3923333333333,0.103333333333334,57.0,1138.5,22008.5,4882.5,98.0,1159.6666666666667,185.33333333333331,4886.333333333333,100.22353333333332,3.0019573333333334,0.0735102066666666,0.0255063933333333,-0.7869713333333332,57.78666666666666,0.0819311033333333,0.02765049,-0.9026255666666666,0.6349071,1.6338971666666666,18.443258333333333,8.333333333333334,76.5,152.5,-36.333333333333336,55.333333333333336,227.66666666666663,-1052.1666666666667,76.83333333333333,327.5,1017.3906666666668,-3.582695166666667,3210.6666666666665,0.0819311033333333,-0.0360244999999999,0.02765049,0.1021417193333333,-0.9026255666666666,0.03473412,57770.0,30742.0,29560.0,162.0,-207.0,38.0,0,None
2023-01-01 16:07:55.600,373.967,0.1039999999999963,57.0,1118.0,21993.0,4729.0,98.0,1165.2,187.4,4832.4,100.4967,3.047492,0.00030243,0.04275313,-0.7670326000000001,57.815,0.008855134,0.04505752,-0.8830293499999999,0.67733228,1.231439,16.042493999999998,-3.8,29.4,175.6,-48.4,-108.4,218.8,-1053.6,32.2,291.4,1017.3532,-3.6199998,3211.4,0.008855134,-0.02976984,0.04505752,0.066054895,-0.8830293499999999,0.0259233249999999,57800.0,30911.0,29590.0,142.0,-179.0,28.0,0,None
2023-01-01 16:07:56.150,374.491,0.108000000000004,57.0,1277.0,21997.0,4890.0,98.0,1205.6,189.0,4861.6,100.72586,3.0880948000000004,0.0119273266666666,0.0378545666666666,-0.7498125,57.85666666666666,0.022024447,0.0392611,-0.8667772,0.58975218,1.2661338,14.535584,-1.6,-13.6,186.6,-35.6,66.1,213.1,-1024.5,28.7,293.5,1017.3384,-3.6346407,3212.4,0.022024447,0.0822176266666666,0.0392611,-0.0554187899999999,-0.8667772,0.0424701366666666,57840.0,30970.0,29630.0,148.0,-176.0,18.0,0,None
2023-01-01 16:07:56.700,375.0656666666667,0.1000000000000037,57.0,1230.0,22003.0,4871.0,98.0,1183.6666666666667,190.66666666666663,4889.166666666667,100.89546666666666,3.123687666666666,-0.0077759746666666,0.0244757533333333,-0.7420028666666667,57.89333333333334,0.000892857,0.02733655,-0.8600955,0.5053895166666666,1.4395691666666666,13.102751833333334,-4.666666666666667,-38.66666666666666,193.33333333333331,-46.16666666666666,-26.83333333333333,213.16666666666663,-1040.1666666666667,-15.5,288.3333333333333,1017.3426666666666,-3.6307161666666654,3212.833333333333,0.000892857,0.0464136699999999,0.02733655,-0.0098010366666666,-0.8600955,-0.0284918633333333,57885.0,31075.5,29675.0,153.5,-169.5,21.0,0,None
2023-01-01 16:07:57.250,375.631,0.1039999999999963,57.0,1333.0,21897.0,4751.0,98.0,1183.6,192.6,4861.0,101.02458,3.1561948,0.03148913,0.0066625745,-0.75750155,57.91,0.039015375,0.009838297,-0.87603955,0.5449734599999999,1.30292582,14.874718,6.4,-48.8,182.8,-23.0,-4.2,208.4,-1032.8,-20.2,311.4,1017.3424,-3.6306874,3213.6,0.039015375,0.022950905,0.009838297,0.0189883499999999,-0.87603955,-0.022685965,57910.0,30978.0,29700.0,142.0,-167.0,20.0,0,None
2023-01-01 16:07:57.800,376.143,0.0999999999999999,57.0,1113.0,22021.0,4871.0,98.0,1172.0,194.6,4885.2,101.12904,3.1838900000000003,-0.0012368133333333,-0.0230504266666666,-0.7575594333333333,57.88333333333333,0.00599997,-0.0202270556666666,-0.8759662666666667,0.55444918,1.5692578,12.038218,-22.2,-63.6,175.0,-54.8,-145.4,201.6,-1117.0,-5.4,314.8,1017.3824,-3.5908124,3214.2,0.00599997,-0.08290417,-0.0202270556666666,-0.0728503666666666,-0.8759662666666667,-0.0035604186666666,57890.0,30973.0,29680.0,122.0,-171.0,28.0,0,None
2023-01-01 16:07:58.350,376.689,0.1000000000000037,57.0,989.0,22099.0,4895.0,98.0,1042.6666666666667,195.83333333333331,4821.166666666667,101.24593333333333,3.209804,-0.08427711,0.0130781516666666,-0.7456843666666666,57.833333333333336,-0.0751121666666666,0.0155495533333333,-0.8651982333333333,0.5488596166666667,1.1028408333333333,15.197156666666666,-20.33333333333333,84.16666666666667,213.66666666666663,-31.666666666666668,-44.0,208.5,-989.1666666666666,36.833333333333336,287.8333333333333,1017.4533333333334,-3.52,3214.833333333333,-0.0751121666666666,0.0165343366666666,0.0155495533333333,0.1053049766666666,-0.8651982333333333,0.02235574,57830.0,31051.0,29620.0,137.0,-201.0,20.0,0,None
2023-01-01 16:07:58.900,377.239,0.0999999999999999,57.0,1102.0,22052.0,4875.0,98.0,1262.8,197.6,4883.0,101.36596,3.2340219999999995,-0.09989385,0.05310343,-0.7210429,57.72,-0.09146262,0.05539951,-0.8420882000000001,0.5755967999999999,1.8630072,13.448932000000005,-9.6,144.6,228.2,-39.8,71.6,209.4,-1070.2,65.6,264.6,1017.4056,-3.5674686,3216.0,-0.09146262,0.101312605,0.05539951,0.151375165,-0.8420882000000001,0.06638089,57720.0,31194.0,29510.0,176.0,-241.0,25.0,0,None
2023-01-01 16:07:59.450,377.789,0.0999999999999942,57.0,1144.0,22061.0,4891.0,98.0,1156.0,199.5,4884.666666666667,101.48146666666666,3.257793,0.0140559633333333,0.04779963,-0.6808547666666667,57.71,0.02047912,0.0490257333333333,-0.8028567333333333,0.6034987333333334,1.9404735,16.17251166666667,-8.0,-49.833333333333336,205.66666666666663,-44.16666666666666,187.5,206.66666666666663,-1123.8333333333333,34.5,298.5,1017.3228333333332,-3.6503643333333335,3216.333333333333,0.02047912,0.1742756933333333,0.0490257333333333,-0.08013371,-0.8028567333333333,0.0478984899999999,57710.0,31416.0,29500.0,203.0,-246.0,40.0,0,None
2023-01-01 16:08:00.000,378.339,0.0999999999999999,57.0,1069.0,21943.0,4882.0,98.0,1054.0,201.4,4889.8,101.55976,3.2795803999999995,0.0576356766666666,0.0472106666666666,-0.6551311666666666,57.77666666666667,0.05968842,0.04954985,-0.7776325666666667,0.52157652,1.4144158,11.810996200000002,-23.8,2.6,191.8,-26.8,-21.8,198.2,-1044.6,-1.4,309.0,1017.4264,-3.5466876,3217.0,0.05968842,0.00744298,0.04954985,0.04803202,-0.7776325666666667,0.0028924556666666,57790.0,31546.0,29580.0,194.0,-219.0,28.0,0,None
2023-01-01 16:08:00.550,378.889,0.1000000000000037,57.0,1131.5,22057.5,4874.5,98.0,1110.3333333333333,202.83333333333331,4880.166666666667,101.6114,3.2993261666666664,-0.0544570433333333,0.0199479713333333,-0.6668531333333334,57.72666666666667,-0.05032655,0.0226558033333333,-0.7900119,0.5383836833333333,1.3646917666666667,11.527758,-6.333333333333333,-53.833333333333336,216.0,-47.333333333333336,-224.16666666666663,197.0,-1077.0,-35.5,301.0,1017.4303333333334,-3.542955833333333,3217.5,-0.05032655,-0.1641923333333333,0.0226558033333333,-0.1140749423333333,-0.7900119,-0.0365129366666666,57740.0,31514.0,29530.0,187.0,-190.0,25.0,0,None
2023-01-01 16:08:01.100,379.439,0.0999999999999999,57.0,1038.0,22054.0,4882.0,98.0,1239.2,204.6,4889.0,101.66668,3.3190742,0.06288034,0.04341222,-0.6939687999999999,57.715,0.068800265,0.04669623,-0.8179364,0.5932192000000001,1.2843137800000002,11.8665,-12.8,-10.2,201.8,-18.0,260.2,219.2,-1099.0,-76.4,303.2,1017.3812,-3.5922968,3218.4,0.068800265,0.08152055,0.04669623,0.11184915,-0.8179364,-0.060113205,57710.0,31353.0,29500.0,205.0,-212.0,27.0,0,None
2023-01-01 16:08:01.650,379.989,0.0999999999999942,57.0,1089.0,22039.0,4875.0,98.0,1015.0,206.5,4885.666666666667,101.73083333333334,3.3377363333333334,-0.0150489673333333,-0.0105256103333333,-0.7270463666666668,57.73,-0.0107012088333333,-0.0076615303333333,-0.8502546,0.5228453666666667,1.085637416666667,7.885818666666666,-12.166666666666666,-41.66666666666666,202.83333333333331,-23.666666666666668,-70.66666666666667,194.16666666666663,-1058.8333333333333,-99.0,307.1666666666667,1017.4496666666668,-3.5235675000000004,3219.0,-0.0107012088333333,-0.0613965666666666,-0.0076615303333333,-0.0559518333333333,-0.8502546,-0.0881331799999999,57730.0,31225.0,29520.0,196.0,-188.0,29.0,0,None
2023-01-01 16:08:02.200,380.539,0.0999999999999999,57.0,1211.0,21916.0,4750.0,98.0,1299.0,208.2,4831.2,101.81538,3.3543576,-0.023063486,-0.013896415,-0.7670548999999999,57.67666666666667,-0.0171655783333333,-0.0108964546666666,-0.8917916,0.441853,1.0425214,6.443371600000001,-18.2,-4.8,193.8,-24.4,-37.0,193.6,-1107.0,-70.0,290.2,1017.4368,-3.5366094,3219.8,-0.0171655783333333,0.0390523366666666,-0.0108964546666666,0.0362008333333333,-0.8917916,-0.0673240933333333,57710.0,30960.0,29500.0,192.0,-195.0,22.0,0,None
2023-01-01 16:08:02.750,381.099,0.103333333333334,56.0,1376.0,22015.0,4856.0,98.0,1212.6666666666667,210.0,4888.0,101.92268333333334,3.367891833333333,-0.0691683033333333,0.0308831133333333,-0.7889182,57.656666666666666,-0.06272574,0.0329353066666666,-0.9152519666666666,0.5534073666666667,1.3829238333333336,8.815406000000001,-6.666666666666667,82.5,192.66666666666663,-20.5,-105.16666666666669,212.5,-1077.1666666666667,14.833333333333334,293.0,1017.3471666666666,-3.625833333333333,3220.0,-0.06272574,-0.0705389333333333,0.0329353066666666,0.0991478366666666,-0.9152519666666666,0.0193538333333333,57655.0,30780.5,29445.0,199.0,-224.0,29.0,0,None
2023-01-01 16:08:03.300,381.663,0.0999999999999999,57.0,1116.0,22038.0,4895.0,98.0,1162.8,212.4,4833.2,102.04472,3.3808022,-0.0335506155,0.036829885,-0.77804465,57.74,-0.0252186875,0.03902601,-0.9046674,0.523261,1.5510084,11.5477006,-14.8,-10.4,206.2,-48.4,237.6,236.0,-1073.0,-20.6,294.8,1017.2878,-3.6855778,3220.8,-0.0252186875,0.25614575,0.03902601,-0.049327908,-0.9046674,0.0099353245,57780.0,30810.0,29570.0,234.0,-252.0,29.0,0,None
2023-01-01 16:08:03.850,382.2123333333333,0.1000000000000037,56.0,1183.0,22027.0,4875.0,98.0,1210.5,214.16666666666663,4866.333333333333,102.1612,3.393747333333333,0.0154725833333333,-0.0017449853333333,-0.7928421,57.833333333333336,0.0209125066666666,0.0010287266666666,-0.9190900666666666,0.5983967,1.292326,13.921718,-10.166666666666666,-95.0,174.0,-47.0,-6.833333333333333,212.83333333333331,-1095.8333333333333,-61.0,310.0,1017.2991666666668,-3.673958,3221.333333333333,0.0209125066666666,-0.03532039,0.0010287266666666,-0.1025876914666666,-0.9190900666666666,-0.0441812706666666,57850.0,30681.0,29640.0,228.0,-251.0,14.0,0,None
2023-01-01 16:08:04.400,382.763,0.0999999999999999,56.0,1151.0,22029.0,4888.0,98.0,1246.6,216.0,4888.4,102.2629,3.4061563999999995,0.0274509333333333,-0.0308896266666666,-0.8275928,57.88,0.03326018,-0.0269760633333333,-0.9541860333333332,0.58794326,1.3223596,6.534402999999999,-3.4,-8.6,164.6,-30.4,45.4,206.4,-1057.2,-43.8,310.0,1017.2792,-3.6940934,3222.0,0.03326018,0.006865928,-0.0269760633333333,-0.0154382933333333,-0.9541860333333332,-0.06434298,57880.0,30529.0,29670.0,206.0,-259.0,13.0,0,None
2023-01-01 16:08:04.950,383.263,0.0999999999999999,56.0,1439.0,21855.0,4874.0,98.0,1305.2,217.6,4890.2,102.35624,3.4172342,0.10567815,-0.012545146,-0.8507695500000001,57.895,0.109955845,-0.009319128,-0.9787386,0.5984514400000001,1.5951864,12.3351974,0.4,112.8,142.0,-47.2,194.2,212.0,-1091.0,-59.0,328.4,1017.267,-3.7062656,3222.8,0.109955845,0.167892705,-0.009319128,0.09785295,-0.9787386,-0.058317455,57900.0,30378.0,29690.0,170.0,-248.0,17.0,0,None
2023-01-01 16:08:05.500,383.8156666666667,0.103333333333334,56.0,1176.5,22033.0,4882.5,98.0,1181.3333333333333,219.5,4889.0,102.4423,3.427647333333333,0.1633010666666666,0.03497365,-0.8788017333333333,57.93333333333334,0.1671228666666666,0.0370628733333333,-1.0077787333333337,0.5453101,1.2720108333333335,10.012327833333336,4.166666666666667,37.333333333333336,109.83333333333331,-17.5,67.0,231.0,-1102.8333333333333,-70.66666666666667,309.3333333333333,1017.2791666666668,-3.6941015,3223.333333333333,0.1671228666666666,0.02551443,0.0370628733333333,0.0478432,-1.0077787333333337,-0.06624476,57940.0,30213.0,29730.0,134.0,-194.0,11.0,0,None
2023-01-01 16:08:06.050,384.4123333333334,0.0966666666666639,56.0,1071.0,21913.0,4893.0,98.0,1123.3333333333333,221.5,4891.0,102.53133333333332,3.439772666666667,0.1879571999999999,0.02236928,-0.9107631666666668,57.95,0.1920498666666666,0.02237059,-1.0406293333333332,0.47139715,1.1328282166666666,5.930225166666666,19.83333333333333,-22.5,86.33333333333333,-10.666666666666666,43.333333333333336,237.5,-1097.0,-6.0,337.1666666666667,1017.3086666666665,-3.6646745,3223.833333333333,0.1920498666666666,0.0477944466666666,0.02237059,-0.0054374273333333,-1.0406293333333332,-0.0355285233333333,57960.0,30034.0,29750.0,99.0,-123.0,11.0,0,None
2023-01-01 16:08:06.600,384.9632,0.0999999999999999,56.0,1102.0,22032.0,4874.0,98.0,1170.4,223.4,4895.0,102.61286,3.4531822,0.1901937666666666,0.011916059,-0.920243,57.88666666666666,0.1957862333333333,0.0109935303333333,-1.0500656666666666,0.44967508,1.17203276,8.0703898,40.0,-11.8,81.2,-23.2,3.6,231.2,-1037.2,2.2,334.2,1017.3352,-3.6380624,3224.6,0.1957862333333333,-0.0677692533333333,0.0109935303333333,0.0075077566666666,-1.0500656666666666,-0.04675054,57910.0,30008.0,29700.0,56.0,-58.0,7.0,0,None
2023-01-01 16:08:07.150,385.467,0.1039999999999963,56.0,1095.0,22019.0,4864.0,98.0,1119.8,225.0,4837.6,102.68636,3.4653838,0.12803275,0.020189842,-0.92356485,57.82,0.13636115,0.017060835,-1.0528365000000002,0.5551638,1.0632998400000002,7.118243199999999,39.8,-33.2,89.2,-19.0,-108.6,240.6,-1100.2,22.2,331.2,1017.3606,-3.6125,3225.2,0.1358348,-0.058268525,0.01867923685,-0.07962747,-1.0531475,0.054608045,57840.0,29925.0,29630.0,18.0,4.0,15.0,0,None
2023-01-01 16:08:07.700,386.029,0.1000000000000037,56.0,1171.0,22026.0,4877.0,98.0,1206.1666666666667,226.83333333333331,4873.666666666667,102.8012,3.483290666666667,0.1140402,0.0034695743333333,-0.9163473,57.76,0.1232291333333333,0.0004377593333333,-1.0446903333333335,0.5726338166666666,1.1219570666666667,6.73267,44.66666666666666,32.666666666666664,107.5,-25.5,-44.66666666666666,224.83333333333331,-1108.3333333333333,-24.166666666666668,318.5,1017.2796666666668,-3.69362,3225.6666666666665,0.1232291333333333,-0.0148417033333333,0.0004377593333333,0.0132275666666666,-1.0446903333333335,0.0128128799999999,57780.0,30018.0,29570.0,-7.0,32.0,14.0,0,None
2023-01-01 16:08:08.250,386.579,0.0999999999999999,56.0,1000.0,22052.0,4895.0,98.0,1081.0,228.4,4891.6,102.90834,3.5016694,0.0699811,0.0396147733333333,-0.9176330666666668,57.77,0.0799532666666666,0.0351472766666666,-1.0463076666666666,0.55016912,0.98173812,7.0458326,56.0,63.0,119.4,-28.0,-45.0,236.4,-1049.8,12.4,308.4,1017.314,-3.6591562,3226.2,0.0799532666666666,-0.08943812,0.0351472766666666,0.01627645,-1.0463076666666666,0.023750899,57760.0,29987.0,29550.0,-33.0,47.0,20.0,0,None
2023-01-01 16:08:08.800,387.129,0.1000000000000037,56.0,935.0,21976.0,4740.0,98.0,999.6666666666666,230.0,4826.833333333333,103.00120000000004,3.521625,0.0607265066666666,0.0431663733333333,-0.9069087,57.77,0.0715151933333333,0.0378557433333333,-1.0361326666666668,0.72586995,1.0164827833333334,6.886328333333334,49.16666666666666,-19.0,130.0,-55.5,40.333333333333336,239.66666666666663,-1034.5,14.166666666666666,305.1666666666667,1017.3161666666664,-3.656992,3227.0,0.0715151933333333,-0.0428299766666666,0.0378557433333333,-0.0166323166666666,-1.0361326666666668,0.00608795,57775.0,30044.0,29565.0,-32.0,45.5,16.5,0,None
2023-01-01 16:08:09.350,387.644,0.1049999999999897,56.0,912.0,22100.0,4893.0,98.0,991.25,231.5,4888.75,103.0643,3.538953,0.075691435,0.03501092,-0.8968941500000001,57.745000000000005,0.08547054,0.029376475,-1.0263749999999998,0.8896516750000001,1.0728349249999998,6.9784767500000005,60.625,-24.625,127.875,-39.0,-22.5,238.375,-1071.0,15.25,313.25,1017.27225,-3.7008495,3227.625,0.08547054,0.07561324,0.029376475,0.00627805,-1.0263749999999998,0.01852581,57740.0,30122.0,29530.0,-33.0,42.0,8.0,0,None
2023-01-01 16:08:09.900,388.249,0.1166666666666742,56.0,820.0,22116.0,4879.0,98.0,962.5833333333334,233.0,4891.333333333333,103.11766666666666,3.5585985,0.06349845,0.0392513733333333,-0.8897545666666667,57.73666666666667,0.0723617166666666,0.0336383033333333,-1.020553,0.802683,1.2212978833333334,6.950168499999999,37.083333333333336,35.916666666666664,134.5,-40.91666666666666,-54.083333333333336,237.33333333333331,-1092.1666666666667,3.9166666666666665,309.5833333333333,1017.2909166666668,-3.682141916666666,3228.5,0.0723617166666666,0.0067378636666666,0.0336383033333333,0.04751016,-1.020553,0.0381758266666666,57740.0,30166.0,29530.0,-33.0,46.0,11.0,0,None
2023-01-01 16:08:10.450,388.799,0.0999999999999999,56.0,1023.0,22084.0,4883.0,98.0,1016.6,234.6,4892.2,103.15264,3.5753637999999994,0.03354927,0.0585771866666666,-0.8869605333333334,57.70333333333334,0.0420523333333333,0.05274682,-1.0179596666666668,0.77625822,1.0807640199999995,4.8632644,13.0,-1.8,142.2,-58.6,-41.4,245.6,-1050.4,-33.2,307.4,1017.293,-3.6804218,3229.2,0.0420523333333333,-0.0358826053333333,0.05274682,-0.0109312933333333,-1.0179596666666668,-0.0122017716666666,57700.0,30164.0,29490.0,-26.0,51.0,7.0,0,None
2023-01-01 16:08:11.000,389.349,0.0999999999999942,56.0,1037.5,22013.0,4884.0,98.0,1106.0,236.16666666666663,4857.5,103.16383333333332,3.590626666666666,0.010984658,0.0489860366666666,-0.9024642333333334,57.64333333333334,0.0192158833333333,0.04407594,-1.0332363333333332,0.60276465,0.8582934,5.323673500000001,8.833333333333334,-30.166666666666668,141.5,-45.833333333333336,-20.0,243.83333333333331,-1066.5,-39.5,287.0,1017.3043333333331,-3.6685156666666665,3229.833333333333,0.0192158833333333,-0.026224763,0.04407594,-0.0175609268333333,-1.0332363333333332,-0.01987592,57660.0,30089.0,29450.0,-9.0,52.0,5.0,0,None
2023-01-01 16:08:11.550,389.899,0.0999999999999999,56.0,989.0,22059.0,4879.0,98.0,1072.8,237.8,4891.2,103.13686,3.6012226,-0.006141691,0.02285098,-0.9139148,57.605,0.0010731844999999,0.01905352,-1.044038,0.5253587200000001,1.08307826,7.740732400000001,16.0,-34.8,154.0,-34.0,-4.4,238.4,-1087.2,-25.2,304.8,1017.294,-3.6792342000000007,3230.0,0.0010731844999999,-0.0609648,0.01905352,-0.05253273,-1.044038,0.0072350715,57610.0,30023.0,29400.0,2.0,44.0,11.0,0,None
2023-01-01 16:08:12.100,390.4556666666667,0.103333333333334,56.0,894.0,22108.0,4891.0,98.0,977.8333333333334,239.5,4864.666666666667,103.0749,3.6045965,0.0048224773333333,0.0097909116666666,-0.9236910666666668,57.586666666666666,0.012949612,0.0065941286666666,-1.0542360000000002,0.6788412166666666,1.1196756,9.957021,17.333333333333332,-49.833333333333336,147.5,-31.33333333333333,27.166666666666668,240.33333333333331,-1050.5,-31.666666666666668,315.8333333333333,1017.3656666666668,-3.607486833333333,3230.833333333333,0.012949612,0.0551325266666666,0.0065941286666666,-0.0320700633333333,-1.0542360000000002,-0.0177948133333333,57600.0,29965.0,29390.0,11.0,26.0,11.0,0,None
2023-01-01 16:08:12.650,391.0194,0.1002000000000065,56.0,837.0,22119.0,4880.0,98.0,891.0,240.8,4836.0,102.99786000000002,3.6025192,0.03553622,-0.0203362566666666,-0.9266114666666666,57.51666666666666,0.0421165799999999,-0.0223502033333333,-1.0561109999999998,0.6953426,1.0917329800000002,8.0759268,27.2,-23.8,135.4,-35.2,62.2,222.0,-1043.0,2.2,319.0,1017.384,-3.5890314,3231.4,0.0421165799999999,0.0781699333333333,-0.0223502033333333,-0.0412915833333333,-1.0561109999999998,0.0008392486666666,57540.0,29944.0,29330.0,11.0,14.0,20.0,0,None
2023-01-01 16:08:13.200,391.528,0.1039999999999963,57.0,898.0,22080.0,4890.0,98.0,890.6,242.2,4888.6,102.9222,3.5978222000000004,0.05310851,-0.0135339065,-0.91769925,57.445,0.05903777,-0.01418080605,-1.0471675,0.81933528,1.06609558,7.6362908,24.6,72.8,130.6,-26.2,-30.2,230.4,-1065.2,48.6,328.8,1017.3906,-3.5827653999999995,3232.0,0.06121185,0.026106525,-0.0168040465,0.106024075,-1.0470855,0.040484245,57470.0,29967.0,29260.0,-3.0,12.0,23.0,0,None
2023-01-01 16:08:13.750,392.09,0.0999999999999942,57.0,1096.0,21908.0,4882.0,98.0,1105.3333333333333,243.66666666666663,4892.666666666667,102.85654999999998,3.5926421666666664,0.0316828133333333,0.0164308633333333,-0.8866432,57.370000000000005,0.0385261633333333,0.0153737799999999,-1.016244,0.7671405333333333,1.2103771666666667,7.178629666666666,35.833333333333336,22.166666666666668,146.33333333333334,-49.0,-10.5,235.5,-1078.5,56.0,318.8333333333333,1017.2901666666668,-3.6829035,3232.833333333333,0.0385261633333333,-0.04806724,0.0153737799999999,-0.0117715833333333,-1.016244,0.0418839099999999,57375.0,30174.0,29165.0,-17.0,3.5,23.5,0,None
2023-01-01 16:08:14.300,392.69,0.1000000000000037,56.0,1003.0,22040.0,4893.0,98.0,991.6666666666666,245.33333333333331,4893.5,102.80276666666668,3.587079333333333,0.03484376,0.04317324,-0.8776165666666668,57.38999999999999,0.0421618666666666,0.0421055066666666,-1.00751,0.8362047833333334,1.0611458333333332,7.223118666666667,53.833333333333336,63.833333333333336,149.5,-39.5,58.833333333333336,239.0,-1039.6666666666667,-7.333333333333333,311.6666666666667,1017.297,-3.6761848333333336,3233.1666666666665,0.0421618666666666,0.0362242172999999,0.0421055066666666,0.07903221,-1.00751,-0.0225104216666666,57400.0,30213.0,29190.0,-10.0,-13.0,6.0,0,None
2023-01-01 16:08:14.850,393.24,0.0999999999999999,56.0,1380.0,21934.0,4875.0,98.0,1266.6,247.2,4858.2,102.7595,3.582326,0.0647573766666666,0.0424357733333333,-0.8814953,57.39666666666667,0.0720023333333333,0.0414479433333333,-1.0107773333333334,0.65325952,1.4159001999999998,11.0501626,77.8,-58.6,136.6,-80.8,66.6,237.8,-1028.4,17.4,313.8,1017.2376,-3.7356406,3233.8,0.0720023333333333,0.0757962253333333,0.0414479433333333,0.0137768596666666,-1.0107773333333334,-0.0062826833333333,57400.0,30220.0,29190.0,-10.0,-24.0,11.0,0,None
2023-01-01 16:08:15.400,393.7600000000001,0.108000000000004,56.0,1133.0,21945.0,4901.0,98.0,1173.6,248.8,4893.8,102.70356,3.5809392000000004,0.078250725,0.04818024,-0.87929035,57.43,0.085905185,0.04935704,-1.0082434999999998,0.59121828,1.4709616,12.214642,68.6,92.6,129.4,-117.0,31.0,235.8,-1102.2,-21.8,296.0,1017.1992,-3.7738594,3234.2,0.085905185,0.0246149749999999,0.04935704,0.041340255,-1.0082434999999998,-0.032336085,57450.0,30226.0,29240.0,-19.0,-31.0,8.0,0,None
2023-01-01 16:08:15.950,394.284,0.1039999999999963,56.0,1215.0,21976.0,4875.0,98.0,1134.2,250.6,4882.4,102.62194,3.5837072000000005,0.0794305199999999,0.0802110966666666,-0.8832877666666666,57.46333333333334,0.0865458866666666,0.0815432733333333,-1.0122376666666668,0.7390156600000001,1.224079,8.7587508,75.2,22.2,127.8,-55.8,-20.2,244.6,-1098.4,-22.0,307.4,1017.2218,-3.7514058,3235.0,0.0865458866666666,-0.0570643333333333,0.0815432733333333,0.04020394,-1.0122376666666668,-0.0298291466666666,57460.0,30182.0,29250.0,-11.0,-27.0,0.0,0,None
2023-01-01 16:08:16.500,394.8566666666666,0.103333333333334,56.0,1056.5,21980.0,4817.5,98.0,1119.1666666666667,252.5,4895.5,102.49813333333331,3.5912861666666664,0.0955564133333333,0.0742258833333333,-0.8916239333333333,57.44,0.1033358733333333,0.07628968,-1.020088,0.4814609666666667,1.1268367,7.470791833333332,72.58333333333333,-34.5,122.75,-98.25,53.66666666666666,251.33333333333331,-1071.9166666666667,-13.75,303.9166666666667,1017.2405,-3.7327019166666666,3235.5,0.1033358733333333,0.08826947,0.07628968,-0.024523139,-1.020088,-0.003598113,57440.0,30151.0,29230.0,2.0,-17.0,0.0,0,None
2023-01-01 16:08:17.600,395.92,0.1066666666666643,56.0,1168.0,21923.5,4885.0,98.0,1135.6666666666667,255.83333333333331,4891.833333333333,102.24555,3.6134426666666655,0.0974919666666666,0.0544665099999999,-0.8942902,57.31,0.1058893,0.0585632833333333,-1.0211,0.7224843999999999,0.8907053166666666,8.954637166666666,94.66666666666669,15.666666666666666,121.33333333333331,-63.0,13.5,246.33333333333331,-1037.5,-8.333333333333334,309.3333333333333,1017.2266666666668,-3.7466275000000007,3236.6666666666665,0.1058893,0.0503478566666666,0.0585632833333333,-0.0179116476666666,-1.0211,0.0029612799999999,57310.0,30150.0,29100.0,-8.0,0.0,3.0,0,None
2023-01-01 16:08:18.150,396.492,0.108000000000004,56.0,1193.0,22005.0,4896.0,98.0,1096.8,257.6,4893.6,102.08686,3.6322662,0.0909415733333333,0.0686219266666666,-0.8927951333333334,57.25666666666667,0.1007842066666666,0.07280001,-1.0192443333333332,0.8238006,0.93664004,8.7990772,80.6,33.7,117.9,-70.5,6.1,248.1,-1040.2,-4.7,315.4,1017.2569,-3.7163357,3237.0,0.1007842066666666,-0.00572335,0.07280001,0.0306822666666666,-1.0192443333333332,0.0024509023333333,57260.0,30160.0,29050.0,-10.0,2.0,10.0,0,None
2023-01-01 16:08:18.700,397.06666666666666,0.0999999999999942,56.0,1013.0,22040.0,4875.0,98.0,1019.1666666666666,259.3333333333333,4825.333333333333,101.94603333333336,3.651468666666666,0.0962166833333333,0.0771433066666666,-0.8972517666666667,57.17666666666667,0.1061212333333333,0.0800756133333333,-1.0235243333333333,0.73015805,1.3154155,6.485985666666667,84.33333333333333,-10.333333333333334,121.16666666666669,-75.0,21.0,254.0,-1062.1666666666667,-14.0,308.1666666666667,1017.2876666666666,-3.685768166666667,3238.0,0.1061212333333333,0.0050248896666666,0.0800756133333333,-0.0322723333333333,-1.0235243333333333,-0.0039038236666666,57200.0,30139.0,28990.0,-3.0,9.0,7.0,0,None
2023-01-01 16:08:19.250,397.632,0.1039999999999963,56.0,1067.0,22023.0,4896.0,98.0,1113.8,261.0,4886.4,101.7931,3.673013,0.09851829,0.054979855,-0.89695595,57.075,0.1089829,0.059145055,-1.0219345,0.67611724,1.01589988,9.1693258,80.6,-34.2,118.2,-87.0,17.2,245.2,-1021.4,-2.8,304.8,1017.294,-3.6790310000000006,3238.6,0.1089829,-0.02464362,0.059145055,-0.053719175,-1.0219345,0.0124427834999999,57110.0,30142.0,28900.0,2.0,16.0,3.0,0,None
2023-01-01 16:08:19.800,398.164,0.108000000000004,56.0,1129.0,22021.0,4874.0,98.0,1004.6,262.4,4857.0,101.62562,3.6982968,0.09673796,0.04607386,-0.8934384999999999,56.99,0.1076397333333333,0.05051812,-1.018111,0.75836968,0.87016892,6.7166438,68.6,11.8,124.2,-74.8,17.8,242.6,-1060.6,23.6,320.2,1017.3438,-3.629547,3239.2,0.1076397333333333,-0.0205050033333333,0.05051812,-0.03442906,-1.018111,0.0040229579999999,57020.0,30154.0,28810.0,-1.0,24.0,6.0,0,None
2023-01-01 16:08:20.350,398.696,0.1039999999999963,56.0,1007.0,21908.0,4896.0,98.0,1152.8,264.2,4835.8,101.46878,3.7255606,0.079026625,0.041549605,-0.89328325,56.895,0.09015173,0.0457232749999999,-1.0166565,0.75943824,1.0376089,8.1123108,64.7,-8.1,122.5,-65.6,-48.5,245.3,-1081.4,-26.6,312.9,1017.3244,-3.6487576,3239.5,0.09015173,-0.0698992599999999,0.0457232749999999,0.0117742599999999,-1.0166565,-0.01371913,56940.0,30185.0,28730.0,-8.0,32.0,10.0,0,None
2023-01-01 16:08:20.900,399.27,0.103333333333334,56.0,973.0,22083.0,4877.0,98.0,952.8333333333334,265.6666666666667,4885.166666666667,101.34358333333334,3.752365,0.0651925366666666,0.0469404433333333,-0.8936550666666667,56.84,0.0767772133333333,0.0509522799999999,-1.016932,0.8663067000000001,1.2029596666666664,7.3717221666666655,76.33333333333333,-10.333333333333334,131.33333333333334,-52.5,13.166666666666666,239.83333333333331,-1082.5,11.333333333333334,311.8333333333333,1017.3606666666668,-3.612435,3240.0,0.0767772133333333,-0.0045836533333333,0.0509522799999999,0.0015657866666666,-1.016932,0.0060440426666666,56870.0,30167.0,28660.0,-10.0,32.0,20.0,0,None
2023-01-01 16:08:21.450,399.84,0.1040000000000076,56.0,855.0,22093.0,4895.0,98.0,921.2,267.2,4862.4,101.226,3.7787378,0.0674679833333333,0.0486075233333333,-0.8767799,56.75,0.0787063766666666,0.0531339466666666,-0.9996459,0.95144554,1.1907168,6.569475799999999,72.2,3.2,136.6,-63.0,-24.8,241.0,-1084.6,11.8,320.8,1017.3562,-3.6171094,3240.4,0.0787063766666666,0.0099495707,0.0531339466666666,0.0075046262333333,-0.9996459,0.0186145307,56800.0,30229.0,28590.0,-8.0,32.0,17.0,0,None
2023-01-01 16:08:22.000,400.364,0.1079999999999927,56.0,1045.0,22001.5,4882.5,98.0,918.6,268.6,4886.0,101.11334,3.8033726,0.0564251,0.0439405749999999,-0.8816639,56.675,0.068293405,0.047825235,-1.0040520000000002,0.94541188,1.07611968,7.369113,69.8,-4.6,142.2,-67.2,50.2,245.8,-1039.0,-11.8,320.0,1017.3652,-3.6081562,3241.0,0.068293405,-0.0129588299999999,0.047825235,0.0192433425,-1.0040520000000002,-0.034599135,56710.0,30276.0,28500.0,-5.0,26.0,19.0,0,None
2023-01-01 16:08:22.550,400.888,0.108000000000004,56.0,1035.0,21908.0,4737.0,98.0,1098.2,270.2,4896.0,100.9787,3.8305332,0.0721303833333333,0.0384454066666666,-0.8835961,56.6,0.0834818333333333,0.0418942266666666,-1.0052163333333335,0.76482378,1.1777882,6.446046600000001,84.5,-32.1,131.4,-51.5,-16.7,243.0,-1081.0,15.2,309.0,1017.3542,-3.6189764,3241.6,0.0834818333333333,-0.0710741166666666,0.0418942266666666,-0.05674989,-1.0052163333333335,-0.00820008,56640.0,30248.0,28430.0,-1.0,20.0,15.0,0,None
2023-01-01 16:08:23.100,401.45666666666665,0.1000000000000037,56.0,954.0,22050.0,4890.0,98.0,973.3333333333334,271.6666666666667,4888.333333333333,100.85814999999998,3.8540101666666655,0.07767683,0.0329926833333333,-0.8901100999999999,56.53333333333333,0.0895942,0.0369334833333333,-1.0111083333333335,0.7482619666666667,0.9854678833333336,6.6886608333333335,59.5,-1.6666666666666667,129.5,-71.0,54.0,241.83333333333331,-1058.0,-23.33333333333333,321.6666666666667,1017.3815,-3.5916796666666664,3242.1666666666665,0.0895942,0.0572209183333333,0.0369334833333333,-0.036237131,-1.0111083333333335,-0.0250727886666666,56540.0,30217.5,28330.0,-3.0,12.5,21.0,0,None
2023-01-01 16:08:23.650,402.04,0.111999999999989,56.0,938.0,22028.0,4875.0,98.0,1055.0,273.4,4891.0,100.74516,3.8767022,0.0875585349999999,0.02075467,-0.8952091,56.485,0.098859595,0.025185985,-1.015584,0.72328418,1.1141516,6.768121599999999,64.0,9.4,123.4,-67.4,34.0,233.4,-1016.6,7.6,325.6,1017.3124,-3.6608438,3243.0,0.098859595,0.0292136675,0.025185985,0.049309935,-1.015584,0.0270245128,56480.0,30203.0,28270.0,-24.0,3.0,28.0,0,None
2023-01-01 16:08:24.200,402.572,0.1040000000000077,56.0,814.0,22068.0,4880.0,98.0,908.8,274.8,4894.8,100.65734,3.8984582,0.0920854533333333,0.0605505,-0.8812508333333334,56.51666666666667,0.1029028066666666,0.06515284,-1.001877,0.77616744,1.216727,8.033641,74.1,92.5,121.5,-87.6,-19.8,238.0,-1048.9,18.8,322.6,1017.2577,-3.715414,3243.2,0.1029028066666666,-0.0488698433333333,0.06515284,0.15374167,-1.001877,-0.0020578697,56540.0,30269.0,28330.0,-40.0,-2.0,19.0,0,None
2023-01-01 16:08:24.750,403.128,0.1079999999999926,56.0,1117.0,22034.0,4890.0,98.0,1078.0,276.4,4893.0,100.55546,3.9247606,0.088305265,0.101603425,-0.8892364,56.535,0.10057085,0.10476539,-1.010128,0.7999885600000001,0.9048401,6.432278800000001,94.2,48.6,123.6,-119.4,32.0,254.0,-1033.4,-50.6,293.8,1017.2096,-3.763578,3244.0,0.10057085,0.021955125,0.10476539,0.08415979,-1.010128,-0.0557768649999999,56550.0,30167.0,28340.0,-40.0,-14.0,2.0,0,None
2023-01-01 16:08:25.300,403.66,0.1120000000000004,56.0,671.0,21991.0,4756.0,98.0,906.6,277.8,4892.0,100.45394,3.9469242,0.1011595499999999,0.1340711,-0.9053661333333332,56.56666666666666,0.1132376966666666,0.1371166333333333,-1.025243,0.8387823600000001,1.07774302,9.8230944,93.4,125.0,115.0,-83.0,24.0,270.4,-1078.4,-9.0,308.2,1017.1914,-3.7818436000000006,3244.2,0.1132376966666666,0.0574900566666666,0.1371166333333333,0.05920735,-1.025243,-0.0242462366666666,56580.0,30140.0,28370.0,-19.0,-12.0,8.0,0,None
