00000_Time_epoch,00000_Time_boot_sec,00000_Span_Time_boot_sec,1_battery_remaining_avg,1_current_battery_avg,1_voltage_battery_avg,125_Vcc_avg,147_battery_remaining_avg,147_current_battery_avg,147_current_consumed_avg,165_Vcc_avg,168_direction_avg,168_speed_avg,178_pitch_avg,178_roll_avg,178_yaw_avg,182_altitude_avg,182_pitch_avg,182_roll_avg,182_yaw_avg,241_vibration_x_avg,241_vibration_y_avg,241_vibration_z_avg,27_xacc_avg,27_xgyro_avg,27_xmag_avg,27_yacc_avg,27_ygyro_avg,27_ymag_avg,27_zacc_avg,27_zgyro_avg,27_zmag_avg,29_press_abs_avg,29_press_diff_avg,29_temperature_avg,30_pitch_avg,30_pitchspeed_avg,30_roll_avg,30_rollspeed_avg,30_yaw_avg,30_yawspeed_avg,33_alt_avg,33_hdg_avg,33_relative_alt_avg,33_vx_avg,33_vy_avg,33_vz_avg,label,diagnosis
2023-01-01 07:57:35.000,601.495,0.103333333333334,73.0,93.5,22828.0,4889.0,99.0,91.16666666666669,149.0,4887.666666666667,-125.95853333333332,0.1197153666666666,-0.006707094,-0.004438129,-1.2679663333333335,28.363333333333333,-0.0012411803333333,0.0012714713333333,-1.3022993333333333,0.0254130066666666,0.0255748266666666,0.0377215833333333,-17.833333333333332,3.5,71.0,-9.0,4.666666666666667,251.0,-1042.5,-1.3333333333333333,327.6666666666667,1022.2638333333332,-0.109609375,4190.0,-0.0012411803333333,0.0048838,0.0012714713333333,0.0039273093333333,-1.3022993333333333,-0.0018937963333333,28370.0,28539.0,-60.0,4.0,15.0,-19.0,0,None
2023-01-01 07:57:35.550,602.049,0.1039999999999963,73.0,95.0,22813.0,4882.0,99.0,93.8,149.0,4895.6,-126.04941999999998,0.11586006,-0.007095816,-0.0050995526666666,-1.266565,28.32333333333333,-0.001162974,0.0012688206666666,-1.3018686666666668,0.02646529,0.0242269679999999,0.035493636,-17.3,4.0,71.5,-9.5,4.3,250.4,-1042.1,-1.1,328.4,1022.26,-0.11376562,4190.0,-0.001162974,0.0048432636666666,0.0012688206666666,0.004283865,-1.3018686666666668,-0.0020414206666666,28340.0,28541.0,-90.0,4.0,16.0,-19.0,0,None
2023-01-01 07:57:36.100,602.5809999999999,0.0999999999999999,73.0,319.0,22730.0,4874.0,99.0,163.8,149.0,4888.6,-124.41026,0.1207450599999999,-0.006957891,-0.0048840513333333,-1.2654206666666663,28.31,-0.00126255,0.0010613538333333,-1.301445,0.07677573,0.154977728,0.999527836,-26.0,2.8,65.4,-4.4,1.4,244.2,-1053.4,6.0,329.0,1022.2748,-0.098718738,4190.8,-0.00126255,0.0026763553333333,0.0010613538333333,0.0035698096666666,-1.301445,0.0083789943333333,28320.0,28543.0,-110.0,4.0,16.0,-19.0,0,None
2023-01-01 07:57:36.650,603.0809999999999,0.1079999999999926,73.0,129.0,22815.0,4880.0,99.0,142.6,149.0,4891.4,-122.53238,0.1313664,-0.006978456,-0.00474666,-1.265742,28.3,-0.0012953215,0.001268746,-1.30118,0.1115760419999999,0.1841235199999999,0.99403372,-19.8,7.0,61.6,-18.6,1.4,252.0,-1046.0,-10.6,325.2,1022.2712,-0.1024531059999999,4191.0,-0.0012953215,0.002842894,0.001268746,0.007365847,-1.30118,-0.01097821,28310.0,28546.0,-120.0,4.0,15.0,-18.0,0,None
2023-01-01 07:57:37.200,603.656,0.1001666666666664,73.0,1488.0,22492.0,4896.0,99.0,1238.0,150.0,4900.0,-120.80593333333336,0.1489631666666666,-0.008618333,-0.0004985396666666,-1.2646636666666666,28.286666666666665,-0.0031485726666666,0.005907,-1.299304,0.7516151833333334,0.372551,2.4866018333333333,25.83333333333333,37.66666666666666,47.833333333333336,-17.166666666666668,12.5,237.83333333333331,-1123.6666666666667,10.333333333333334,295.1666666666667,1022.4173333333334,0.0437760333333333,4191.333333333333,-0.0031485726666666,0.0202502576666666,0.005907,0.06531551,-1.299304,-0.0029711783333333,28305.0,28569.5,-125.0,6.5,11.5,0.0,0,None
2023-01-01 07:57:37.750,604.2180000000001,0.104000000000019,72.0,1843.0,22337.0,4883.0,99.0,1630.0,152.8,4896.6,-121.93214,0.17016144,-0.0015208913333333,0.011924037,-1.253749,28.53,0.0038655206666666,0.017279238,-1.2854249999999998,0.4674392799999999,0.6193029400000001,5.1783954,13.2,-16.4,44.8,-14.4,-16.8,244.4,-1228.0,16.0,281.6,1022.463,0.089343726,4192.0,0.0038655206666666,-0.0386280256666666,0.017279238,-0.0305193733333333,-1.2854249999999998,0.0179945199333333,28740.0,28650.0,310.0,28.0,0.0,108.0,0,None
2023-01-01 07:57:38.300,604.7793333333334,0.103333333333334,72.0,1572.0,22391.0,4890.0,99.0,1847.1666666666667,155.5,4892.333333333333,-126.09338333333334,0.18252945,0.0034673076666666,-0.0275485233333333,-1.2579840000000002,29.543333333333333,0.0092277816666666,-0.0203423786666666,-1.2870443333333332,0.39293825,1.09512235,4.717299833333334,32.0,-50.16666666666666,47.66666666666666,5.833333333333333,95.33333333333331,242.16666666666663,-1217.1666666666667,-10.666666666666666,293.1666666666667,1022.1453333333334,-0.2282942333333333,4192.333333333333,0.0092277816666666,0.12038448,-0.0203423786666666,-0.03444641,-1.2870443333333332,0.0008138269999999,29770.0,28626.0,1340.0,33.0,-28.0,208.0,0,None
2023-01-01 07:57:38.850,605.3699999999999,0.1039999999999963,71.0,1832.0,22315.0,4871.0,99.0,1767.4,158.2,4891.4,-134.76956,0.1843450599999999,0.0690435033333333,-0.0440174666666666,-1.2626373333333334,31.316666666666663,0.0727458066666666,-0.0384374266666666,-1.2993606666666668,0.39281356,1.10299156,6.6992408,43.4,-39.7,19.7,5.1,81.4,226.3,-1148.5,8.1,295.3,1021.9372,-0.43653124,4193.0,0.0727458066666666,0.1374344673333333,-0.0384374266666666,-0.1178476666666666,-1.2993606666666668,0.0289954166666666,31290.0,28611.0,2860.0,28.0,-34.0,264.0,0,None
2023-01-01 07:57:39.400,605.878,0.1039999999999963,71.0,1410.0,22407.0,4895.0,99.0,1755.8,160.8,4886.8,-147.89468,0.19103094,0.09175985,-0.060569455,-1.2447865,33.015,0.096208805,-0.05313682,-1.2992365,0.37674028,1.13235648,7.460649399999999,13.8,-4.4,22.0,-8.4,84.8,216.4,-1076.0,46.6,294.4,1021.7842,-0.58924998,4193.6,0.096208805,0.1463616999999999,-0.05313682,0.059867645,-1.2992365,0.052348405,33010.0,28570.0,4580.0,7.0,-21.0,302.0,0,None
2023-01-01 07:57:39.950,606.4190000000001,0.1081999999999879,71.0,1635.0,22389.0,4877.0,98.0,1571.6,163.2,4890.8,-165.29692,0.2149199799999999,0.1169579666666666,-0.02841894,-1.2537116666666666,34.74666666666667,0.1196864666666666,-0.0196821303333333,-1.306922666666667,0.4157859999999999,0.63461234,3.4993178,-6.8,137.2,11.2,-18.8,-42.6,233.8,-977.8,-54.0,310.0,1021.6106,-0.76312498,4194.0,0.1196864666666666,-0.0074040819999999,-0.0196821303333333,0.1583289533333333,-1.306922666666667,-0.0643117633333333,34740.0,28521.0,6310.0,-35.0,20.0,301.0,0,None
2023-01-01 07:57:40.500,606.9592,0.112200000000007,70.0,1363.0,22395.5,4887.0,98.0,1122.2,165.4,4891.0,-33.93715999999999,0.2361329399999999,-0.0347175959999999,0.08724814,-1.210113,36.265,-0.0318119949999999,0.09530858,-1.263665,0.4968419199999999,1.0834126999999998,3.8342246,17.5,228.9,55.4,-18.1,-377.5,260.0,-897.6,318.2,287.5,1021.4463,-0.92735152,4194.2,-0.0318119949999999,-0.4155556,0.09530858,0.2205052599999999,-1.263665,0.34934295,36250.0,28711.0,7820.0,-30.0,46.0,241.0,0,None
2023-01-01 07:57:41.050,607.5236666666666,0.0965000000000107,70.0,1335.0,22436.0,4895.0,98.0,1299.1666666666667,167.0,4888.333333333333,169.70436666666663,0.2696732,-0.1865205333333333,0.0914295766666666,-1.0048117666666667,37.236666666666665,-0.1807621999999999,0.0996568966666666,-1.0582931666666666,0.40756385,0.9292256166666668,6.086746000000001,8.166666666666666,38.16666666666666,177.5,-25.0,-81.0,244.33333333333331,-988.8333333333334,432.0,241.33333333333331,1021.2968333333332,-1.076940166666667,4195.166666666667,-0.1807621999999999,-0.07128344,0.0996568966666666,0.0983176766666666,-1.0582931666666666,0.4528966,37250.0,29946.0,8820.0,26.0,5.0,156.0,0,None
2023-01-01 07:57:41.600,608.0791999999999,0.1039999999999962,70.0,1302.0,22431.0,4880.0,98.0,1287.4,169.0,4888.8,159.49374,0.30690898,-0.2050534333333333,0.0598211766666666,-0.7764158333333334,38.083333333333336,-0.1986671333333333,0.06845177,-0.830259,0.37730362,0.71226998,5.6958932,-2.2,6.6,233.8,-48.4,210.6,208.6,-1060.6,280.2,242.0,1021.2104000000002,-1.1634374,4195.8,-0.1986671333333333,0.2234763333333333,0.06845177,0.002765726,-0.830259,0.3082511666666667,37960.0,31065.0,9530.0,113.0,-70.0,119.0,0,None
2023-01-01 07:57:42.150,608.6038,0.1041999999999915,69.0,1333.0,22380.0,4895.0,98.0,1396.2,171.2,4895.6,152.83642,0.34327252,-0.0570091233333333,0.02697268,-0.5785569333333334,38.806666666666665,-0.0563821366666666,0.0344268633333333,-0.6319251666666666,0.38371086,1.09095364,8.0089184,-12.0,-18.0,227.0,-30.6,251.6,173.8,-1027.4,336.4,256.0,1021.107,-1.2666094,4196.0,-0.0563821366666666,0.2253489733333333,0.0344268633333333,0.0061136166666666,-0.6319251666666666,0.3245687666666666,38560.0,31962.0,10130.0,187.0,-128.0,107.0,0,None
2023-01-01 07:57:42.700,609.1641666666667,0.1000000000000037,69.0,1348.0,22405.0,4877.0,98.0,1231.5,173.33333333333334,4894.0,147.31536666666668,0.3686885333333333,0.0014048706666666,0.0328620366666666,-0.4154223333333333,39.53666666666667,-0.004274258,0.04184415,-0.4708370333333334,0.4981874166666666,1.1004564,8.037647999999999,-54.333333333333336,38.66666666666666,241.0,-71.66666666666667,-1.0,128.16666666666666,-1011.8333333333334,82.0,292.8333333333333,1021.0276666666664,-1.3460678333333334,4196.333333333333,-0.004274258,-0.07988997,0.04184415,0.0803372333333333,-0.4708370333333334,-0.0395249433333333,39475.0,33096.5,11045.0,190.0,-140.0,94.0,0,None
2023-01-01 07:57:43.250,609.727,0.103800000000001,69.0,1350.0,22355.0,4890.0,98.0,1296.4,175.4,4895.0,141.64643999999998,0.38341188,-0.04348625,0.05471866,-0.63785895,40.095,-0.047183675,0.065156725,-0.6975447,0.4644578600000001,1.3789826,7.557854599999999,-33.0,38.8,229.4,-75.2,-99.6,156.6,-986.8,-650.0,274.4,1020.9228,-1.4507496,4197.4,-0.047183675,-0.153325595,0.065156725,0.02572282,-0.6975447,-0.66849855,40300.0,31240.0,11870.0,179.0,-134.0,77.0,0,None
2023-01-01 07:57:43.800,610.2803333333333,0.103333333333334,69.0,1110.0,22403.0,4882.0,98.0,1152.1666666666667,177.16666666666666,4897.833333333333,134.9988,0.3973685333333334,-0.0353581566666666,0.0794885333333333,-0.9510416666666668,40.6,-0.0331629133333333,0.0868910266666666,-1.0142269666666666,0.4031253999999999,1.4587331666666667,9.617597833333331,-32.333333333333336,30.0,165.83333333333334,-63.5,-29.83333333333333,240.16666666666663,-1044.0,-591.0,299.3333333333333,1020.9028333333332,-1.470807,4198.0,-0.0331629133333333,-0.0230584466666666,0.0868910266666666,-0.0040093396666666,-1.0142269666666666,-0.5565877,40780.0,29518.0,12350.0,192.0,-127.0,62.0,0,None
2023-01-01 07:57:44.350,610.847,0.0999999999999999,68.0,1511.0,22300.0,4880.0,98.0,1382.6,179.0,4897.6,127.83545999999998,0.41500246,-0.0469435533333333,0.10443024,-1.1311303333333331,41.09333333333333,-0.0402451166666666,0.1118432666666666,-1.194578666666667,0.4993693,1.2718178,9.363069200000002,4.6,2.8,99.4,-63.6,-22.4,272.8,-1089.0,-61.8,277.0,1020.8386,-1.5350937999999998,4198.2,-0.0402451166666666,-0.0555813733333333,0.1118432666666666,0.027362998,-1.194578666666667,-0.0851324166666666,41170.0,29140.0,12740.0,225.0,-130.0,57.0,0,None
2023-01-01 07:57:44.900,611.351,0.1039999999999963,68.0,1202.0,22430.0,4880.0,98.0,1283.0,180.8,4895.6,121.49902,0.43352626,-0.04900817,0.10437885,-1.2553105,41.505,-0.040225465,0.1120949,-1.318144,0.5433021,0.9437526,8.173335400000001,-1.7,-13.2,79.6,-64.5,-4.2,277.1,-1056.7,-303.6,282.7,1020.811,-1.5624920000000002,4198.8,-0.040225465,0.036641195,0.1120949,-0.01111306015,-1.318144,-0.3349938,41590.0,28247.0,13160.0,256.0,-144.0,62.0,0,None
2023-01-01 07:57:45.450,611.9236666666667,0.103333333333334,68.0,1376.0,22331.5,4888.0,98.0,1291.8333333333333,182.83333333333331,4891.5,114.2888,0.4622253,0.0061716659999999,0.0461840359999999,-1.306544,41.903333333333336,0.0174704366666666,0.05258677,-1.367169,0.4834593,1.1319055,6.961207833333333,3.1666666666666665,-206.66666666666663,38.66666666666666,-73.33333333333333,166.0,257.3333333333333,-1031.0,14.666666666666666,285.6666666666667,1020.758,-1.6156118333333334,4199.5,0.0174704366666666,0.1726600233333333,0.05258677,-0.1964452333333333,-1.367169,-0.0032826633333333,41980.0,28145.0,13550.0,266.0,-149.0,66.0,0,None
2023-01-01 07:57:46.000,612.475,0.0999999999999999,68.0,1222.0,22428.0,4896.0,98.0,1180.6,184.6,4894.4,107.77078000000002,0.49516386,0.1082177033333333,-0.0567163066666666,-1.271850666666667,42.31333333333334,0.1174049166666666,-0.04725054,-1.3310266666666666,0.49890328,0.99061336,8.1327994,-6.2,-45.4,16.0,-61.6,64.8,221.6,-995.4,79.4,328.4,1020.7386,-1.6348906,4200.0,0.1174049166666666,0.1184264733333333,-0.04725054,-0.0871586833333333,-1.3310266666666666,0.0912587633333333,42320.0,28384.0,13890.0,225.0,-123.0,42.0,0,None
2023-01-01 07:57:46.550,613.0369999999999,0.1000000000000037,67.0,1112.0,22434.0,4880.0,98.0,1224.5,186.5,4890.833333333333,102.47243166666664,0.5303143333333333,0.1204776666666666,-0.0665914033333333,-1.234997,42.53333333333333,0.1296554,-0.0557645633333333,-1.2934846666666668,0.4947567166666666,1.1022825666666665,10.090773666666667,3.0,16.166666666666668,19.666666666666668,-59.833333333333336,-13.333333333333334,223.16666666666663,-1024.1666666666667,40.16666666666666,342.8333333333333,1020.6855,-1.68806,4200.666666666667,0.1296554,0.0129683003333333,-0.0557645633333333,0.0372435183333333,-1.2934846666666668,0.0392617266666666,42510.0,28562.0,14080.0,161.0,-80.0,17.0,0,None
2023-01-01 07:57:47.100,613.5998,0.1041999999999915,67.0,1115.0,22397.0,4896.0,98.0,1145.0,188.4,4898.2,97.297114,0.5765254,0.1125588,-0.0595272199999999,-1.2297036666666663,42.67000000000001,0.1233494,-0.04864182,-1.2857646666666664,0.4964372000000001,1.04121376,8.881757799999999,16.8,12.0,26.8,-62.4,-19.4,240.4,-1078.8,0.0,353.4,1020.6616,-1.7119688,4201.0,0.1233494,-0.0230818499999999,-0.04864182,0.03447114,-1.2857646666666664,-0.0251723799999999,42630.0,28638.0,14200.0,98.0,-43.0,10.0,0,None
2023-01-01 07:57:47.650,614.1117999999999,0.0999999999999999,67.0,1297.0,22388.0,4879.0,98.0,1186.2,190.4,4889.4,93.716656,0.62104354,0.1060237,-0.0226081349999999,-1.237012,42.755,0.11772985,-0.013580627,-1.291137,0.37243556,1.5048222,10.2244724,11.6,109.6,26.4,-52.8,-14.0,231.2,-1027.6,-28.6,322.4,1020.6942,-1.6795000000000002,4201.8,0.11772985,0.00355060695,-0.013580627,0.1518431499999999,-1.291137,0.0005398145,42730.0,28610.0,14300.0,40.0,-18.0,-3.0,0,None
2023-01-01 07:57:48.200,614.6738333333334,0.1031666666666713,67.0,1196.0,22376.0,4895.0,98.0,1174.0,192.16666666666663,4893.833333333333,90.76194666666667,0.6755757666666667,0.0843694866666666,0.0299719893333333,-1.2435336666666668,42.78,0.0954213466666666,0.0385030866666666,-1.2955559999999997,0.4522573,1.0861536500000002,9.243347666666669,19.666666666666668,94.83333333333331,32.5,-46.333333333333336,-24.0,258.6666666666667,-1047.5,-28.5,314.1666666666667,1020.665,-1.7085806666666663,4202.0,0.0954213466666666,-0.0368992303333333,0.0385030866666666,0.0989600299999999,-1.2955559999999997,-0.0348500366666666,42785.0,28562.5,14355.0,-3.5,15.0,-8.5,0,None
2023-01-01 07:57:48.750,615.227,0.0999999999999999,67.0,1247.0,22421.0,4882.0,98.0,1196.4,194.0,4893.2,88.52979,0.7360011799999999,0.0677852633333333,0.0558383966666666,-1.2576066666666663,42.81333333333333,0.0788280133333333,0.0624957599999999,-1.3071653333333333,0.55006952,0.99782348,9.4456034,37.8,22.0,30.4,-71.2,-43.8,257.4,-1072.6,1.4,298.8,1020.6542000000002,-1.7196716000000003,4202.8,0.0788280133333333,-0.0393539866666666,0.0624957599999999,0.0219685566666666,-1.3071653333333333,-0.0292459499999999,42830.0,28499.0,14400.0,-9.0,32.0,-11.0,0,None
2023-01-01 07:57:49.300,615.747,0.1039999999999963,67.0,1158.0,22383.0,4896.0,98.0,1132.4,195.6,4889.4,86.84168200000002,0.79326618,0.0710357299999999,0.050939975,-1.264543,42.85,0.080882745,0.05744497,-1.31248,0.43138546,1.5158488,10.3261438,38.8,-29.4,35.6,-95.4,36.6,268.8,-1076.8,-18.8,292.4,1020.6284,-1.7453906,4203.2,0.080882745,0.00509303,0.05744497,-0.034920905,-1.31248,0.004686019,42870.0,28469.0,14440.0,-9.0,37.0,-10.0,0,None
2023-01-01 07:57:49.850,616.3203333333333,0.103333333333334,67.0,823.0,22510.0,4882.0,98.0,1012.5,197.16666666666663,4888.833333333333,84.96383333333334,0.8658501333333334,0.0552851699999999,0.0524517999999999,-1.2708123333333334,42.90333333333333,0.06421907,0.05880602,-1.317937,0.6811230666666667,1.1534820833333332,10.193421333333331,49.66666666666666,21.416666666666668,34.083333333333336,-83.83333333333333,-149.91666666666666,260.8333333333333,-1062.3333333333333,-26.83333333333333,307.0,1020.5891666666666,-1.7845378333333333,4203.916666666667,0.06421907,-0.1100525,0.05880602,0.0059638329733333,-1.317937,-0.0065087563333333,42920.0,28416.0,14490.0,-8.0,29.0,-18.0,0,None
2023-01-01 07:57:50.400,616.871,0.0999999999999999,67.0,932.0,22434.0,4887.0,98.0,958.8,198.6,4884.8,83.27192599999998,0.94459836,-0.0688900533333333,0.03924119,-1.2803396666666669,42.96,-0.0596304833333333,0.0459719966666666,-1.3262203333333331,0.6178984599999999,1.299279,8.688803000000002,55.2,-62.6,70.8,-52.2,-159.6,264.4,-1020.8,38.2,300.0,1020.6162,-1.7576249999999998,4204.0,-0.0596304833333333,-0.1746689066666666,0.0459719966666666,0.0181347753333333,-1.3262203333333331,0.0024316533333333,42970.0,28410.0,14540.0,7.0,-21.0,-20.0,0,None
2023-01-01 07:57:50.950,617.4238333333333,0.103333333333334,66.0,1109.5,22387.0,4881.0,98.0,1077.1666666666667,200.33333333333331,4887.0,81.87119,1.0256841333333335,-0.1014494599999999,0.0037540863333333,-1.2728743333333332,42.95666666666667,-0.09236117,0.011339078,-1.3180453333333333,0.5697132833333333,1.216165333333333,7.095137166666667,35.833333333333336,-50.333333333333336,87.83333333333333,-20.666666666666668,45.833333333333336,248.16666666666663,-1061.1666666666667,-2.6666666666666665,303.8333333333333,1020.6411666666668,-1.7326951666666666,4205.0,-0.09236117,0.07614121,0.011339078,-0.04182442,-1.3180453333333333,-0.008949585,42960.0,28457.0,14530.0,22.0,-101.0,-27.0,0,None
2023-01-01 07:57:51.500,617.971,0.0999999999999999,66.0,1163.0,22397.0,4882.0,98.0,1097.8,202.0,4888.6,80.747498,1.1087904,-0.070158695,-0.0102028115,-1.2764645,42.915,-0.063718555,-0.00325488085,-1.3215525,0.5012187,1.310309,6.3821284,10.8,6.4,76.4,-25.8,87.4,238.6,-1024.2,5.2,298.0,1020.6574,-1.7160466,4205.6,-0.063718555,0.08772683,-0.00325488085,0.0043010305,-1.3215525,-0.02833103,42920.0,28428.0,14490.0,25.0,-169.0,-23.0,0,None
2023-01-01 07:57:52.050,618.4844,0.1084000000000059,66.0,1117.0,22374.0,4890.0,98.0,1186.6,203.8,4890.0,80.036216,1.18667,-0.0351618333333333,-0.0088177669999999,-1.2764353333333334,42.876666666666665,-0.0309399633333333,-0.0006217613333333,-1.3212356666666667,0.43233182,1.0133469,10.4761268,22.0,22.0,70.0,-67.0,34.6,248.4,-1116.4,-1.0,305.6,1020.625,-1.7487186,4206.0,-0.0309399633333333,0.0547477566666666,-0.0006217613333333,0.00130621,-1.3212356666666667,0.0205083566666666,42870.0,28428.0,14440.0,20.0,-218.0,-19.0,0,None
2023-01-01 07:57:52.600,619.0454,0.1121999999999843,66.0,1388.0,22301.0,4880.0,98.0,1243.4,205.6,4888.0,79.54892399999999,1.2729500000000002,-0.0128510763333333,0.021392973,-1.2683083333333334,42.86666666666667,-0.0109514926666666,0.02901151,-1.3131476666666666,0.39626958,1.29016826,10.1014846,14.5,63.5,60.4,-18.2,33.5,249.2,-1011.6,7.7,323.2,1020.6459,-1.7278358,4206.1,-0.0109514926666666,-0.0113990266666666,0.02901151,0.0916719766666666,-1.3131476666666666,0.0137910833333333,42880.0,28466.0,14450.0,15.0,-251.0,-21.0,0,None
2023-01-01 07:57:53.150,619.6494999999999,0.1000000000000037,66.0,1316.0,22343.0,4896.0,98.0,1290.0,207.83333333333331,4896.666666666667,79.23829333333333,1.3520758333333334,-0.0196728733333333,0.0397414233333333,-1.251174,42.84333333333333,-0.01802522,0.0479163933333333,-1.2954156666666667,0.3957845333333333,1.0610997333333334,8.420853500000002,8.0,4.333333333333333,64.0,-31.0,5.833333333333333,257.8333333333333,-1072.8333333333333,61.16666666666666,307.3333333333333,1020.6666666666666,-1.7071353333333332,4207.0,-0.01802522,0.0238833713333333,0.0479163933333333,-0.015636453,-1.2954156666666667,0.04682828,42850.0,28520.0,14420.0,23.0,-268.0,-18.0,0,None
2023-01-01 07:57:53.700,620.2214,0.1077999999999974,66.0,1285.0,22348.0,4888.0,98.0,1304.6,209.8,4896.6,78.910864,1.4365165999999998,0.0305708865,0.01805099,-1.233234,42.835,0.0320936155,0.02718715,-1.276913,0.330225,1.16087964,7.989125400000001,0.6,-33.4,61.6,-35.6,182.0,236.6,-1036.4,15.6,284.2,1020.6924,-1.6811876,4207.8,0.0320936155,0.22236845,0.02718715,-0.03491056,-1.276913,-0.004607599,42840.0,28663.0,14410.0,41.0,-281.0,-12.0,0,None
2023-01-01 07:57:54.250,620.7418,0.1039999999999963,66.0,1292.0,22341.0,4901.0,98.0,1320.0,211.6,4889.8,78.6463,1.4980677999999998,0.11710327,0.0215914133333333,-1.2468516666666665,42.81,0.1167095899999999,0.0312450366666666,-1.2896586666666667,0.4785899999999999,0.75254214,4.1792924,-7.6,37.8,25.4,-29.2,115.8,248.8,-1063.4,-49.0,308.8,1020.7044,-1.6694220000000002,4208.0,0.1167095899999999,0.0612769666666666,0.0312450366666666,0.032400109,-1.2896586666666667,-0.0361390433333333,42820.0,28656.0,14390.0,41.0,-266.0,-11.0,0,None
2023-01-01 07:57:54.800,621.2814000000001,0.1082000000000106,65.0,1227.0,22388.0,4900.0,98.0,1234.4,213.4,4896.8,78.403246,1.5603782000000002,0.06670882,0.08278983,-1.2627165,42.805,0.066475535,0.092469,-1.3057265,0.38845,1.1076980600000002,5.2244276,-9.5,211.2,29.9,-28.7,-133.6,262.1,-1023.7,-21.6,295.2,1020.7062,-1.6673905999999998,4208.5,0.066475535,-0.164953145,0.092469,0.2704683,-1.3057265,-0.021781725,42800.0,28551.0,14370.0,37.0,-204.0,-5.0,0,None
2023-01-01 07:57:55.350,621.8410000000001,0.1117999999999937,65.0,1274.0,22326.0,4887.0,98.0,1284.0,215.4,4895.4,78.21733200000001,1.6292302,0.02551559,0.1806594,-1.2605443333333333,42.79,0.0278743566666666,0.1885247666666666,-1.303732,0.38858014,1.0404207399999998,5.161801,1.4,98.8,45.0,-22.0,-52.8,293.0,-1080.4,32.0,264.6,1020.7162,-1.6575154,4209.0,0.0278743566666666,-0.0639552766666666,0.1885247666666666,0.10598868,-1.303732,0.0193772166666666,42800.0,28508.0,14370.0,77.0,-161.0,-6.0,0,None
2023-01-01 07:57:55.900,622.3896,0.112200000000007,65.0,1267.0,22319.0,4900.0,98.0,1352.6,217.6,4899.6,78.05285599999999,1.6919867999999998,0.013599089,0.0961099333333333,-1.2416859999999998,42.76333333333333,0.0160566033333333,0.1056763689999999,-1.2829853333333332,0.41515404,1.14198386,6.1714374,-5.0,-410.1,55.3,-31.8,10.6,285.8,-1063.8,56.3,259.6,1020.6861,-1.6875623999999998,4210.0,0.01584736,0.0475173866666666,0.1066637356666666,-0.4209418,-1.2832536666666667,0.06508182,42770.0,28642.5,14340.0,194.5,-115.5,-4.0,0,None
2023-01-01 07:57:56.450,622.9294,0.1079999999999926,65.0,1065.0,22374.0,4888.0,98.0,1158.6,219.4,4900.0,77.83218199999999,1.7467738000000002,0.029052385,-0.19066275,-1.218515,42.81,0.03091088,-0.1750065,-1.2553649999999998,0.43706736,1.6352964,14.6347288,-18.4,-444.2,69.2,-27.4,84.0,208.6,-1015.4,13.2,328.8,1020.649,-1.7244374,4210.0,0.03091088,0.0827291,-0.1750065,-0.4642838999999999,-1.2553649999999998,0.003375095,42830.0,28750.0,14400.0,126.0,-112.0,-9.0,0,None
2023-01-01 07:57:57.000,623.4934000000001,0.1077999999999974,65.0,1505.0,22264.0,4903.0,98.0,1385.4,221.4,4898.8,77.621366,1.7945846,-0.0059517666666666,-0.2182357333333333,-1.225509,42.84333333333333,-0.0015467633333333,-0.2001946333333333,-1.260368,0.52864082,1.4592236,12.4743384,-12.7,133.2,77.2,-34.5,-65.9,169.4,-1044.7,-92.3,361.6,1020.5954,-1.7784999,4211.0,-0.0015467633333333,-0.0990961333333333,-0.2001946333333333,0.0974621233333333,-1.260368,-0.073581915,42860.0,28693.0,14430.0,6.0,-154.0,-18.0,0,None
2023-01-01 07:57:57.550,624.01,0.1042000000000143,65.0,1203.0,22331.0,4887.0,98.0,1324.4,223.4,4899.8,77.55807999999999,1.8460414,0.04581113,-0.07020101,-1.3204384999999998,42.895,0.054264485,-0.057122396,-1.3559005000000002,0.5302899400000001,1.5476654,9.1610562,-16.6,519.0,49.4,-24.2,207.4,201.8,-1091.0,-285.0,331.8,1020.5848,-1.7887656,4211.0,0.054264485,0.16951821,-0.057122396,0.5775702,-1.3559005000000002,-0.28247835,42910.0,27911.0,14480.0,-48.0,-155.0,-21.0,0,None
2023-01-01 07:57:58.100,624.5665,0.1065000000000016,65.0,1496.0,22283.0,4894.0,98.0,1365.3333333333333,225.83333333333331,4897.333333333333,77.55095,1.8882303333333332,0.1353821666666666,0.12306304,-1.4099830000000002,42.93666666666667,0.1411053,0.1280627366666666,-1.4470406666666669,0.7033601833333334,1.253621,7.6900185,-5.333333333333333,34.666666666666664,-19.5,-18.666666666666668,95.83333333333331,280.0,-1068.5,-25.5,283.1666666666667,1020.643,-1.730755,4211.833333333333,0.1411053,0.1659235333333333,0.1280627366666666,0.1058919999999999,-1.4470406666666669,-0.0713864033333333,42950.0,27741.0,14520.0,2.0,-90.0,-20.0,0,None
2023-01-01 07:57:58.650,625.1536,0.1041999999999915,65.0,1005.0,22408.0,4888.0,98.0,1016.8,227.4,4886.6,77.491964,1.9257194,0.1398573333333333,0.02443636,-1.346788,42.96333333333334,0.1429983333333333,0.0284223266666666,-1.3821356666666669,0.64950952,1.05298142,9.602387,1.0,-203.0,-9.0,-33.9,-126.3,265.6,-1122.2,187.5,302.2,1020.7421,-1.6316719,4212.2,0.1429983333333333,-0.14368646,0.0284223266666666,-0.2127182,-1.3821356666666669,0.1811382333333333,42970.0,28193.0,14540.0,22.0,-15.0,-14.0,0,None
2023-01-01 07:57:59.200,625.6854000000001,0.103800000000001,65.0,870.0,22413.0,4893.0,98.0,986.8,228.8,4894.4,77.39681399999999,1.9606936,-0.00660856,0.0068898925,-1.2566805,42.900000000000006,-0.0024017,0.0148132645,-1.2915,0.64177182,1.25355834,7.260007,23.2,85.2,65.0,0.6,-72.0,253.0,-1097.0,92.6,315.6,1020.7748,-1.599078,4212.8,-0.0024017,-0.14345288,0.0148132645,0.0138263149999999,-1.2915,0.11761658,42880.0,28651.0,14450.0,14.0,0.0,-6.0,0,None
2023-01-01 07:57:59.750,626.2493333333333,0.1034999999999967,65.0,1005.0,22428.0,4888.0,98.0,1092.5,230.5,4891.666666666667,77.329855,1.9949253333333332,-0.0105466566666666,0.04458817,-1.226753,42.803333333333335,-0.0034827266666666,0.05175856,-1.2607453333333334,0.8057559166666667,1.2433941666666668,7.8951365,-2.0,8.166666666666666,75.0,-35.666666666666664,146.5,250.0,-1064.3333333333333,20.166666666666668,294.8333333333333,1020.7651666666668,-1.6082941666666664,4213.166666666667,-0.0034827266666666,0.1034196666666666,0.05175856,0.0600169383333333,-1.2607453333333334,0.0346561966666666,42790.0,28800.0,14360.0,32.0,-13.0,-4.0,0,None
2023-01-01 07:58:00.300,626.826,0.1079999999999926,65.0,1378.0,22282.0,4887.0,98.0,1267.4,232.4,4886.8,77.23378,2.0296929999999995,0.0614048066666666,0.05926759,-1.22668,42.72666666666667,0.0666359366666666,0.0636670266666666,-1.260101666666667,0.6843081,1.3721896,9.1041348,11.4,14.2,51.6,-29.4,-28.6,255.2,-1007.8,-55.6,304.8,1020.6878,-1.6857656,4214.0,0.0666359366666666,0.0301412633333333,0.0636670266666666,0.0725738666666666,-1.260101666666667,-0.0615005466666666,42730.0,28816.0,14300.0,51.0,3.0,-13.0,0,None
2023-01-01 07:58:00.850,627.3698,0.1078000000000201,64.0,949.0,22400.0,4891.0,98.0,1086.6,234.2,4888.8,77.18422,2.0508242,0.053230395,0.02190174,-1.269484,42.745,0.056887915,0.025620695,-1.3027575,0.67950254,1.2610022,9.187017399999998,11.3,-136.3,43.1,-5.6,138.0,255.7,-1091.8,-77.5,306.4,1020.6688,-1.7049374,4214.0,0.056887915,0.017594465,0.025620695,-0.1356528,-1.3027575,-0.074744975,42740.0,28562.0,14310.0,75.0,27.0,2.0,0,None
2023-01-01 07:58:01.400,627.9017999999999,0.1041999999999915,64.0,1389.0,22285.0,4896.0,98.0,1118.2,235.8,4890.8,77.17676399999999,2.0720772,0.1622892,-0.0446347666666666,-1.2959379999999998,42.79333333333333,0.1651623333333333,-0.0392648966666666,-1.3282006666666666,0.49669828,0.89053966,8.4392206,20.8,-55.0,3.0,4.6,59.4,227.4,-1094.4,24.6,326.2,1020.6758,-1.6976403999999998,4215.0,0.1651623333333333,0.1020984366666666,-0.0392648966666666,0.0080928466666666,-1.3282006666666666,0.0104127499999999,42800.0,28364.0,14370.0,62.0,70.0,-11.0,0,None
2023-01-01 07:58:01.950,628.4338,0.1117999999999937,64.0,1008.0,22380.0,4890.0,98.0,1013.0,237.6,4887.4,77.243322,2.0908176,0.0485890533333333,-0.08562262,-1.2495026666666669,42.836666666666666,0.0529723833333333,-0.0781041633333333,-1.280565,0.72641206,1.2162187599999998,13.439842,21.2,-35.4,25.4,-35.6,-361.6,219.0,-1004.8,31.6,346.0,1020.6904,-1.6831408,4215.0,0.0529723833333333,-0.3243686999999999,-0.0781041633333333,-0.0516858799999999,-1.280565,0.0299319163333333,42820.0,28624.0,14390.0,16.0,127.0,-4.0,0,None
2023-01-01 07:58:02.500,628.981,0.1039999999999963,64.0,1159.0,22371.0,4896.0,98.0,1088.8,239.0,4890.4,77.347974,2.1059856,-0.06826006,-0.040322035,-1.247188,42.845,-0.05913239,-0.0335249915,-1.278821,0.95019166,1.2564343999999998,9.8031928,-0.8,101.0,86.2,-29.2,-107.5,227.1,-1080.3,-38.3,311.4,1020.7153999999998,-1.6581093,4215.8,-0.05913239,0.01025245,-0.0335249915,0.17098235,-1.278821,-0.046485995,42860.0,28703.0,14430.0,-26.0,105.0,-10.0,0,None
2023-01-01 07:58:03.050,629.5395,0.1000000000000037,64.0,1148.0,22343.0,4871.0,98.0,1163.3333333333333,241.0,4892.0,77.47919666666667,2.1209713333333333,-0.034750142,-0.0106849421333333,-1.2728883333333334,42.81333333333333,-0.0258916166666666,-0.0069316393333333,-1.3037113333333332,0.7199398666666667,1.1891238333333334,6.759963166666666,-3.5,3.5,69.0,16.833333333333332,64.5,240.5,-1058.6666666666667,-39.833333333333336,299.5,1020.68,-1.6936846666666667,4216.0,-0.0258916166666666,0.0234979033333333,-0.0069316393333333,-0.0611498866666666,-1.3037113333333332,-0.039625936,42820.0,28566.0,14390.0,-31.0,54.0,-6.0,0,None
2023-01-01 07:58:03.600,630.1216000000001,0.1082000000000106,64.0,1273.0,22322.0,4896.0,98.0,1140.4,242.8,4898.0,77.60524,2.1329784,-0.05921679,-0.009884123,-1.2573873333333332,42.81,-0.05336013,-0.0064578886666666,-1.2875466666666668,0.6418594200000001,1.08980684,7.4064876,3.2,-16.4,74.6,-8.6,-109.0,244.6,-1006.8,85.8,309.8,1020.6446,-1.729,4216.6,-0.05336013,-0.0578779026666666,-0.0064578886666666,-0.0520890733333333,-1.2875466666666668,0.08435281,42790.0,28500.0,14360.0,-27.0,31.0,-9.0,0,None
2023-01-01 07:58:04.150,630.6333999999999,0.0997999999999819,64.0,1114.0,22359.0,4895.0,98.0,1236.8,244.4,4899.4,77.67363,2.1377055999999994,-0.0939888,-0.02800254,-1.223287,42.84,-0.0874677349999999,-0.024262875,-1.253169,0.7379303,1.23989775,9.07501675,8.6,-18.8,100.2,-17.6,-4.2,233.4,-1075.0,45.2,298.4,1020.6598,-1.7140155999999998,4217.0,-0.0874677349999999,0.0122574019,-0.024262875,-0.0025134849999999,-1.253169,0.042136045,42840.0,28767.0,14410.0,-13.0,-10.0,-17.0,0,None
2023-01-01 07:58:04.700,631.1893333333334,0.1000000000000037,64.0,1214.5,22301.0,4898.0,98.0,1209.5,246.5,4895.0,77.75351333333333,2.1424423333333333,-0.0612347333333333,-0.0330044366666666,-1.2035846666666667,42.85,-0.0552226533333333,-0.0294949566666666,-1.2329916666666667,0.5382191833333333,1.202292666666667,6.989397333333333,4.833333333333333,11.666666666666666,99.66666666666669,-19.0,111.33333333333331,243.66666666666663,-1009.1666666666666,39.333333333333336,313.0,1020.655,-1.7184633333333337,4217.5,-0.0552226533333333,0.0961269933333333,-0.0294949566666666,0.0115279766666666,-1.2329916666666667,0.016420395,42850.0,28930.5,14420.0,-3.5,-91.0,-15.5,0,None
2023-01-01 07:58:05.250,631.745,0.1039999999999963,64.0,1233.0,22317.0,4906.0,98.0,1237.8,248.4,4898.4,77.891926,2.1475196,0.0090451233333333,0.00676721,-1.207643,42.85999999999999,0.01212325,0.01111289,-1.2370793333333336,0.504802,1.1993718000000002,5.22287,10.2,98.0,79.6,-10.6,108.2,235.6,-1043.0,-27.6,310.2,1020.6648,-1.7088438,4218.0,0.01212325,0.1117900933333333,0.01111289,0.07945655,-1.2370793333333336,-0.0359352633333333,42860.0,28887.0,14430.0,1.0,-124.0,-14.0,0,None
2023-01-01 07:58:05.800,632.2958333333332,0.1001666666666664,64.0,1325.0,22249.0,4895.0,98.0,1250.3333333333333,250.16666666666663,4895.5,78.06495333333332,2.151584333333333,0.1400763733333333,0.0330256633333333,-1.2235643333333333,42.85666666666666,0.1406767466666666,0.0372631833333333,-1.2532956666666666,0.4641624333333333,0.9663465,3.8281958333333335,9.5,25.0,43.16666666666666,-25.33333333333333,242.16666666666663,246.5,-1033.8333333333333,-42.16666666666666,298.8333333333333,1020.6761666666666,-1.697499833333333,4218.333333333333,0.1406767466666666,0.1524758,0.0372631833333333,0.00036824,-1.2532956666666666,-0.0201725066666666,42850.0,28800.0,14420.0,7.0,-79.0,-15.0,0,None
2023-01-01 07:58:06.350,632.8696000000001,0.104000000000019,64.0,1374.0,22280.0,4872.0,98.0,1396.8,252.2,4895.4,78.23777199999999,2.1546511999999995,0.12124175,0.038695435,-1.235483,42.84,0.12093907,0.04483025,-1.265005,0.42223082,1.2210890799999998,3.9312192,4.9,8.3,18.8,-13.1,-182.3,242.8,-1073.0,-24.2,312.5,1020.6608,-1.7129139000000002,4219.0,0.12093907,-0.1727864,0.04483025,0.022140913,-1.265005,-0.03613499,42840.0,28745.0,14410.0,5.0,-10.0,-15.0,0,None
2023-01-01 07:58:06.900,633.3936,0.1079999999999926,64.0,1274.0,22302.0,4893.0,98.0,1267.6,254.2,4899.2,78.421974,2.1594342,0.0199119033333333,0.0611686033333333,-1.217962,42.86333333333334,0.02249837,0.06861226,-1.2467473333333334,0.35883292,1.01572856,3.825373,8.6,107.6,48.0,-0.2,-132.4,256.0,-1071.0,165.6,292.4,1020.659,-1.7147186,4219.2,0.02249837,-0.1389675533333333,0.06861226,0.1214532699999999,-1.2467473333333334,0.1792807286666666,42870.0,28836.0,14440.0,22.0,16.0,-11.0,0,None
2023-01-01 07:58:07.450,633.9095999999998,0.0998000000000046,64.0,1307.0,22308.0,4909.0,98.0,1270.6,256.0,4902.2,78.59996799999999,2.166464,-0.0957772799999999,0.109103635,-1.0497455,42.92,-0.09123052,0.1161702,-1.0787395,0.34190058,1.1290895,4.944687,15.6,128.0,122.2,-33.2,-159.0,262.4,-1102.4,440.0,268.6,1020.6424,-1.7312656,4219.6,-0.09123052,-0.17078991,0.1161702,0.1272238,-1.0787395,0.4369585,42930.0,29960.0,14500.0,75.0,1.0,3.0,0,None
2023-01-01 07:58:08.000,634.4796666666667,0.1066666666666643,64.0,1509.0,22232.0,4890.0,98.0,1466.6666666666667,258.1666666666667,4894.666666666667,78.83761,2.173519,-0.1352626666666666,0.1146622666666666,-0.8453450666666665,43.11333333333334,-0.1312339,0.1213127666666666,-0.8743464666666667,0.3625219666666666,1.2465905166666669,4.60925,10.5,-41.5,194.66666666666663,-52.66666666666666,83.16666666666667,233.83333333333331,-1101.6666666666667,357.0,234.66666666666663,1020.6106666666668,-1.7628256666666668,4220.0,-0.1312339,0.07638412,0.1213127666666666,-0.0173350946666666,-0.8743464666666667,0.3477529666666667,43140.0,31126.0,14710.0,172.0,-32.0,35.0,0,None
2023-01-01 07:58:08.550,635.0778,0.1081999999999879,63.0,1389.0,22244.0,4903.0,98.0,1379.0,260.4,4896.6,79.085932,2.1795546,-0.0537795433333333,0.0436690966666666,-0.6451201666666667,43.60999999999999,-0.0540776066666666,0.0511895,-0.6725050333333332,0.48239498,1.106022,9.0102316,-4.7,-25.7,227.5,-67.1,158.7,180.7,-1103.8,296.3,280.9,1020.5508,-1.8227968,4220.9,-0.0540776066666666,0.1660863333333333,0.0511895,-0.05697386,-0.6725050333333332,0.2895281,43550.0,32047.0,15120.0,239.0,-63.0,73.0,0,None
2023-01-01 07:58:09.100,635.5975999999999,0.1039999999999962,63.0,1464.0,22215.0,4896.0,98.0,1437.4,262.6,4897.0,79.299,2.1852546,-0.0114489715,0.030492965,-0.4673903,44.19,-0.014652525,0.03836134,-0.49698595,0.40899232,1.2899578,9.173248,-19.0,18.0,239.8,-69.4,19.4,122.4,-1039.4,349.6,278.0,1020.4782,-1.8954684,4221.0,-0.014652525,0.0529643999999999,0.03836134,0.034950665,-0.49698595,0.3439003499999999,44110.0,33034.0,15680.0,251.0,-74.0,90.0,0,None
2023-01-01 07:58:09.650,636.1492000000001,0.1078000000000201,63.0,1281.0,22335.0,4903.0,98.0,1242.8,264.6,4897.6,79.499524,2.1915766,-0.0181898866666666,0.0339210666666666,-0.2828433333333333,44.870000000000005,-0.0227566233333333,0.0409498866666666,-0.3120034999999999,0.42494372,1.3403854,10.9902212,-29.2,4.4,261.0,-92.8,-3.8,102.4,-1052.2,312.4,310.8,1020.4114,-1.9621248,4221.2,-0.0227566233333333,-0.03821695,0.0409498866666666,-0.0136461613333333,-0.3120034999999999,0.3044402,44800.0,34146.0,16370.0,245.0,-78.0,104.0,0,None
2023-01-01 07:58:10.200,636.6894,0.1081999999999879,63.0,1268.5,22290.0,4897.0,98.0,1262.6,266.4,4891.8,79.66474,2.1983528,-0.04466318,0.039546775,-0.1875834499999999,45.545,-0.04853634,0.046665195,-0.2173503,0.44460376,1.4430768,14.449228,-34.5,53.7,281.1,-103.8,0.2,71.2,-952.6,78.5,288.0,1020.3268,-2.0468437,4222.0,-0.04853634,-0.04800161,0.046665195,-0.04602199,-0.2173503,0.0747790899999999,45470.0,34733.0,17040.0,245.0,-88.0,100.0,0,None
2023-01-01 07:58:10.750,637.1978,0.1039999999999962,63.0,1354.0,22240.0,4891.0,98.0,1305.2,268.2,4896.4,79.81587599999999,2.2069648,-0.0611859866666666,0.0695379066666666,-0.1561300666666666,46.17,-0.0645178,0.07513511,-0.1878063333333333,0.45496314,1.360172,14.566394000000004,-39.2,56.4,292.2,-108.4,-29.0,62.2,-1074.8,30.0,269.6,1020.2678,-2.1060626,4222.4,-0.0645178,-0.0292833966666666,0.07513511,0.0384785266666666,-0.1878063333333333,0.0265193566666666,46100.0,34909.0,17670.0,253.0,-93.0,89.0,0,None
2023-01-01 07:58:11.300,637.7293999999999,0.1077999999999974,63.0,1260.0,22261.0,4903.0,98.0,1331.4,270.4,4895.6,79.93989000000002,2.216993,-0.070082325,0.0757373349999999,-0.12969665,46.765,-0.07175153,0.08156021,-0.16389925,0.5404964,1.2175214,7.9138284,-24.4,-7.8,294.0,-60.4,0.4,65.0,-1084.2,22.0,279.8,1020.1948,-2.1786718,4222.6,-0.07175153,0.01391469,0.08156021,-0.0052263549999999,-0.16389925,0.026070385,46690.0,35047.0,18260.0,276.0,-86.0,95.0,0,None
2023-01-01 07:58:11.850,638.3391666666666,0.1066666666666832,63.0,1244.0,22285.0,4895.0,98.0,1281.1666666666667,272.1666666666667,4887.166666666667,80.04165333333334,2.230486666666667,-0.0805424133333333,0.0662469866666666,-0.1276921333333333,47.39666666666667,-0.0823559333333333,0.07220452,-0.1612646,0.5153457166666667,1.4863038333333334,11.773760666666666,-24.666666666666668,0.9166666666666666,302.0833333333333,-89.66666666666667,32.25,61.0,-1074.6666666666667,4.333333333333333,272.0833333333333,1020.09925,-2.2745312500000003,4223.166666666667,-0.0823559333333333,0.0043130499999999,0.07220452,0.0007707066666666,-0.1612646,-0.0248137566666666,47310.0,35080.0,18880.0,299.0,-81.0,103.0,0,None
2023-01-01 07:58:12.400,638.9018000000001,0.1041999999999915,63.0,1244.0,22283.0,4900.0,98.0,1307.6,274.6,4894.0,80.128486,2.247353,-0.0433927833333333,0.0666356966666666,-0.1310851666666666,48.16333333333333,-0.0442646466666666,0.07349893,-0.1667822666666666,0.53296798,1.2845256,9.1721038,-47.0,-13.2,292.0,-90.8,73.2,67.6,-1088.6,-18.6,284.8,1020.0054,-2.3680626,4223.6,-0.0442646466666666,0.07276896,0.07349893,-0.01515908,-0.1667822666666666,-0.0337045773333333,47950.0,35060.0,19520.0,324.0,-79.0,100.0,0,None
2023-01-01 07:58:12.950,639.4218000000001,0.1039999999999963,63.0,1139.0,22294.0,4890.0,98.0,1155.6,276.4,4894.6,80.201158,2.264866,-0.01776555,0.05680672,-0.14710745,48.88,-0.018011945,0.06411756,-0.18475405,0.52874498,1.1771666,11.2629542,-47.4,-23.6,281.6,-78.6,-18.8,55.0,-968.8,-48.0,288.2,1019.9044,-2.4690312,4224.0,-0.018011945,-0.04049911,0.06411756,-0.0156115499999999,-0.18475405,-0.0681593799999999,48640.0,34987.0,20210.0,322.0,-70.0,115.0,0,None
2023-01-01 07:58:13.500,639.9923333333332,0.1031666666666713,63.0,1293.0,22229.0,4895.0,98.0,1307.8333333333333,278.1666666666667,4891.166666666667,80.270985,2.283332833333333,-0.04300477,0.0505556966666666,-0.1780536333333333,49.61666666666667,-0.0436606866666666,0.0597540133333333,-0.2174362,0.4772739833333332,1.2296365,11.404291833333332,-41.66666666666666,3.333333333333333,287.0,-84.5,-23.5,77.33333333333333,-1106.6666666666667,-38.66666666666666,284.8333333333333,1019.8555,-2.5180988333333336,4224.333333333333,-0.0436606866666666,-0.0317915933333333,0.0597540133333333,0.0267029033333333,-0.2174362,-0.0646624266666666,49740.0,34741.5,21310.0,312.0,-70.5,110.5,0,None
2023-01-01 07:58:14.050,640.5492,0.0999999999999999,63.0,1100.0,22304.0,4890.0,98.0,1096.4,280.2,4889.6,80.35391999999999,2.3027778000000003,-0.0309676366666666,0.0514719633333333,-0.1999900333333333,50.473333333333336,-0.0288561933333333,0.06059793,-0.2410949333333333,0.53743354,1.37106646,11.2780894,-60.2,20.2,283.6,-73.4,-2.8,68.0,-1130.8,-10.2,290.8,1019.7302,-2.6434998,4225.0,-0.0288561933333333,0.024948122,0.06059793,0.0395109833333333,-0.2410949333333333,-0.0190522976666666,50830.0,34606.0,22400.0,304.0,-71.0,109.0,0,None
2023-01-01 07:58:14.600,641.0892,0.1081999999999879,63.0,1243.0,22234.0,4906.0,98.0,1190.0,281.6,4894.0,80.42767,2.3220632,-0.0418423966666666,0.0542938433333333,-0.2042261666666666,51.36000000000001,-0.0397722133333333,0.06439022,-0.2491289333333333,0.5189487400000001,1.1345876,12.787614,-34.9,14.8,283.7,-76.5,-13.0,68.2,-1032.6,-20.1,273.4,1019.6959,-2.6775937,4225.2,-0.0397722133333333,-0.0249232033333333,0.06439022,-0.0152834566666666,-0.2491289333333333,-0.022597046,51550.0,34562.0,23120.0,304.0,-73.0,112.0,0,None
2023-01-01 07:58:15.150,641.6176,0.1039999999999963,63.0,1370.0,22220.0,4896.0,98.0,1367.8,284.0,4893.4,80.49770000000001,2.345094,-0.04791373,0.058521005,-0.2125324499999999,52.045,-0.045101185,0.0684944899999999,-0.25796765,0.47321256,1.1647359,10.7947232,-48.2,13.0,284.0,-93.6,-24.6,87.6,-1073.8,-34.0,287.6,1019.6226,-2.7510000000000003,4225.8,-0.045101185,-0.0118128661,0.0684944899999999,0.05506564,-0.25796765,-0.01427639,52230.0,34507.0,23800.0,307.0,-73.0,114.0,0,None
2023-01-01 07:58:15.700,642.1928333333334,0.1100000000000135,62.0,1354.5,22222.5,4896.5,98.0,1350.3333333333333,285.8333333333333,4900.666666666667,80.55257166666667,2.366501166666667,-0.0369692066666666,0.0609306099999999,-0.2261028,52.73333333333333,-0.0337341033333333,0.07095723,-0.2724591,0.4871973,1.3778671666666664,9.783334833333331,-37.75,-6.666666666666667,281.1666666666667,-52.5,68.08333333333333,93.0,-1073.5,-46.333333333333336,285.25,1019.511,-2.8627605,4226.0,-0.0337341033333333,0.0678028997666666,0.07095723,-0.0032369633333333,-0.2724591,-0.0284458156666666,52930.0,34413.0,24500.0,313.0,-70.0,118.0,0,None
2023-01-01 07:58:16.250,642.749,0.1147499999999865,62.0,1045.0,22327.0,4909.0,98.0,1204.25,287.75,4892.75,80.59836500000002,2.386699,-0.00077341535,0.056213305,-0.23449745,53.52,0.0024073965,0.066566,-0.2822406,0.517468675,0.985181675,8.7406185,-46.25,-55.5,269.75,-57.5,-27.0,93.25,-1035.75,-14.75,300.25,1019.43775,-2.93582,4226.75,0.0024073965,-0.03613183,0.066566,-0.0227047,-0.2822406,-0.018322026,53730.0,34365.0,25300.0,299.0,-54.0,129.0,0,None
2023-01-01 07:58:16.800,643.2925,0.103333333333334,62.0,1419.0,22187.0,4912.0,98.0,1216.3333333333333,289.6666666666667,4903.166666666667,80.67527333333332,2.410696666666667,-0.026532764,0.0257612233333333,-0.2504682333333333,54.29666666666666,-0.0233579423333333,0.03649843,-0.3007488,0.5268190666666668,1.0371062,11.180054333333333,-41.833333333333336,-57.5,277.8333333333333,-49.333333333333336,-78.66666666666667,80.33333333333333,-1048.5,-47.0,292.5,1019.3605,-3.013112166666667,4227.0,-0.0233579423333333,-0.0573903726333333,0.03649843,-0.0535289366666666,-0.3007488,-0.0676291033333333,54490.0,34239.0,26060.0,285.0,-52.0,117.0,0,None
2023-01-01 07:58:17.350,643.8692000000001,0.1080000000000154,62.0,1308.0,22238.0,4906.0,98.0,1198.2,291.6,4896.0,80.78304399999999,2.431262,-0.0532789066666666,0.0140615593333333,-0.2890955999999999,55.156666666666666,-0.0490751166666666,0.02525595,-0.3416628333333333,0.50356998,1.314797,11.5015882,-42.4,40.4,286.3,-50.9,10.4,97.6,-1012.7,-41.6,300.5,1019.2543,-3.1194219,4227.6,-0.0490592366666666,0.0156487866666666,0.02537145,0.0087039966666666,-0.3417788666666666,-0.0478909443333333,55200.0,34010.0,26770.0,285.0,-72.0,118.0,0,None
2023-01-01 07:58:17.900,644.4058,0.1041999999999915,62.0,1354.0,22239.0,4912.0,98.0,1283.8,293.4,4895.2,80.89598000000001,2.4482584000000003,-0.049456175,0.040745395,-0.2795809,55.885,-0.045230885,0.05247132,-0.33484145,0.4700024,1.3297404,11.1285726,-37.8,62.0,279.6,-64.4,13.0,98.8,-1030.0,68.8,283.2,1019.1578,-3.2157812,4227.6,-0.045230885,0.0011537149999999,0.05247132,0.072997425,-0.33484145,0.047220125,55960.0,34105.0,27530.0,292.0,-87.0,121.0,0,None
2023-01-01 07:58:18.450,644.91,0.0999999999999999,62.0,1312.0,22224.0,4903.0,98.0,1334.6,295.6,4904.2,80.993394,2.4622798,-0.045564205,0.053663965,-0.24785035,56.61000000000001,-0.0371534266666666,0.0653315,-0.2960125333333334,0.4770730399999999,1.3344028,9.776122,-30.0,-31.8,287.0,-45.8,62.8,83.8,-1011.4,77.8,280.2,1019.1102,-3.2633906,4228.0,-0.0371534266666666,0.0708791233333333,0.0653315,-0.01177693,-0.2960125333333334,0.1043156266666666,56670.0,34327.0,28240.0,303.0,-93.0,121.0,0,None
2023-01-01 07:58:19.000,645.4830000000001,0.1065000000000016,62.0,1054.0,22267.0,4890.0,98.0,1085.3333333333333,297.3333333333333,4894.833333333333,81.08826333333333,2.477133333333333,0.0030301443333333,-0.05125408,-0.3309542333333333,57.42333333333334,0.0066368883333333,-0.0408600226666666,-0.3876245999999999,0.4927472666666667,1.2952091666666667,13.171018333333334,-17.5,-182.0,266.8333333333333,-31.33333333333333,94.0,77.33333333333333,-871.6666666666666,-318.6666666666667,298.0,1019.0493333333334,-3.3242055,4228.5,0.0066368883333333,0.0968276699999999,-0.0408600226666666,-0.12528087,-0.3876245999999999,-0.3448925333333333,57350.0,33943.0,28920.0,296.0,-112.0,102.0,0,None
2023-01-01 07:58:19.550,646.0698,0.1041999999999915,62.0,1158.0,22312.0,4908.0,98.0,1119.2,299.0,4898.0,81.20303199999998,2.4914452,0.0060551235,-0.07581113,-0.52823845,57.86,0.0100203885,-0.0650616099999999,-0.5859723,0.51081132,1.04592556,13.5175698,-3.1,59.5,234.1,-52.4,21.9,120.4,-961.7,-390.5,327.4,1019.0186,-3.3551562,4228.9,0.0100203885,0.0125804705,-0.0650616099999999,0.038515245,-0.5859723,-0.38839365,57820.0,32798.0,29390.0,261.0,-163.0,63.0,0,None
2023-01-01 07:58:20.100,646.5980000000001,0.1079999999999926,62.0,1177.0,22230.0,4903.0,98.0,1165.2,300.8,4898.0,81.357826,2.5059404,0.0024706917666666,-0.0381231599999999,-0.7186892,58.080000000000005,0.0094443196666666,-0.0282711933333333,-0.7800842666666666,0.47445222,1.5675122,13.476868,-9.6,58.4,202.4,-45.8,25.6,154.0,-1003.2,-295.0,309.0,1018.9762,-3.3976091999999998,4229.0,0.0094443196666666,-0.0230425896666666,-0.0282711933333333,0.0759264033333333,-0.7800842666666666,-0.3390019333333333,58060.0,31640.0,29630.0,224.0,-208.0,30.0,0,None
2023-01-01 07:58:20.650,647.1251999999998,0.103800000000001,62.0,1074.0,22288.0,4891.0,98.0,1127.0,302.4,4898.0,81.529042,2.5195998,0.015373155,-0.0116490274999999,-0.8296657000000001,58.22,0.022658875,-0.0048799625,-0.89396995,0.53868784,1.3067442,13.276888000000003,7.2,62.2,167.6,-52.8,38.6,202.2,-1041.4,-54.6,311.6,1019.0018,-3.3719532,4229.8,0.022658875,0.097615495,-0.0048799625,0.08632371,-0.89396995,-0.091903905,58210.0,30889.0,29780.0,201.0,-232.0,24.0,0,None
2023-01-01 07:58:21.200,647.6823333333333,0.103333333333334,62.0,1236.0,22273.0,4903.0,98.0,1147.0,304.1666666666667,4897.166666666667,81.74659666666666,2.53412,0.03041386,0.0223485466666666,-0.8236346000000001,58.28666666666666,0.0376189766666666,0.0286129733333333,-0.8886364999999999,0.5029987333333333,1.2882010000000002,13.333666666666668,1.1666666666666667,61.333333333333336,163.0,-77.33333333333333,74.66666666666667,205.33333333333331,-1039.1666666666667,47.5,315.3333333333333,1018.9293333333331,-3.444427166666667,4229.833333333333,0.0376189766666666,0.0448051233333333,0.0286129733333333,0.083364308,-0.8886364999999999,0.03884815,58270.0,30897.0,29840.0,192.0,-243.0,15.0,0,None
2023-01-01 07:58:21.750,648.2774,0.1082000000000106,62.0,1185.0,22259.5,4876.0,98.0,1259.8,306.0,4892.6,81.97450799999999,2.549026,0.0772612066666666,0.0572018,-0.7767445333333334,58.376666666666665,0.0819720833333333,0.06436408,-0.8421819999999999,0.5051216399999999,1.5699834,12.454059,11.7,31.9,150.9,-42.0,2.3,215.0,-1051.7,76.4,307.7,1018.8904,-3.4831486,4230.0,0.0819720833333333,0.0569526673333333,0.06436408,0.0145861933333333,-0.8421819999999999,0.08143642,58360.0,31089.0,29930.0,183.0,-235.0,2.0,0,None
2023-01-01 07:58:22.300,648.8176,0.1079999999999926,62.0,1118.0,22284.0,4896.0,98.0,1083.2,308.0,4894.0,82.21440400000002,2.5665902,0.0457605933333333,0.0560178233333333,-0.7362178666666667,58.48666666666667,0.0501910833333333,0.0626097266666666,-0.8026190999999999,0.5167594,1.3926072,14.884792,5.8,-29.8,175.6,-74.2,-61.4,208.8,-995.2,30.4,308.0,1018.8708,-3.5028594,4230.8,0.0501910833333333,-0.054635898,0.0626097266666666,-0.0307459266666666,-0.8026190999999999,0.047865326,58480.0,31381.5,30050.0,173.0,-200.0,-0.5,0,None
2023-01-01 07:58:22.850,649.3335999999999,0.0999999999999999,62.0,1029.0,22332.0,4895.0,98.0,1048.2,309.4,4885.6,82.41056,2.5824258,0.021103105,0.039499035,-0.7386096,58.575,0.026357835,0.047519995,-0.80588315,0.56545048,1.3352838,12.333322,1.4,-20.4,181.0,-53.0,-9.6,202.4,-954.2,-35.6,312.4,1018.8762,-3.4975312,4231.0,0.026357835,0.0323167804999999,0.047519995,-0.0163102969999999,-0.80588315,-0.019926315,58600.0,31325.0,30170.0,178.0,-196.0,-7.0,0,None
2023-01-01 07:58:23.400,649.8895,0.103333333333334,62.0,859.0,22387.0,4893.0,98.0,920.1666666666666,311.0,4885.5,82.64736,2.602708,0.0385295933333333,0.0375950966666666,-0.7554682666666667,58.620000000000005,0.0433957666666666,0.0451069133333333,-0.8231430666666667,0.5847083833333333,1.2352960833333333,9.612201666666666,7.5,12.0,174.0,-65.83333333333333,86.16666666666667,206.0,-985.3333333333334,-34.833333333333336,307.0,1018.8843333333334,-3.489400999999999,4231.0,0.0433957666666666,0.06097518,0.0451069133333333,-0.0055300513333333,-0.8231430666666667,-0.009141709,58640.0,31273.0,30210.0,175.0,-197.0,-16.0,0,None
2023-01-01 07:58:23.950,650.4694000000001,0.1039999999999963,62.0,1178.0,22272.0,4871.0,98.0,1192.8,312.6,4892.4,82.887986,2.6242018000000003,0.0758724299999999,0.0366842633333333,-0.7583412333333334,58.6,0.0792755366666666,0.0453007133333333,-0.8268692,0.6279718400000001,1.18507786,14.419018,7.2,17.1,159.1,-78.4,-1.3,204.6,-1030.0,4.3,312.9,1018.9144,-3.4591094,4232.0,0.0792755366666666,-0.0294708,0.0453007133333333,-0.04116963,-0.8268692,-0.0176083456666666,58580.0,31250.0,30150.0,148.0,-182.0,-13.0,0,None
2023-01-01 07:58:24.500,650.9936,0.1080000000000154,62.0,1100.0,22313.0,4895.0,98.0,1102.4,314.4,4891.4,83.09367,2.6437462,0.01369127,0.0833526149999999,-0.74806705,58.57,0.01742198,0.092289165,-0.8181965,0.5815641,1.3942482,13.666536000000002,40.2,110.0,174.4,-113.8,-58.0,211.2,-984.6,52.8,298.2,1018.7536,-3.6199374,4232.0,0.01742198,-0.07412103,0.092289165,0.061843715,-0.8181965,0.03766909,58580.0,31356.0,30150.0,155.0,-197.0,-11.0,0,None
2023-01-01 07:58:25.050,651.5333999999999,0.1077999999999974,62.0,1198.0,22267.0,4895.0,98.0,1160.2,316.0,4896.2,83.36117800000001,2.6712624,0.0204772106666666,0.0988231533333333,-0.7194518666666666,58.656666666666666,0.0253034699999999,0.1066882233333333,-0.7915265666666667,0.5526456200000001,1.2736414,12.7596632,28.2,-43.8,181.8,-99.2,51.2,204.8,-1067.4,54.0,275.6,1018.7876,-3.5861248000000003,4232.2,0.0253034699999999,-0.0105333926666666,0.1066882233333333,-0.01670301,-0.7915265666666667,0.0446994166666666,58680.0,31512.0,30250.0,182.0,-202.0,-18.0,0,None
2023-01-01 07:58:25.600,652.0773999999999,0.1079999999999926,62.0,1324.0,22232.0,4895.0,98.0,1047.2,317.4,4896.2,83.58471999999999,2.6981042,0.043414065,0.075664125,-0.6850967,58.725,0.046086715,0.08368484,-0.7582468,0.54683704,1.42611,14.07805,19.8,-3.0,184.7,-85.8,13.3,196.8,-993.3,38.5,286.9,1018.8109,-3.5627889,4232.9,0.046086715,-0.0008755,0.08368484,-0.10203868,-0.7582468,0.030903363,58740.0,31665.0,30310.0,185.0,-203.0,-16.0,0,None
2023-01-01 07:58:26.150,652.6363333333333,0.1001666666666664,62.0,969.0,22344.0,4866.0,98.0,845.8333333333334,318.8333333333333,4897.166666666667,83.80913500000001,2.72852,0.0330914666666666,0.08108154,-0.6813843,58.75666666666666,0.0351515033333333,0.0889065066666666,-0.7558344666666666,0.6464125833333333,1.09560915,9.234455333333337,4.0,-3.5,189.5,-100.33333333333331,-22.33333333333333,198.5,-1030.3333333333333,-14.166666666666666,300.8333333333333,1018.8731666666666,-3.500637833333333,4233.166666666667,0.0351515033333333,0.05984253,0.0889065066666666,-0.0206639633333333,-0.7558344666666666,0.012278237,58760.0,31672.0,30330.0,191.0,-199.0,-28.0,0,None
2023-01-01 07:58:26.700,653.2099999999999,0.1039999999999963,62.0,1004.0,22334.0,4890.0,98.0,971.2,320.6,4903.4,84.076604,2.7681822,0.01985909,0.0660973766666666,-0.7005500666666666,58.69,0.02239397,0.07388979,-0.7762552,0.58575916,1.34152194,8.8029178,24.6,-28.4,192.4,-96.4,-3.6,205.4,-1019.6,-50.6,298.8,1018.8804,-3.4932186,4233.8,0.02239397,-0.0178500133333333,0.07388979,-0.0569578166666666,-0.7762552,-0.0667618966666666,58690.0,31552.0,30260.0,202.0,-195.0,-25.0,0,None
2023-01-01 07:58:27.250,653.7374000000001,0.103800000000001,62.0,946.0,22359.0,4908.0,98.0,1019.8,322.0,4905.8,84.26883600000001,2.7978794,0.04581249,0.0476572299999999,-0.73254025,58.625,0.048603995,0.055281725,-0.8087972999999999,0.51707616,1.4356778,15.304596400000005,30.6,-5.2,179.6,-54.8,50.6,202.8,-1049.6,-53.0,309.4,1018.8968,-3.4766876000000004,4234.0,0.048603995,-0.0073735499999999,0.055281725,0.0108192899999999,-0.8087972999999999,-0.07009427,58620.0,31369.0,30190.0,204.0,-198.0,-15.0,0,None
2023-01-01 07:58:27.800,654.2612,0.1120000000000117,62.0,962.0,22342.0,4899.5,98.0,1027.6,323.6,4896.0,84.476146,2.8304782,0.0360988466666666,0.04857813,-0.7705868666666666,58.583333333333336,0.0387967166666666,0.05674103,-0.8479491333333334,0.5845208,0.9644209,9.0967616,31.3,7.9,166.9,-63.7,1.3,209.1,-1056.6,-60.0,304.2,1018.8707,-3.5028829000000004,4234.0,0.03878498,-0.0044153216666666,0.0563815933333333,0.0176040816666666,-0.8474599333333334,-0.06860291,58580.0,31130.0,30150.0,198.0,-205.0,-16.0,0,None
2023-01-01 07:58:28.350,654.8054,0.1079999999999926,62.0,1063.0,22327.0,4895.0,97.2,1000.4,325.0,4905.0,84.706804,2.8661906000000004,0.04269278,0.05295665,-0.7966082,58.580000000000005,0.0466130566666666,0.0600638266666666,-0.8754632333333334,0.609293,0.8909973600000001,8.011971800000001,35.4,-3.2,161.4,-66.6,32.0,206.4,-994.0,-41.0,308.2,1018.869,-3.5046252000000004,4234.2,0.0466130566666666,0.0384277553333333,0.0600638266666666,0.0012351266666666,-0.8754632333333334,-0.032632621,58580.0,31003.0,30150.0,201.0,-207.0,-13.0,0,None
2023-01-01 07:58:28.900,655.3536000000001,0.1082000000000106,62.0,1121.0,22270.0,4912.0,97.0,1108.2,326.6,4901.2,84.927796,2.8997966,0.05663012,0.042837265,-0.8100999,58.585,0.060925325,0.050612215,-0.89019995,0.49332664,1.26439178,13.065783800000002,41.0,-8.9,150.5,-93.8,6.6,209.3,-1043.1,-7.6,300.5,1018.8359,-3.5376951999999995,4234.8,0.060925325,0.047723435,0.050612215,0.0275507625,-0.89019995,-0.02507707,58580.0,30903.0,30150.0,199.0,-211.0,-19.0,0,None
2023-01-01 07:58:29.450,655.9358333333333,0.1031666666666523,62.0,1170.0,22287.0,4895.0,97.0,1150.3333333333333,328.5,4894.666666666667,85.17325000000001,2.93678,0.05650922,0.0520450933333333,-0.8085405333333333,58.60333333333333,0.0608261733333333,0.05881064,-0.8893943333333333,0.5443063666666667,1.2422778166666666,14.552561666666668,36.16666666666666,34.0,147.0,-92.33333333333331,12.0,210.33333333333331,-1005.0,30.5,305.6666666666667,1018.8195,-3.554218666666666,4235.0,0.0608261733333333,0.0016975733333333,0.05881064,0.0410051033333333,-0.8893943333333333,0.0036918683333333,58600.0,30891.0,30170.0,188.0,-218.0,-16.0,0,None
2023-01-01 07:58:30.000,656.495,0.1202499999999986,62.0,1224.0,22281.0,4908.0,97.0,1190.5,330.5,4902.0,85.439745,2.9774450000000003,0.057954955,0.06409413,-0.79198905,58.635000000000005,0.0622340849999999,0.070992625,-0.8735787,0.537004875,1.25365475,14.0590025,30.875,8.5,152.125,-96.625,-34.625,218.625,-1065.0,46.125,303.25,1018.83775,-3.536025375,4235.375,0.0622340849999999,0.00360557,0.070992625,0.02954704,-0.8735787,0.02998469,58630.0,30968.0,30200.0,183.0,-219.0,-23.0,0,None
2023-01-01 07:58:30.550,657.0295,0.1000000000000037,62.0,1231.0,22251.0,4906.0,97.0,1199.1666666666667,332.1666666666667,4896.666666666667,85.65615666666667,3.012623333333333,0.05356654,0.06592537,-0.7680523333333333,58.65,0.0580430433333333,0.07369553,-0.8492778333333333,0.4635249833333333,1.5000216666666668,13.895786666666666,35.666666666666664,18.666666666666668,154.16666666666666,-73.5,-18.166666666666668,219.33333333333331,-1078.1666666666667,27.5,289.8333333333333,1018.8443333333332,-3.5295441666666663,4235.833333333333,0.0580430433333333,0.007214919,0.07369553,0.0491487813333333,-0.8492778333333333,0.0329596,58650.0,31121.0,30220.0,178.0,-217.0,-24.0,0,None
2023-01-01 07:58:31.100,657.5853999999999,0.103800000000001,62.0,1275.0,22249.0,4906.0,97.0,1275.0,334.2,4891.4,85.881322,3.0515550000000005,0.04134613,0.0774354433333333,-0.7452217333333332,58.63666666666666,0.0455783666666666,0.0847668566666666,-0.8270505666666667,0.5870982800000001,1.08172754,12.7692434,37.8,5.8,169.4,-96.8,0.0,209.2,-1058.0,29.4,278.2,1018.863,-3.5104534000000003,4236.0,0.0455783666666666,-0.0069370873333333,0.0847668566666666,-0.0080738099999999,-0.8270505666666667,0.031361961,58640.0,31225.0,30210.0,179.0,-216.0,-24.0,0,None
2023-01-01 07:58:31.650,658.139,0.1000000000000037,62.0,1292.0,22240.0,4908.0,97.0,1254.8333333333333,335.8333333333333,4897.0,86.10744666666666,3.092938,0.03196885,0.0783237566666666,-0.7299599,58.623333333333335,0.03695481,0.0856328933333333,-0.8127177,0.4683278166666667,1.2897576666666668,13.570022166666666,41.16666666666666,-6.166666666666667,170.5,-88.66666666666667,-1.1666666666666667,211.83333333333331,-1057.6666666666667,11.833333333333334,297.5,1018.8475,-3.5260544999999994,4236.0,0.03695481,-0.0044748766666666,0.0856328933333333,-0.0178205193333333,-0.8127177,0.0254799173333333,58625.0,31340.0,30195.0,191.0,-219.5,-16.5,0,None
2023-01-01 07:58:32.200,658.6892,0.0999999999999999,62.0,1104.0,22290.0,4883.0,97.0,1159.6,338.0,4896.4,86.325168,3.135189,0.0414069799999999,0.07249255,-0.7219720000000001,58.625,0.04647057,0.080069665,-0.80516135,0.39773502,1.6490028,16.907928000000002,38.2,2.6,170.6,-73.2,-2.0,194.4,-1047.6,21.0,289.8,1018.8608,-3.5129686,4236.4,0.04647057,0.022988315,0.080069665,0.0351481285,-0.80516135,-0.0132874249999999,58640.0,31408.0,30210.0,200.0,-224.0,-19.0,0,None
2023-01-01 07:58:32.750,659.2391666666666,0.1000000000000037,62.0,1035.0,22278.0,4896.0,97.0,1182.1666666666667,339.6666666666667,4893.166666666667,86.526395,3.176465166666667,0.0445249733333333,0.0739487166666666,-0.7164039666666667,58.63666666666666,0.0500189,0.0817325366666666,-0.8004421333333335,0.4636195833333334,1.6583666666666668,15.577235,41.5,28.0,172.16666666666666,-96.16666666666669,29.166666666666668,212.66666666666663,-1055.8333333333333,-9.5,303.0,1018.8776666666668,-3.4958985,4236.5,0.0500189,0.06701387,0.0817325366666666,-0.0085123833333333,-0.8004421333333335,0.0108352357666666,58630.0,31418.0,30200.0,200.0,-224.0,-15.0,0,None
2023-01-01 07:58:33.300,659.8178,0.1079999999999926,62.0,1229.0,22242.0,4895.5,97.0,1220.8,341.6,4894.2,86.761552,3.227097,0.0534576333333333,0.07963211,-0.7133076666666667,58.60999999999999,0.0583089333333333,0.0866401533333333,-0.7967380000000001,0.54849394,1.3369704,14.85215,27.0,28.6,160.8,-93.8,28.6,196.4,-1019.6,17.4,281.6,1018.8892,-3.4844686,4237.0,0.0583089333333333,0.0463963433333333,0.0866401533333333,0.0079580633333333,-0.7967380000000001,-0.006519077,58610.0,31440.0,30180.0,200.0,-219.0,-15.0,0,None
2023-01-01 07:58:33.850,660.3412000000001,0.1079999999999926,62.0,1099.0,22248.0,4893.0,97.0,1182.8,343.4,4881.8,86.92640000000002,3.2641618,0.04343306,0.05522441,-0.7183402000000001,58.57333333333333,0.0484909066666666,0.0626427533333333,-0.8029694666666667,0.49465928,1.3241884,13.610238,24.75,-89.25,172.5,-87.25,-58.75,200.5,-1089.5,-35.5,308.75,1018.9068,-3.4667656,4237.4,0.0484909066666666,-0.0351044933333333,0.0626427533333333,-0.070249837,-0.8029694666666667,-0.0478512683333333,58570.0,31432.0,30140.0,194.0,-212.0,-9.0,0,None
2023-01-01 07:58:34.400,660.8616,0.104000000000019,62.0,1153.0,22280.0,4895.0,97.0,1079.6,345.0,4893.6,87.098682,3.3044442,0.026727425,0.045226645,-0.7712858,58.575,0.0329270299999999,0.05355522,-0.8557659,0.60803732,1.31953964,12.73086,30.6,26.8,163.4,-86.0,32.9,205.6,-948.6,-140.0,295.5,1018.8878,-3.4859924,4237.5,0.0329270299999999,0.007623405,0.05355522,-0.0476956594999999,-0.8557659,-0.1615635,58570.0,31082.0,30140.0,189.0,-222.0,-10.0,0,None
