00000_Time_epoch,00000_Time_boot_sec,00000_Span_Time_boot_sec,1_battery_remaining_avg,1_current_battery_avg,1_voltage_battery_avg,125_Vcc_avg,147_battery_remaining_avg,147_current_battery_avg,147_current_consumed_avg,165_Vcc_avg,168_direction_avg,168_speed_avg,178_pitch_avg,178_roll_avg,178_yaw_avg,182_altitude_avg,182_pitch_avg,182_roll_avg,182_yaw_avg,241_vibration_x_avg,241_vibration_y_avg,241_vibration_z_avg,27_xacc_avg,27_xgyro_avg,27_xmag_avg,27_yacc_avg,27_ygyro_avg,27_ymag_avg,27_zacc_avg,27_zgyro_avg,27_zmag_avg,29_press_abs_avg,29_press_diff_avg,29_temperature_avg,30_pitch_avg,30_pitchspeed_avg,30_roll_avg,30_rollspeed_avg,30_yaw_avg,30_yawspeed_avg,33_alt_avg,33_hdg_avg,33_relative_alt_avg,33_vx_avg,33_vy_avg,33_vz_avg,label,diagnosis
2023-01-03 08:40:48.250,256.06800000000004,0.0999999999999942,100.0,58.0,24964.0,4885.0,99.0,55.0,38.0,4882.4,-176.05245999999997,0.31825762,0.0090234883333333,-0.0247202599999999,-1.1419893333333333,29.593333333333334,0.0181977966666666,-0.0254218266666666,-1.1802093333333332,0.025270078,0.0250513219999999,0.0382492239999999,-7.6,-0.4,91.0,8.6,6.4,237.4,-1062.4,-1.0,336.2,1020.8162,-0.2291093599999999,3195.8,0.0181977966666666,0.0069501816666666,-0.0254218266666666,-0.0003703429333333,-1.1802093333333332,-0.0015477063333333,29590.0,29238.0,100.0,-10.0,22.0,38.0,0,None
2023-01-03 08:40:48.800,256.618,0.1000000000000037,100.0,48.0,24996.0,4888.0,99.0,53.833333333333336,38.0,4882.833333333333,-176.19653333333335,0.28379205,0.0092114683333333,-0.0248786066666666,-1.1416263333333334,29.71,0.01825626,-0.0253438733333333,-1.1800816666666665,0.026400865,0.0237199733333333,0.0397596816666666,-7.333333333333333,0.0,90.5,8.666666666666666,6.333333333333333,238.16666666666663,-1063.0,-1.1666666666666667,336.3333333333333,1020.8093333333333,-0.2355598833333333,3197.5,0.01825626,0.0068872223333333,-0.0253438733333333,-0.0001946594999999,-1.1800816666666665,-0.001575915,29690.0,29239.0,200.0,-10.0,23.0,39.0,0,None
2023-01-03 08:40:49.350,257.188,0.108000000000004,100.0,53.0,24985.0,4886.5,99.0,52.4,38.0,4881.8,-176.22916,0.2995233199999999,0.0091778349999999,-0.024155255,-1.1413955,29.8,0.018343985,-0.025196685,-1.1800039999999998,0.02525326,0.027263684,0.04703601,-6.2,-0.2,90.1,9.1,6.8,238.7,-1063.3,-0.2,336.5,1020.8009,-0.24409374,3199.4,0.018343985,0.0070108485,-0.025196685,0.00018109985,-1.1800039999999998,-0.002000418,29780.0,29240.0,290.0,-9.0,23.0,40.0,0,None
2023-01-03 08:40:49.900,257.7448333333333,0.0999999999999942,100.0,99.0,24932.0,4888.0,99.0,148.33333333333334,38.0,4880.666666666667,-176.23978333333335,0.3364204499999999,0.0100121839999999,-0.0246491866666666,-1.141247,29.88,0.0185211133333333,-0.0250845799999999,-1.1798466666666665,0.17079859,0.249660932,1.817551142,-2.5,-7.833333333333333,91.33333333333331,15.666666666666666,18.666666666666668,240.5,-1054.3333333333333,5.833333333333333,324.1666666666667,1020.8273333333332,-0.2179947833333333,3201.1666666666665,0.0185211133333333,0.0093992136666666,-0.0250845799999999,-0.0022993768333333,-1.1798466666666665,-0.0092846257333333,29860.0,29233.0,370.0,-9.0,23.0,43.0,0,None
2023-01-03 08:40:50.450,258.31620000000004,0.1042000000000029,100.0,95.0,24939.0,4888.0,99.0,96.8,38.0,4877.0,-176.29054000000002,0.38267834,0.0092810816666666,-0.0242458,-1.1408333333333334,29.960000000000004,0.01862725,-0.0250729633333333,-1.1799349999999995,0.36364768,0.37837016,3.0498096,-6.8,1.6,92.4,7.0,2.0,242.4,-1043.6,-2.0,333.4,1020.8492,-0.19593748,3202.4,0.01862725,0.009336847,-0.0250729633333333,-0.0041122643333333,-1.1799349999999995,0.0048623493333333,29940.0,29239.0,450.0,-9.0,23.0,43.0,0,None
2023-01-03 08:40:51.000,258.841,0.1039999999999963,100.0,1912.0,24301.0,4885.0,99.0,872.8,38.4,4880.4,-176.39623999999998,0.4333096,0.009519306,-0.024432825,-1.1419105,30.01,0.018894735,-0.02506851,-1.180507,0.44179306,0.61940774,2.79912,4.2,7.4,71.4,-5.2,40.4,244.8,-1083.8,1.4,317.0,1020.9676,-0.077546896,3204.0,0.018894735,0.0033558063,-0.02506851,-0.00336136725,-1.180507,-0.010893065,29990.0,29242.0,500.0,-8.0,24.0,42.0,0,None
2023-01-03 08:40:51.550,259.3776,0.1081999999999993,100.0,1967.0,24265.0,4891.0,99.0,1851.2,41.4,4885.2,-176.60218,0.49727316,0.0178935433333333,-0.0171402133333333,-1.1425726666666665,30.28333333333333,0.0281787066666666,-0.01711256,-1.1790116666666668,0.4311805599999999,1.2099799,3.7265624,9.0,5.8,74.1,-10.6,-38.9,228.1,-1292.3,1.5,285.3,1021.0063,-0.039124997,3205.6,0.0279770233333333,0.0004939066666666,-0.01699816,0.026989622,-1.179113,-0.0080370763333333,30070.0,29252.0,580.0,-10.0,18.0,91.0,0,None
2023-01-03 08:40:52.100,259.9012,0.103800000000001,100.0,1925.0,24230.0,4888.0,99.0,2029.4,44.2,4875.4,-177.23838,0.5539924,-0.0129577055,-0.0045696975,-1.1396565,31.055,-0.0036317534999999,-0.0042395947,-1.1753355,0.40735212,0.76229364,2.8267068,7.6,17.0,81.2,-20.8,-22.8,234.6,-1318.0,36.4,274.2,1020.7098,-0.33521874,3207.0,-0.0036317534999999,0.0227594949999999,-0.0042395947,0.01740574,-1.1753355,0.049746535,30680.0,29211.0,1190.0,-19.0,11.0,197.0,0,None
2023-01-03 08:40:52.650,260.47916666666663,0.103333333333334,100.0,1434.0,24379.0,4890.0,99.0,1502.8333333333333,47.0,4881.166666666667,-59.599466666666665,0.6012187999999999,0.0153148583333333,-0.0075388926666666,-1.149678,32.27333333333333,0.0257156886666666,-0.0081442943333333,-1.1844156666666663,0.4297631166666666,1.0682741,4.306623833333333,8.666666666666666,-15.333333333333334,72.5,-26.0,112.33333333333331,235.0,-1110.1666666666667,-61.833333333333336,297.6666666666667,1020.526,-0.5191406166666667,3209.0,0.0257156886666666,0.1140546066666666,-0.0081442943333333,0.0187867933333333,-1.1844156666666663,-0.07528055,32400.0,29322.5,2910.0,-19.5,-16.0,326.5,0,None
2023-01-03 08:40:53.200,261.04900000000004,0.108000000000004,100.0,1392.0,24421.0,4883.0,99.0,1515.2,49.2,4875.0,177.24894,0.63030964,0.0595271433333333,0.04204706,-1.1549096666666667,33.98,0.0692784833333333,0.0428060933333333,-1.1499646666666663,0.4049547999999999,1.11963074,3.9229552,-2.8,200.2,58.0,11.6,-27.0,237.8,-1071.2,62.0,277.4,1020.3108,-0.7342031400000001,3210.4,0.0692784833333333,-0.0272637966666666,0.0428060933333333,0.0114669533333333,-1.1499646666666663,0.0705892466666666,34580.0,29479.0,5090.0,-12.0,15.0,342.0,0,None
2023-01-03 08:40:53.750,261.574,0.1001999999999952,100.0,1316.0,24412.0,4888.0,99.0,1449.8,51.4,4878.2,173.97136,0.65678278,0.0051932499999999,0.0330742626666666,-1.1282746666666668,35.72333333333333,0.0148626533333333,0.0322481836666666,-1.1225836666666666,0.4008135399999999,1.03262332,5.7200346,4.4,-167.2,75.8,-15.2,-145.8,254.0,-1004.2,53.0,279.8,1020.1158,-0.92960926,3211.8,0.0148626533333333,-0.0235696299999999,0.0322481836666666,-0.2452209,-1.1225836666666666,0.0244949366666666,36010.0,29604.0,6520.0,15.0,34.0,319.0,0,None
2023-01-03 08:40:54.300,262.1022,0.108000000000004,100.0,847.0,24568.0,4867.0,99.0,1050.0,53.2,4883.8,170.40908,0.6684991800000001,-0.030972337,-0.0886486,-1.131407,37.065,-0.017638295,-0.0866659499999999,-1.124675,0.54722412,1.2068707799999998,5.4617296,21.2,-255.6,105.9,-50.2,161.0,226.6,-874.5,-10.8,319.1,1019.9489,-1.09621871,3213.6,-0.017638295,0.13601177,-0.0866659499999999,-0.1739992799999999,-1.124675,0.0016107749999999,37260.0,29516.0,7770.0,4.0,-7.0,231.0,0,None
2023-01-03 08:40:54.850,262.68,0.103333333333334,100.0,1320.0,24433.0,4884.0,99.0,1305.1666666666667,55.16666666666666,4877.5,166.13653333333335,0.6814874666666665,0.05046234,-0.2185709666666666,-1.142545666666667,37.85666666666666,0.0647146933333333,-0.2136088666666666,-1.135593,0.5438238999999999,1.0849662,6.231457666666667,30.666666666666668,-104.66666666666669,73.83333333333333,-26.0,100.0,165.0,-1008.1666666666666,-8.833333333333334,353.6666666666667,1019.8211666666668,-1.224049333333333,3215.5,0.0647146933333333,0.15490236,-0.2136088666666666,-0.1355848899999999,-1.135593,-0.0082224603333333,37980.0,29497.0,8490.0,-82.0,-62.0,174.0,0,None
2023-01-03 08:40:55.400,263.25,0.1120000000000004,100.0,1518.0,24327.0,4882.0,99.0,1352.0,57.0,4877.4,161.54794,0.70578014,0.1013964533333333,-0.2008999,-1.2331023333333333,38.583333333333336,0.11489344,-0.1967006333333333,-1.226954,0.4392823399999999,1.27855022,6.7471552,26.2,123.0,38.7,-1.0,117.0,173.2,-1078.6,-321.1,364.0,1019.7699,-1.2752421,3217.0,0.1157305733333333,0.1057379663333333,-0.1969288333333333,0.1578753666666666,-1.2244986666666666,-0.3008196666666666,38570.0,29014.0,9080.0,-195.0,-93.0,153.0,0,None
2023-01-03 08:40:55.950,263.791,0.1001999999999952,100.0,1579.0,24310.0,4874.0,99.0,1561.8,59.6,4870.8,156.7931,0.74670562,0.0661652349999999,-0.1901016999999999,-1.423234,39.125,0.078361315,-0.1924783,-1.417309,0.40669534,1.0863995799999997,6.3080302,22.4,22.2,-15.0,11.8,-93.4,189.0,-1118.6,-419.0,362.6,1019.6795999999998,-1.365625,3218.8,0.078361315,-0.058653955,-0.1924783,-0.05891188,-1.417309,-0.4283538,39120.0,27883.0,9630.0,-298.0,-89.0,156.0,0,None
2023-01-03 08:40:56.500,264.3192,0.108000000000004,100.0,1356.0,24371.0,4885.0,99.0,1431.2,61.6,4880.4,153.05434,0.7866715,-0.0230578996666666,-0.1799115666666666,-1.6134473333333337,39.8,-0.00986995,-0.1866014666666666,-1.6045323333333332,0.3795318399999999,1.29100772,8.575441000000001,36.6,-49.8,-43.4,26.4,-51.0,195.0,-1133.8,-353.6,370.0,1019.5392,-1.505828,3220.4,-0.00986995,-0.10684392,-0.1866014666666666,-0.0267949299999999,-1.6045323333333332,-0.3573677666666666,39780.0,26818.0,10290.0,-380.0,-108.0,187.0,0,None
2023-01-03 08:40:57.050,264.88100000000003,0.0999999999999942,100.0,1289.0,24366.0,4895.0,99.0,1451.8333333333333,63.833333333333336,4878.833333333333,148.82356666666666,0.8423025000000001,-0.0464685866666666,-0.1775637333333333,-1.8117946666666669,40.85,-0.0330946099999999,-0.1889428333333333,-1.7982803333333333,0.44625775,1.2947411666666666,9.695756333333334,26.666666666666668,17.833333333333332,-89.5,57.5,117.16666666666669,170.5,-1097.3333333333333,-316.8333333333333,355.5,1019.4393333333334,-1.6058461666666666,3222.0,-0.0330946099999999,0.0901197566666666,-0.1889428333333333,0.0469664466666666,-1.7982803333333333,-0.3318914,40640.0,25897.0,11150.0,-450.0,-153.0,217.0,0,None
2023-01-03 08:40:57.600,265.46400000000006,0.1082000000000106,100.0,1508.0,24309.0,4871.0,99.0,1516.8,66.0,4881.4,144.47364,0.91218944,-0.0377509766666666,-0.1778374666666666,-2.0307316666666666,42.11666666666667,-0.0286862433333333,-0.1906124333333333,-2.012506,0.5241777400000001,1.16921318,9.6373682,-2.2,-25.2,-137.0,84.0,30.6,156.6,-1042.2,-366.8,346.8,1019.3052,-1.7401091999999998,3223.8,-0.0286862433333333,0.0364066466666666,-0.1906124333333333,-0.0180705183333333,-2.012506,-0.350275,41660.0,24912.0,12170.0,-511.0,-177.0,232.0,0,None
2023-01-03 08:40:58.150,266.004,0.1079999999999926,100.0,1558.0,24304.0,4887.0,99.0,1562.0,68.6,4883.6,140.68288,0.986826,-0.062502585,-0.1591402,-2.220174,43.195,-0.05661571,-0.1731899,-2.199042,0.51967198,1.5505077999999997,8.9975262,-30.4,30.4,-184.8,53.3,-4.2,119.4,-1076.6,-392.3,351.5,1019.1197,-1.9253593,3225.2,-0.05661571,0.01208807,-0.1731899,0.016953205,-2.199042,-0.3710375999999999,42730.0,23848.0,13240.0,-567.0,-183.0,241.0,0,None
2023-01-03 08:40:58.700,266.548,0.108000000000004,100.0,1457.0,24309.0,4875.0,99.0,1431.8,70.8,4880.2,137.59704,1.0565007999999998,-0.09986251,-0.1274266333333333,-2.427704,44.44333333333333,-0.09434353,-0.1417441,-2.4041586666666666,0.48170034,1.10352244,9.3155606,-46.8,-2.6,-197.8,69.8,-11.0,98.0,-1080.8,-373.2,336.0,1019.0112,-2.0339062,3226.8,-0.09434353,0.0025454726666666,-0.1417441,0.0008730556666666,-2.4041586666666666,-0.3687123666666667,43900.0,22732.0,14410.0,-611.0,-185.0,250.0,0,None
2023-01-03 08:40:59.250,267.068,0.1039999999999963,100.0,1501.0,24302.0,4888.0,99.0,1492.8,73.0,4887.8,134.02002,1.1495639999999998,-0.1305278,-0.10576735,-2.617572,45.615,-0.1253902,-0.12024775,-2.59179,0.52202406,1.0486440599999998,9.4755174,-63.8,-10.2,-220.4,59.8,-4.2,60.0,-1047.4,-344.4,364.6,1018.8964,-2.1486248,3228.6,-0.1253902,-0.0086248655,-0.12024775,-0.003330118,-2.59179,-0.34620015,45100.0,21617.0,15610.0,-646.0,-197.0,250.0,0,None
2023-01-03 08:40:59.800,267.604,0.1120000000000004,100.0,1491.0,24300.0,4887.0,99.0,1500.4,75.0,4877.4,131.1574,1.2339402,-0.1452253333333333,-0.0780209433333333,-2.794307666666666,46.78333333333333,-0.1412896,-0.0915111933333333,-2.769124333333333,0.49152974,1.217183,10.006326,-72.7,8.4,-234.7,68.9,20.9,28.7,-1050.0,-270.8,362.6,1018.6181,-2.4269453000000003,3230.1,-0.1412896,0.0205502433333333,-0.0915111933333333,0.01125941,-2.769124333333333,-0.2905386,46855.0,20143.0,17365.0,-702.0,-225.5,252.5,0,None
2023-01-03 08:41:00.350,268.1886666666666,0.103333333333334,100.0,1478.0,24299.0,4891.5,99.0,1400.8333333333333,77.33333333333333,4881.833333333333,128.29485,1.325558,-0.1307973999999999,-0.07003677,-2.875255000000001,48.26,-0.1264267666666666,-0.0829086366666666,-2.8516170000000005,0.5724579333333334,1.204368833333333,9.962700166666666,-85.16666666666667,-19.0,-234.83333333333331,66.16666666666667,49.0,3.1666666666666665,-1045.1666666666667,0.5,371.8333333333333,1018.4486666666668,-2.596471166666667,3231.833333333333,-0.1264267666666666,0.1084697166666666,-0.0829086366666666,-0.0131225898666666,-2.8516170000000005,0.0224296866666666,48690.0,19684.0,19200.0,-745.0,-258.0,237.0,0,None
2023-01-03 08:41:00.900,268.76,0.1039999999999963,100.0,1483.0,24302.0,4891.0,99.0,1419.4,79.6,4878.6,125.25932,1.4282148,-0.11929995,-0.08226079,-2.8676125,49.455,-0.1140376999999999,-0.09418501,-2.8426455,0.52795062,1.0719147000000002,11.063172,-95.0,-12.8,-241.8,58.2,29.2,-2.4,-1085.8,35.8,349.4,1018.3132,-2.731875,3233.8,-0.1140376999999999,-0.0031200899999999,-0.09418501,-0.023950831,-2.8426455,0.0138411146,49840.0,19739.0,20350.0,-765.0,-272.0,228.0,0,None
2023-01-03 08:41:01.450,269.28000000000003,0.1040000000000076,100.0,1396.0,24321.0,4890.0,99.0,1416.8,81.8,4889.6,122.39578000000002,1.5304601999999998,-0.1080622333333333,-0.0914254299999999,-2.856997,50.57666666666666,-0.1017136033333333,-0.10112007,-2.8342386666666672,0.52818786,1.1138849999999998,11.238428,-94.9,-18.6,-246.5,67.3,13.5,2.7,-1056.9,22.1,363.3,1018.1965,-2.8485078,3235.4,-0.1017136033333333,0.0084362036666666,-0.10112007,-0.0108847376666666,-2.8342386666666672,0.0262691846666666,50950.0,19771.0,21460.0,-780.0,-278.0,228.0,0,None
2023-01-03 08:41:02.000,269.8,0.1039999999999963,100.0,1349.0,24311.0,4875.0,99.0,1379.8,84.0,4885.6,119.82851999999998,1.6284495999999995,-0.098054835,-0.09594707,-2.852796,51.66,-0.091771305,-0.1050012999999999,-2.8298975,0.57733272,1.05796462,10.8529976,-98.0,-6.8,-251.2,81.6,30.6,10.4,-1041.0,18.0,357.6,1018.0582,-2.986953,3236.8,-0.091771305,0.029178025,-0.1050012999999999,0.0314578255,-2.8298975,0.02358509,52050.0,19793.0,22560.0,-791.0,-280.0,232.0,0,None
2023-01-03 08:41:02.550,270.3985,0.1066666666666643,100.0,1402.0,24314.0,4896.0,99.0,1383.8333333333333,86.0,4883.333333333333,117.09233333333331,1.7390298333333334,-0.0908832475,-0.098601515,-2.8502755,53.010000000000005,-0.0831955475,-0.106389475,-2.82698375,0.5787099,1.1362183333333336,11.642703333333332,-99.66666666666669,-3.0,-249.33333333333331,64.16666666666667,28.666666666666668,6.166666666666667,-1058.5,10.5,343.8333333333333,1017.9401666666668,-3.1050128333333333,3238.1666666666665,-0.0831955475,0.01331130125,-0.106389475,-0.0009765139999999,-2.82698375,0.0075516689999999,53200.0,19807.0,23710.0,-798.0,-279.0,232.0,0,None
2023-01-03 08:41:03.100,270.968,0.1040000000000076,100.0,1395.0,24312.0,4861.0,99.0,1382.8,88.2,4887.6,114.43458,1.8539748,-0.08275697,-0.09620318,-2.84864,54.32,-0.07426235,-0.1027085,-2.8242955,0.62191592,1.0746708,11.27873,-101.6,17.6,-251.6,66.8,24.4,10.6,-1072.0,12.4,332.6,1017.8192,-3.2260156,3240.0,-0.07426235,0.0421519449999999,-0.1027085,0.02773638,-2.8242955,0.0078796735,54310.0,19816.0,24820.0,-800.0,-276.0,235.0,0,None
2023-01-03 08:41:03.650,271.4878,0.1039999999999963,100.0,1424.0,24275.0,4871.0,99.0,1332.8,90.2,4876.6,112.21614,1.9563158,-0.0774102433333333,-0.0940206,-2.839928,55.43000000000001,-0.0694327566666666,-0.0995908266666666,-2.815069,0.64730552,0.98946536,12.064448,-111.1,-4.9,-256.2,82.8,9.5,23.2,-1037.7,16.1,355.2,1017.7203,-3.3249611000000003,3241.8,-0.0694327566666666,0.00746873,-0.0995908266666666,-0.0134498066666666,-2.815069,0.003921025,55410.0,19876.0,25920.0,-798.0,-274.0,248.0,0,None
2023-01-03 08:41:04.200,272.0453333333333,0.0999999999999942,100.0,1283.0,24303.0,4875.0,99.0,1169.8333333333333,92.5,4874.166666666667,110.0004,2.065815333333333,0.0039369323333333,-0.0981162166666666,-2.84136,56.70333333333334,0.01217019,-0.1031243966666666,-2.81513,0.6260357166666667,1.0309282000000002,11.496636666666667,-108.5,-23.166666666666668,-270.6666666666667,57.66666666666666,267.3333333333333,15.166666666666666,-1082.5,8.666666666666666,334.8333333333333,1017.6028333333334,-3.4422133333333336,3243.333333333333,0.01217019,0.2535909233333333,-0.1031243966666666,-0.0323161146666666,-2.81513,0.0187725846666666,56460.0,19877.0,26970.0,-790.0,-271.0,247.0,0,None
2023-01-03 08:41:04.750,272.592,0.0999999999999999,100.0,876.0,24444.0,4885.0,99.0,925.0,93.8,4880.0,107.9229,2.1751618,0.00396951,-0.0771637249999999,-2.832602,57.54,0.00836172,-0.08201068,-2.804225,0.7682788250000001,1.287183,8.703375,-116.2,99.8,-284.6,15.6,-280.0,18.8,-968.0,-2.6,312.6,1017.6104,-3.4346094000000003,3245.2,0.00836172,-0.29143515,-0.08201068,0.0862733099999999,-2.804225,-0.013930181,57400.0,19912.0,27910.0,-744.0,-248.0,198.0,0,None
2023-01-03 08:41:05.300,273.14916666666664,0.1035000000000062,100.0,942.0,24445.0,4882.0,99.0,943.3333333333334,95.33333333333331,4882.833333333333,105.88030000000002,2.2791398333333333,-0.0698865633333333,-0.0426024633333333,-2.815469,57.94,-0.0606055766666666,-0.04709778,-2.784466666666667,0.8940565666666666,1.3894655,9.266273666666669,-113.16666666666669,60.333333333333336,-255.5,50.5,-43.66666666666666,44.0,-1009.5,42.0,344.8333333333333,1017.5551666666668,-3.490052166666666,3246.833333333333,-0.0606055766666666,-0.0688455066666666,-0.04709778,0.09745378,-2.784466666666667,0.0439606733333333,57880.0,20016.0,28390.0,-719.0,-245.0,147.0,0,None
2023-01-03 08:41:05.850,273.732,0.103800000000001,100.0,791.0,24506.0,4888.0,99.0,939.2,96.6,4878.2,103.84958,2.3780512000000003,-0.08069849,-0.0267497033333333,-2.781836666666667,58.2,-0.06973403,-0.03173296,-2.749297666666667,0.9783000000000002,1.5032306,10.6879838,-86.0,28.4,-247.0,24.6,17.0,46.8,-1025.2,63.6,355.4,1017.5336,-3.5115153999999995,3248.2,-0.06973403,-0.0083472733333333,-0.03173296,0.0257077833333333,-2.749297666666667,0.0701585933333333,58140.0,20169.0,28650.0,-717.0,-257.0,113.0,0,None
2023-01-03 08:41:06.400,274.23220000000003,0.1001999999999952,100.0,925.0,24460.0,4883.0,99.0,847.8,98.0,4879.2,102.08412,2.4644148,-0.077545905,-0.0261776,-2.748796,58.32,-0.06902851,-0.031549085,-2.715285,1.01919618,1.5439464,10.2769006,-89.8,-12.6,-241.2,67.6,5.4,69.0,-1047.2,61.4,347.0,1017.5449999999998,-3.5000626000000006,3249.6,-0.06902851,0.0079806875,-0.031549085,0.0037770265,-2.715285,0.07271457,58280.0,20358.0,28790.0,-718.0,-277.0,104.0,0,None
2023-01-03 08:41:06.950,274.783,0.1000000000000037,100.0,949.0,24475.0,4890.0,99.0,930.3333333333334,99.33333333333331,4882.5,100.44184666666668,2.5428936666666666,-0.0738648533333333,-0.0349604066666666,-2.731701,58.38333333333333,-0.0641790733333333,-0.03980683,-2.697226333333333,1.04179395,1.3477348333333332,9.324630166666669,-80.0,-18.0,-237.33333333333331,45.333333333333336,7.833333333333333,75.0,-1069.1666666666667,16.666666666666668,369.1666666666667,1017.476,-3.569283833333333,3251.1666666666665,-0.0641790733333333,0.003126006,-0.03980683,-0.0152850836666666,-2.697226333333333,0.0239717266666666,58390.0,20546.0,28900.0,-711.5,-307.0,85.5,0,None
2023-01-03 08:41:07.500,275.333,0.0999999999999999,100.0,972.0,24408.0,4890.0,99.0,936.6,100.8,4880.0,98.983336,2.613072,-0.07354071,-0.0466078433333333,-2.7297936666666662,58.47666666666666,-0.06665533,-0.0510984999999999,-2.692515,0.85243424,1.5116681999999997,10.4113868,-108.6,-21.6,-237.4,91.0,11.2,65.4,-1006.6,-13.6,355.4,1017.4082,-3.6370934,3253.0,-0.06665533,0.0184128663333333,-0.0510984999999999,0.0052289363333333,-2.692515,-0.0084229037666666,58510.0,20558.0,29020.0,-708.0,-325.0,71.0,0,None
2023-01-03 08:41:08.050,275.883,0.0999999999999942,100.0,923.0,24427.0,4887.0,99.0,997.8333333333334,102.5,4880.166666666667,97.65855666666666,2.679929333333334,-0.03037315,0.016778823,-2.711882333333333,58.586666666666666,-0.0227906533333333,0.012301436,-2.6731076666666667,0.7323418166666666,1.2775476666666667,11.861081999999998,-80.0,261.0,-249.66666666666663,100.66666666666669,210.16666666666663,80.0,-979.0,94.5,344.3333333333333,1017.3636666666667,-3.6815363333333337,3254.6666666666665,-0.0227906533333333,0.2413775766666666,0.012301436,0.3060363333333333,-2.6731076666666667,0.11351064,58610.0,20698.0,29120.0,-697.0,-341.0,67.0,0,None
2023-01-03 08:41:08.600,276.43300000000005,0.0999999999999999,100.0,838.0,24521.0,4887.0,99.0,812.6,103.6,4886.0,96.48978200000002,2.7436188,0.063621065,0.1910463,-2.587364,58.695,0.06876439,0.1845303999999999,-2.5480045,0.7060861999999999,1.4782456,14.934915999999998,-64.0,271.8,-269.0,18.4,168.2,159.6,-925.2,336.8,282.4,1017.4354,-3.6097658,3256.4,0.06876439,0.15984387,0.1845303999999999,0.2685184,-2.5480045,0.33105225,58700.0,21571.0,29210.0,-612.0,-397.0,59.0,0,None
2023-01-03 08:41:09.150,276.9963333333333,0.103333333333334,100.0,822.0,24493.0,4895.0,99.0,964.3333333333334,105.0,4884.0,95.48293166666669,2.8006418333333336,0.0435612666666666,0.2828984666666667,-2.408674,58.71666666666667,0.0477210999999999,0.2774932333333333,-2.36868,0.5940550833333332,1.4263343333333331,14.523133333333334,-44.66666666666666,44.5,-238.0,24.5,16.333333333333332,240.83333333333331,-1103.0,352.6666666666667,251.5,1017.4123333333332,-3.6327603333333336,3257.833333333333,0.0477210999999999,0.02188914,0.2774932333333333,0.0631917566666666,-2.36868,0.369455,58720.0,22581.0,29230.0,-482.0,-482.0,50.0,0,None
2023-01-03 08:41:09.700,277.553,0.0999999999999999,100.0,1140.0,24360.0,4890.0,99.0,1121.4,106.6,4880.0,94.565128,2.8526394,-0.0278834563333333,0.2386361333333333,-2.20599,58.73,-0.0249139881333333,0.2359949333333333,-2.163368333333333,0.74549702,1.4862514,12.384747999999998,-21.0,-173.6,-185.8,5.2,-20.8,271.2,-1062.0,369.8,252.2,1017.2808,-3.7644842,3259.2,-0.0249139881333333,-0.0148327716666666,0.2359949333333333,-0.1728183333333333,-2.163368333333333,0.3701220333333333,58730.0,23559.0,29240.0,-348.0,-570.0,46.0,0,None
2023-01-03 08:41:10.250,278.0612,0.1040000000000076,100.0,1175.0,24356.0,4888.0,99.0,1163.2,108.4,4882.8,93.674252,2.9019129999999995,-0.091502105,0.1403749,-2.031235,58.805,-0.089319105,0.142413,-1.986512,0.58485268,1.2526088,9.9672044,-30.2,-138.4,-113.8,4.8,-43.6,257.2,-1068.2,338.4,273.8,1017.2594,-3.7857968,3260.8,-0.089319105,-0.05812709,0.142413,-0.13682185,-1.986512,0.3477027,58800.0,24591.0,29310.0,-258.0,-640.0,47.0,0,None
2023-01-03 08:41:10.800,278.641,0.1038333333333317,100.0,1139.0,24366.0,4896.0,99.0,1156.1666666666667,110.16666666666669,4889.0,92.8235,2.952394,-0.106011695,0.06527823,-1.897661,58.9575,-0.1047842875,0.0689521275,-1.85006525,0.4379612166666666,0.9537621666666668,9.334422166666668,-33.916666666666664,-49.25,-65.83333333333333,5.75,48.16666666666666,256.0,-1073.3333333333333,147.58333333333334,294.1666666666667,1017.2525833333334,-3.792519333333333,3262.4166666666665,-0.1047842875,0.0602942475,0.0689521275,-0.0485788675,-1.85006525,0.158599795,58930.0,25321.0,29440.0,-217.0,-700.0,40.0,0,None
2023-01-03 08:41:11.350,279.2194,0.1077999999999973,100.0,1152.0,24368.0,4882.5,99.0,1127.6,112.0,4886.0,92.17453000000002,2.9966662,-0.0592603649999999,0.090104715,-1.8140035,59.075,-0.05955819,0.09265296,-1.7639005,0.4765037399999999,0.9500665,7.833336,-36.0,131.0,-58.0,3.6,77.0,277.4,-1051.4,137.6,314.6,1017.2472,-3.7979846,3264.0,-0.05955819,0.07668311,0.09265296,0.118996,-1.7639005,0.14115365,59040.0,25707.0,29550.0,-193.0,-744.0,35.0,0,None
2023-01-03 08:41:11.900,279.769,0.0966666666666639,100.0,1172.0,24322.0,4891.0,99.0,1168.3333333333333,113.83333333333331,4882.666666666667,91.67920333333332,3.035982333333333,-0.0615578633333333,0.1147549333333333,-1.7321906666666669,59.13,-0.0621530266666666,0.114121,-1.6802183333333334,0.4752318166666667,1.0324781833333332,7.523838666666666,-34.666666666666664,1.3333333333333333,-30.83333333333333,-6.666666666666667,5.833333333333333,277.3333333333333,-1055.5,162.33333333333334,280.0,1017.2401666666666,-3.8048566666666654,3265.833333333333,-0.0621530266666666,0.0138098576666666,0.114121,0.0112020375999999,-1.6802183333333334,0.1559208333333333,59130.0,26392.0,29640.0,-123.5,-775.5,29.5,0,None
2023-01-03 08:41:12.450,280.3156,0.0999999999999999,100.0,1160.0,24361.0,4890.0,99.0,1142.0,115.6,4886.2,91.254998,3.0726854,-0.0064075666666666,0.0977286366666666,-1.6750916666666666,59.173333333333325,-0.0055130403333333,0.0962170466666666,-1.6218473333333332,0.43882768,0.93992464,6.128232199999999,-40.6,-65.0,-21.4,-4.0,287.4,283.6,-1070.6,-23.4,286.0,1017.2418,-3.8033904,3267.2,-0.0055130403333333,0.2534939366666666,0.0962170466666666,-0.0345342666666666,-1.6218473333333332,-0.0271891333333333,59190.0,26712.0,29700.0,-47.0,-781.0,27.0,0,None
2023-01-03 08:41:13.000,280.86883333333327,0.1001666666666664,100.0,1153.0,24344.0,4895.0,99.0,1141.0,117.33333333333331,4877.0,90.85909,3.1069756666666666,0.1313824333333333,0.0200287536666666,-1.687352,59.18666666666667,0.1298053666666666,0.021131234,-1.6316726666666668,0.5051452833333334,1.0692545000000002,5.3162088333333335,-34.333333333333336,-101.16666666666669,-75.83333333333333,-17.166666666666668,107.66666666666669,262.1666666666667,-1065.0,-33.833333333333336,305.3333333333333,1017.2615,-3.783632666666666,3268.833333333333,0.1298053666666666,0.06076728,0.021131234,-0.0971740633333333,-1.6316726666666668,-0.0139379066666666,59190.0,26639.0,29700.0,-27.0,-709.0,24.0,0,None
2023-01-03 08:41:13.550,281.4196,0.0998000000000046,100.0,1206.0,24310.0,4890.0,99.0,1184.4,119.0,4886.2,90.470094,3.1376752,0.1200199999999999,-0.0028242175,-1.68868,59.17,0.1204436999999999,-0.00054779605,-1.6314835,0.45556038,1.11796298,2.1761480000000004,-19.4,-2.8,-73.0,-23.8,-46.4,256.8,-1064.4,9.6,316.4,1017.2518,-3.7932344,3270.6,0.1204436999999999,-0.0432461549999999,-0.00054779605,0.0035205909999999,-1.6314835,0.00318993385,59170.0,26659.0,29680.0,-30.0,-628.0,26.0,0,None
2023-01-03 08:41:14.100,281.9272,0.1039999999999963,100.0,1181.0,24334.0,4880.0,99.0,1179.0,120.6,4877.4,90.138546,3.1631356,0.1078191666666666,0.0043785897333333,-1.686699,59.17333333333334,0.1131976666666666,0.0071892086666666,-1.6286119999999995,0.4238452,0.8707013,4.379870800000001,-19.8,17.6,-69.8,-20.6,17.4,258.6,-1075.6,0.2,317.6,1017.2534,-3.7917028,3271.6,0.1131976666666666,0.01813836,0.0071892086666666,0.0173137966666666,-1.6286119999999995,0.000788917,59170.0,26674.0,29680.0,-33.0,-563.0,25.0,0,None
2023-01-03 08:41:14.650,282.48883333333333,0.1001666666666664,100.0,1186.0,24360.0,4887.0,99.0,1191.3333333333333,122.5,4877.0,89.75284666666668,3.1920943333333334,0.1285634666666666,0.0076703196666666,-1.6911383333333332,59.17666666666667,0.1367259333333333,0.009906937,-1.6314903333333337,0.40087408,1.0962306,3.919608,-18.8,1.2,-79.6,-17.6,53.6,254.2,-1057.4,-19.6,310.6,1017.2592,-3.7859532,3273.2,0.1367259333333333,0.0482111266666666,0.009906937,-0.0007945153333333,-1.6314903333333337,-0.0113528593333333,59180.0,26656.0,29690.0,-33.0,-497.0,26.0,0,None
2023-01-03 08:41:15.200,283.03540000000004,0.0998000000000046,100.0,1187.0,24318.0,4891.0,99.0,1202.4,124.4,4883.8,89.363688,3.2199833999999994,0.1509947,0.0069366885,-1.6981959999999998,59.175,0.1595483,0.009806445,-1.636846,0.36957758,1.08606688,2.3185304,-0.2,0.2,-88.2,-5.2,42.2,247.4,-1084.2,-5.4,304.8,1017.2442,-3.8011247999999993,3274.8,0.1595483,0.040192905,0.009806445,0.0046503345,-1.636846,-0.03984258,59170.0,26631.0,29680.0,-31.0,-425.0,27.0,0,None
2023-01-03 08:41:15.750,283.60549999999995,0.103333333333334,100.0,1218.0,24305.0,4888.0,99.0,1194.3333333333333,126.16666666666669,4882.166666666667,88.96552166666667,3.248122833333334,0.1625642,0.0056794839999999,-1.7065693333333334,59.18666666666667,0.1735011,0.0088951766666666,-1.6433826666666669,0.3396329833333333,1.2168087666666667,2.917213333333333,-4.166666666666667,7.833333333333333,-95.33333333333331,-15.5,26.5,256.0,-1070.0,-51.66666666666666,303.3333333333333,1017.238,-3.807083333333333,3276.6666666666665,0.1735011,0.03428259,0.0088951766666666,0.0100777023333333,-1.6433826666666669,0.0072321221666666,59180.0,26584.0,29690.0,-29.0,-345.0,25.0,0,None
2023-01-03 08:41:16.300,284.15559999999994,0.0999999999999999,100.0,1199.0,24317.0,4882.0,99.0,1189.0,128.0,4879.6,88.617092,3.2731518,0.1781100666666666,0.005078948,-1.7149640000000002,59.196666666666665,0.1891759666666666,0.0084474973333333,-1.650076,0.2337359399999999,1.00825454,2.7436172,11.0,-0.2,-101.2,-13.2,28.2,257.6,-1067.4,5.8,299.4,1017.2306,-3.814703,3278.0,0.1891759666666666,0.03406608,0.0084474973333333,-0.0039875186666666,-1.650076,-0.012173919,59190.0,26542.0,29700.0,-23.0,-268.0,25.0,0,None
2023-01-03 08:41:16.850,284.70583333333326,0.1001666666666664,100.0,1198.0,24298.5,4884.0,99.0,1206.5,129.83333333333334,4879.833333333333,88.24202333333334,3.301743333333334,0.1898204666666666,0.0049592003333333,-1.7066543333333335,59.21333333333333,0.2025171333333333,0.009625444,-1.6401733333333333,0.2821731,1.04557475,5.4264985,25.0,8.666666666666666,-100.16666666666669,-36.833333333333336,41.5,250.5,-1048.3333333333333,13.666666666666666,303.6666666666667,1017.2076666666666,-3.8374738333333336,3279.5,0.2025171333333333,0.0332483933333333,0.009625444,0.0064118473333333,-1.6401733333333333,0.017669033,59200.0,26577.0,29710.0,-18.0,-191.0,23.0,0,None
2023-01-03 08:41:17.400,285.2594,0.103800000000001,100.0,1178.0,24326.0,4895.0,99.0,1182.4,131.6,4883.4,87.87460399999999,3.3316394000000003,0.20170725,0.0068721695,-1.700686,59.245000000000005,0.2139017,0.012264755,-1.6336585,0.51086342,1.0727766000000003,5.266772999999999,39.0,-4.6,-102.2,-12.2,17.8,248.0,-1077.6,4.4,294.0,1017.1976,-3.847671800000001,3281.0,0.2139017,0.0270104649999999,0.012264755,0.0129819455,-1.6336585,0.0005596999999999,59230.0,26622.0,29740.0,-11.0,-115.0,23.0,0,None
2023-01-03 08:41:17.950,285.77560000000005,0.1001999999999952,100.0,1156.0,24315.0,4888.0,99.0,1189.6,133.4,4885.0,87.48709,3.3659856,0.2033445666666666,-0.0003289247999999,-1.699825333333333,59.27666666666667,0.2167529666666666,0.0069800843333333,-1.6305903333333334,0.51150156,1.0692098799999998,7.463286199999999,44.6,-14.4,-108.4,-19.2,-2.6,252.8,-1052.8,-3.2,294.8,1017.2132,-3.8319688,3282.6,0.2167529666666666,-0.0159821633333333,0.0069800843333333,-0.0010966749999999,-1.6305903333333334,0.0050549378666666,59270.0,26649.0,29780.0,-4.0,-38.0,21.0,0,None
2023-01-03 08:41:18.500,286.3255,0.1000000000000037,100.0,1072.0,24339.0,4890.0,99.0,1126.3333333333333,135.16666666666666,4885.333333333333,87.15139999999998,3.3998278333333336,0.1398947,-0.0031568083333333,-1.7013,59.28333333333333,0.1551137333333333,0.0049181753333333,-1.630591,0.5047382333333333,1.159391133333333,6.412676666666666,58.5,1.0,-95.83333333333331,-23.166666666666668,-113.83333333333331,253.0,-1048.0,-4.166666666666667,295.1666666666667,1017.1998333333336,-3.845234333333333,3284.1666666666665,0.1551137333333333,-0.1173198,0.0049181753333333,0.0096819607,-1.630591,-0.0139728916666666,59285.0,26661.0,29795.0,-3.0,48.5,20.0,0,None
2023-01-03 08:41:19.050,286.8832,0.0997999999999933,100.0,1136.0,24314.0,4862.0,99.0,1058.8,137.0,4888.4,86.838958,3.4379577999999995,0.09819483,0.0049636153,-1.7034455,59.3,0.1143317,0.013267693,-1.6322865,0.516028975,1.070948825,5.25729375,64.6,27.4,-77.4,-1.4,-35.8,261.6,-1066.0,-8.4,304.2,1017.202,-3.843156,3285.4,0.1143317,-0.038333855,0.013267693,0.038094865,-1.6322865,0.0142890904999999,59310.0,26638.0,29820.0,-2.0,76.0,16.0,0,None
2023-01-03 08:41:19.600,287.42883333333333,0.1001666666666664,100.0,1049.0,24316.0,4895.0,99.0,1102.6666666666667,138.5,4889.666666666667,86.53925666666667,3.481519,0.0908382566666666,0.004732548,-1.7044033333333335,59.303333333333335,0.1062793666666666,0.01255908,-1.6321666666666663,0.4619166166666666,1.201367,5.158576166666666,60.16666666666666,-11.333333333333334,-73.66666666666667,-23.0,5.833333333333333,250.5,-1046.6666666666667,11.833333333333334,306.5,1017.1931666666668,-3.852109333333333,3287.0,0.1062793666666666,0.0243476123666666,0.01255908,-0.0077200089999999,-1.6321666666666663,-0.006694843,59300.0,26657.0,29810.0,0.0,78.0,15.0,0,None
2023-01-03 08:41:20.150,287.99940000000004,0.1077999999999974,100.0,1096.0,24342.0,4887.0,99.0,1127.8,140.4,4889.0,86.25279800000001,3.5268748000000003,0.0870821033333333,0.004310477,-1.7041896666666665,59.29,0.1002424666666666,0.0107985339999999,-1.631346,0.6376290600000001,1.08888244,6.5749266,62.1,6.0,-64.8,-21.7,-6.5,251.5,-1057.6,-0.7,302.0,1017.1885999999998,-3.856539,3288.4,0.1002424666666666,-0.0332934866666666,0.0107985339999999,0.0105329333333333,-1.631346,-0.00231294,59290.0,26650.0,29800.0,0.0,80.0,16.0,0,None
2023-01-03 08:41:20.700,288.5312,0.1040000000000076,100.0,1008.0,24357.0,4890.0,99.0,1055.2,142.0,4885.6,86.01773399999999,3.5662668,0.0762594799999999,-0.0031148555,-1.7044480000000002,59.29,0.08879491,0.003318393,-1.632278,0.51866178,1.20670004,5.471136400000001,54.6,-14.0,-59.4,-31.2,-17.2,254.4,-1045.0,-17.6,307.0,1017.191,-3.8542186,3290.2,0.08879491,-0.0179058606,0.003318393,-0.035071455,-1.632278,0.000880655,59290.0,26647.0,29800.0,0.0,77.0,19.0,0,None
2023-01-03 08:41:21.250,289.10200000000003,0.103333333333334,100.0,986.0,24366.0,4893.0,99.0,975.8333333333334,143.5,4886.0,85.75984666666666,3.611543,0.0692166333333333,0.0033718373999999,-1.7083833333333336,59.29333333333333,0.08077825,0.0097099513333333,-1.636397,0.6045772666666668,1.0267292833333337,6.442753333333333,71.16666666666667,13.166666666666666,-59.333333333333336,-12.0,32.666666666666664,253.16666666666663,-1028.3333333333333,-12.666666666666666,310.3333333333333,1017.2166666666666,-3.828242166666666,3291.333333333333,0.08077825,0.0308878166666666,0.0097099513333333,0.0254471379999999,-1.636397,-0.0206490533333333,59300.0,26622.0,29810.0,-2.0,68.0,17.0,0,None
2023-01-03 08:41:21.800,289.656,0.1001999999999952,100.0,1006.0,24348.0,4895.0,99.0,1000.4,145.0,4886.0,85.523356,3.65418,0.07035543,0.005993868,-1.7109046666666667,59.27666666666666,0.0808967833333333,0.0116586146666666,-1.6391676666666666,0.5856390800000001,0.93132278,3.7353714,57.2,-7.6,-63.2,-9.4,-1.8,260.4,-1088.2,-7.6,317.8,1017.2292,-3.8157186,3293.4,0.0808967833333333,0.0137144856666666,0.0116586146666666,-0.0117855019999999,-1.6391676666666666,-9.923333333333092e-06,59280.0,26608.0,29790.0,1.0,60.0,17.0,0,None
2023-01-03 08:41:22.350,290.206,0.1000000000000037,100.0,1016.0,24329.5,4881.0,99.0,1001.8333333333334,146.5,4884.5,85.30851166666667,3.692257833333333,0.0697325466666666,0.0015954131566666,-1.7099839999999995,59.23,0.08005929,0.007764887,-1.6384083333333337,0.5010446000000001,1.0433379333333332,5.3005365,71.83333333333333,-4.333333333333333,-63.333333333333336,-7.5,6.333333333333333,249.5,-1087.1666666666667,-1.3333333333333333,309.1666666666667,1017.2245,-3.8205076666666655,3294.6666666666665,0.08005929,-0.02374995,0.007764887,0.0022182636666666,-1.6384083333333337,-0.0204440566666666,59240.0,26618.0,29750.0,2.0,54.0,18.0,0,None
2023-01-03 08:41:22.900,290.75600000000003,0.0999999999999999,100.0,1001.0,24322.0,4891.0,99.0,995.0,148.2,4879.6,85.10510200000002,3.7276218,0.07053759,0.00080136132,-1.710511,59.215,0.080545105,0.006865397,-1.63918,0.51877812,1.11530248,4.525240999999999,65.4,-3.2,-68.0,-8.0,5.4,256.8,-1069.2,0.4,315.2,1017.2266,-3.818375000000001,3295.8,0.080545105,0.0379408299999999,0.006865397,0.0043335944999999,-1.63918,-0.028800735,59220.0,26613.0,29730.0,1.0,48.0,21.0,0,None
2023-01-03 08:41:23.450,291.30600000000004,0.0999999999999942,100.0,953.0,24368.0,4883.0,99.0,996.0,149.5,4881.833333333333,84.90761333333333,3.761783333333333,0.0667499966666666,0.0065667693333333,-1.709103,59.20666666666667,0.07668533,0.012300383,-1.6382216666666665,0.6109515166666667,0.97293185,4.109707833333334,70.33333333333333,6.833333333333333,-63.833333333333336,-3.333333333333333,3.5,253.33333333333331,-1057.0,9.666666666666666,308.1666666666667,1017.2188333333334,-3.826119833333333,3297.333333333333,0.07668533,-0.0172126833333333,0.012300383,4.198646666666792e-05,-1.6382216666666665,-0.0194174133333333,59210.0,26616.0,29720.0,0.0,43.0,21.0,0,None
2023-01-03 08:41:24.000,291.85600000000005,0.0999999999999999,100.0,936.0,24398.0,4895.0,99.0,991.0,151.2,4881.4,84.72173000000001,3.7933988,0.0659744166666666,0.0033419063333333,-1.7057693333333337,59.20000000000001,0.07618162,0.0084792499999999,-1.635842,0.5809082400000001,1.02734816,4.5290036,57.6,-17.8,-65.0,-14.8,26.8,257.8,-1038.2,18.2,320.6,1017.2174,-3.8275936,3298.8,0.07618162,0.0214842766666666,0.0084792499999999,-0.031314938,-1.635842,-0.0057617253333333,59200.0,26623.0,29710.0,3.0,38.0,22.0,0,None
2023-01-03 08:41:24.550,292.406,0.1000000000000037,100.0,1068.0,24310.0,4896.0,99.0,1077.3333333333333,152.66666666666666,4885.666666666667,84.551505,3.8210605,0.0668790533333333,-0.0009898463333333,-1.7048933333333334,59.21333333333333,0.0772827866666666,0.0037645646666666,-1.6351033333333334,0.63953765,1.1762232,7.622509166666666,52.66666666666666,-0.5,-62.16666666666666,-35.666666666666664,4.0,256.5,-1071.8333333333333,9.166666666666666,321.5,1017.1958333333332,-3.849166666666667,3300.333333333333,0.0772827866666666,-0.0094870133333333,0.0037645646666666,-0.0007430599999999,-1.6351033333333334,-0.0005305019666666,59210.0,26629.5,29720.0,2.0,30.5,21.0,0,None
2023-01-03 08:41:25.100,292.956,0.0999999999999999,100.0,1044.0,24327.0,4885.0,99.0,1053.8,154.4,4880.2,84.391556,3.8467222,0.06179759,0.0016422635,-1.704353,59.23,0.072445755,0.0065218145,-1.6343865,0.5895187799999999,1.03041486,6.039518800000001,51.0,5.4,-67.8,-15.2,-4.2,254.8,-1058.4,-16.0,302.8,1017.189,-3.8560936,3301.6,0.072445755,0.037647665,0.0065218145,0.013604215,-1.6343865,0.0075470105,59230.0,26634.0,29740.0,0.0,24.0,21.0,0,None
2023-01-03 08:41:25.650,293.50600000000003,0.0999999999999942,100.0,1096.0,24303.0,4883.0,99.0,1051.5,155.83333333333334,4880.833333333333,84.23826666666666,3.871234,0.0604091733333333,0.001175056434,-1.7037003333333332,59.23,0.0710040366666666,0.0053756933333333,-1.634392,0.5542966666666667,1.1486410166666667,5.506402333333333,60.66666666666666,-10.333333333333334,-60.66666666666666,-3.0,-3.1666666666666665,258.8333333333333,-1058.5,12.833333333333334,317.8333333333333,1017.1855,-3.8595701666666673,3303.0,0.0710040366666666,0.0031192253333333,0.0053756933333333,-0.0131290396666666,-1.634392,-0.0211468863333333,59230.0,26642.0,29740.0,0.0,19.0,19.0,0,None
2023-01-03 08:41:26.200,294.0559999999999,0.0999999999999999,100.0,1013.0,24337.0,4888.0,99.0,1046.8,157.6,4883.8,84.09456200000001,3.8939132,0.06181413,-0.0013481875666666,-1.7038643333333334,59.23666666666667,0.0738104066666666,0.0039722493333333,-1.634707666666667,0.58795312,1.1950314,5.912699000000001,49.6,6.6,-62.4,-40.6,33.0,249.0,-1037.6,1.6,314.2,1017.1948,-3.8501872,3304.6,0.0738104066666666,0.0242887866666666,0.0039722493333333,0.0017753429999999,-1.634707666666667,0.0069380973333333,59240.0,26629.0,29750.0,-2.0,14.0,19.0,0,None
2023-01-03 08:41:26.750,294.60599999999994,0.1000000000000037,100.0,1164.0,24291.0,4888.0,99.0,1085.6666666666667,159.16666666666666,4885.833333333333,83.96408666666666,3.914142333333334,0.0686176433333333,0.0046547893333333,-1.7043873333333333,59.23,0.0807652266666666,0.0095194366666666,-1.635949,0.6193013833333333,1.0132214,4.995416666666666,55.833333333333336,14.666666666666666,-63.16666666666666,-25.33333333333333,12.333333333333334,255.5,-1074.0,-11.0,310.0,1017.1796666666664,-3.8654555,3306.1666666666665,0.0807652266666666,0.0240797366666666,0.0095194366666666,0.0126133793333333,-1.635949,-3.141600000000055e-05,59230.0,26629.0,29740.0,-3.0,13.0,19.0,0,None
2023-01-03 08:41:27.300,295.156,0.0999999999999999,100.0,1085.0,24305.0,4861.0,99.0,1114.4,160.8,4882.0,83.83408999999999,3.9337928,0.0739908649999999,0.01326109,-1.7017595,59.24,0.086537095,0.01744324,-1.633522,0.62436702,1.15285552,7.3218772,60.6,3.6,-67.0,-28.0,21.8,266.4,-1031.4,13.4,299.2,1017.1666,-3.8785782,3307.4,0.086537095,0.0313169065,0.01744324,-0.002368476,-1.633522,0.0125421884999999,59240.0,26639.0,29750.0,-2.0,12.0,18.0,0,None
2023-01-03 08:41:27.850,295.706,0.1000000000000037,100.0,1136.0,24285.5,4887.0,98.16666666666669,1141.3333333333333,162.5,4883.666666666667,83.70110666666666,3.953347333333333,0.07256975,0.0070388933333333,-1.6974143333333334,59.24666666666667,0.08535241,0.011426681,-1.6297749999999998,0.5233118833333333,1.2128923333333332,6.393408666666667,57.5,-17.666666666666668,-63.0,-17.666666666666668,4.833333333333333,262.5,-1053.5,3.6666666666666665,312.8333333333333,1017.1766666666666,-3.868463333333333,3308.833333333333,0.08535241,0.0032817893333333,0.011426681,-0.019623902,-1.6297749999999998,-0.002212058,59250.0,26660.0,29760.0,2.0,15.0,18.0,0,None
2023-01-03 08:41:28.400,296.25600000000003,0.0999999999999999,100.0,1027.0,24340.0,4896.0,98.0,1102.4,164.4,4887.2,83.56665600000001,3.972572800000001,0.0661396,0.0041716893333333,-1.6984533333333334,59.26666666666667,0.0791112566666666,0.0096817026666666,-1.630839666666667,0.58000568,1.10386116,6.3802840000000005,59.6,10.6,-72.2,-19.4,-5.0,252.8,-1056.6,-7.8,311.6,1017.1758000000002,-3.8692656,3310.2,0.0791112566666666,0.0073060266666666,0.0096817026666666,0.0108732433333333,-1.630839666666667,0.0039263651666666,59260.0,26657.0,29770.0,1.0,15.0,17.0,0,None
2023-01-03 08:41:28.950,296.80600000000004,0.0999999999999942,100.0,1046.0,24347.0,4893.0,98.0,1034.6666666666667,165.83333333333334,4882.166666666667,83.438685,3.9908595,0.0648906233333333,0.009878822,-1.7024213333333336,59.28333333333333,0.0785145199999999,0.0150730266666666,-1.6352353333333334,0.5470903666666667,1.1710780166666666,5.954462833333333,53.333333333333336,16.166666666666668,-64.5,-40.833333333333336,24.666666666666668,255.83333333333331,-1063.5,-9.0,308.0,1017.1996666666664,-3.845611833333333,3311.6666666666665,0.0785145199999999,-0.005704583,0.0150730266666666,0.0083114372,-1.6352353333333334,-0.0104647826666666,59280.0,26650.0,29790.0,0.0,14.0,17.0,0,None
2023-01-03 08:41:29.500,297.35600000000005,0.0999999999999999,100.0,1050.0,24337.0,4896.0,98.0,1058.6,167.6,4888.0,83.311634,4.0086186,0.06763978,0.0129839999999999,-1.70679,59.27,0.08167444,0.01792089,-1.639654,0.54706948,0.92592532,4.503926000000001,54.0,7.0,-71.0,-26.2,7.4,253.0,-1077.6,-23.0,307.6,1017.1952,-3.8498434,3312.8,0.08167444,0.01784099,0.01792089,0.009960711,-1.639654,0.011313096,59280.0,26614.0,29790.0,1.0,13.0,16.0,0,None
2023-01-03 08:41:30.050,297.906,0.1000000000000037,100.0,1124.0,24261.0,4895.0,98.0,1095.3333333333333,169.16666666666666,4888.0,83.17757666666667,4.026333999999999,0.0745209933333333,0.0133393699999999,-1.7069853333333331,59.25,0.0891427566666666,0.01789131,-1.6397450000000002,0.6271479166666667,1.0650357166666666,7.3904386666666655,58.16666666666666,-11.333333333333334,-67.33333333333333,-14.666666666666666,15.0,250.0,-1068.6666666666667,5.333333333333333,306.5,1017.1791666666668,-3.865872333333333,3314.333333333333,0.0891427566666666,0.0021029903333333,0.01789131,-0.0108948433333333,-1.6397450000000002,-0.0079313746666666,59250.0,26609.0,29760.0,4.5,15.5,17.0,0,None
2023-01-03 08:41:30.600,298.456,0.0999999999999999,100.0,1064.0,24304.0,4895.0,98.0,1064.6,170.8,4890.8,83.03987,4.043602399999999,0.0749898566666666,0.014941271,-1.7044793333333337,59.26333333333334,0.08940811,0.0197480333333333,-1.637446,0.58255538,1.05671784,5.216211400000001,49.6,23.6,-71.0,-18.6,15.6,246.4,-1060.0,-16.0,304.4,1017.1818,-3.8634218,3315.6,0.08940811,0.014622606,0.0197480333333333,0.0290947833333333,-1.637446,0.003197614,59270.0,26612.0,29780.0,9.0,21.0,18.0,0,None
2023-01-03 08:41:31.150,299.00600000000003,0.0999999999999942,100.0,1113.0,24295.0,4893.0,98.0,1079.8333333333333,172.5,4891.333333333333,82.90629000000001,4.0597916666666665,0.0660535633333333,0.0128203723333333,-1.703925,59.27,0.08035808,0.01710716,-1.6362663333333334,0.5049435333333334,1.0569287333333337,4.955815833333333,60.333333333333336,-22.666666666666668,-70.5,-12.833333333333334,-21.0,251.33333333333331,-1085.0,10.0,298.8333333333333,1017.2081666666668,-3.836783666666667,3317.0,0.08035808,-0.0422462466666666,0.01710716,-0.04392609,-1.6362663333333334,-0.0133907766666666,59270.0,26629.0,29780.0,15.0,24.0,21.0,0,None
2023-01-03 08:41:31.700,299.5564,0.1002000000000065,100.0,992.0,24348.0,4890.0,98.0,992.0,174.0,4888.4,82.76816199999999,4.0757944,0.0595496749999999,0.0009888695,-1.7060485,59.265,0.0744284849999999,0.0052369395,-1.6383735,0.6625770799999999,1.1167819,5.5910762,50.4,-20.4,-64.0,-33.0,7.6,251.2,-1088.0,-2.6,297.8,1017.234,-3.8112968,3318.6,0.0744284849999999,-0.0305861,0.0052369395,-0.011533795,-1.6383735,-0.0026587125,59260.0,26607.0,29770.0,15.0,23.0,21.0,0,None
2023-01-03 08:41:32.250,300.127,0.1299999999999954,100.0,977.0,24325.0,4896.0,98.0,1031.25,175.5,4890.5,82.599485,4.0946525000000005,0.06680914,-0.0013872309999999,-1.707585,59.23333333333333,0.0823978466666666,0.003184181,-1.640428,0.6615565125,1.225637375,6.7908275,42.25,11.875,-64.0,-45.625,36.125,254.375,-1069.25,-21.125,313.375,1017.216375,-3.828759375,3319.875,0.0823978466666666,0.0352897076666666,0.003184181,0.0050420466666666,-1.640428,0.0065704383333333,59230.0,26598.0,29740.0,11.0,21.0,18.0,0,None
2023-01-03 08:41:32.800,300.64683333333335,0.103333333333334,100.0,1061.0,24288.0,4883.0,98.0,1036.1666666666667,177.33333333333334,4893.0,82.48186666666666,4.108276,0.07125058,0.0036861148666666,-1.7060423333333334,59.23,0.0873232766666666,0.008334,-1.6389623333333334,0.6304683666666667,1.2481227333333331,6.93997,49.91666666666666,2.833333333333333,-72.41666666666667,-8.083333333333334,-1.6666666666666667,253.5,-1080.1666666666667,-5.5,305.1666666666667,1017.20775,-3.837558333333333,3321.1666666666665,0.0873232766666666,0.0146489633333333,0.008334,-0.0059354166666666,-1.6389623333333334,0.02818613,59220.0,26596.0,29730.0,11.0,25.0,24.0,0,None
2023-01-03 08:41:33.350,301.2046,0.0999999999999999,100.0,1042.0,24284.0,4896.0,98.0,1036.0,178.8,4893.4,82.359996,4.123265399999999,0.07246081,0.00288929835,-1.702561,59.235,0.08840581,0.0083542865,-1.634867,0.61289784,0.97794366,4.8861398,58.2,-1.2,-69.2,-1.6,5.4,250.0,-1100.2,1.4,291.8,1017.2218,-3.823125,3322.6,0.08840581,0.04312331,0.0083542865,0.005842075,-1.634867,0.032882705,59240.0,26631.0,29750.0,12.0,27.0,20.0,0,None
2023-01-03 08:41:33.900,301.741,0.1120000000000004,100.0,1059.5,24294.5,4897.5,98.0,1134.8,180.4,4881.4,82.26375599999999,4.1357874,0.0756893066666666,-0.0006323627666666,-1.7008706666666669,59.22666666666666,0.0908301833333333,0.0034709146666666,-1.633618,0.47238308,0.99513278,4.3894478,53.4,-18.0,-70.4,-6.4,-6.6,246.0,-1064.2,9.6,310.2,1017.1772,-3.8677656,3323.6,0.0908301833333333,-0.0017069433333333,0.0034709146666666,-0.0209972066666666,-1.633618,0.0079224366666666,59220.0,26642.0,29730.0,15.0,32.0,16.0,0,None
2023-01-03 08:41:34.450,302.2888,0.1120000000000004,100.0,1110.0,24303.0,4901.0,98.0,1069.0,182.2,4892.0,82.158552,4.150712,0.06462583,-0.0070476865,-1.7010275,59.255,0.0801716849999999,-0.0037088915,-1.634376,0.57543214,1.06324548,4.454199399999999,42.0,-6.7,-53.8,-29.4,-15.3,240.6,-1057.8,-13.7,322.9,1017.2002,-3.8450155,3325.1,0.0801716849999999,-0.02322577,-0.0037088915,0.0043263195,-1.634376,0.0048775721499999,59250.0,26633.0,29760.0,16.0,37.0,20.0,0,None
2023-01-03 08:41:35.000,302.833,0.108000000000004,100.0,1032.0,24327.0,4877.0,98.0,1038.8,183.6,4887.4,82.06447399999999,4.1655754,0.05758034,-0.011996544,-1.6974699999999998,59.26,0.0729524966666666,-0.0084043616666666,-1.631266,0.6743273999999999,0.994934,5.9686358,56.0,3.0,-65.4,-2.0,23.6,251.2,-1061.0,1.0,309.8,1017.2104,-3.8348906,3326.6,0.0729524966666666,0.039176466,-0.0084043616666666,-0.014127012,-1.631266,0.0121200229999999,59260.0,26652.0,29770.0,11.0,33.0,17.0,0,None
2023-01-03 08:41:35.550,303.373,0.1039999999999963,100.0,1049.0,24296.0,4896.0,98.0,1097.4,185.4,4890.0,81.98662399999999,4.1793438,0.056887355,-0.0092836465,-1.696143,59.245000000000005,0.07209172,-0.0054573065,-1.6295205,0.56458412,1.03764948,4.9645618,54.8,15.4,-60.8,-21.8,-12.8,253.2,-1086.0,0.6,315.4,1017.2022,-3.8426872,3327.6,0.07209172,0.00103724795,-0.0054573065,0.0133147135,-1.6295205,0.012620852,59250.0,26665.0,29760.0,5.0,30.0,18.0,0,None
2023-01-03 08:41:36.100,303.94683333333336,0.103333333333334,100.0,1015.0,24295.0,4887.0,98.0,1034.8333333333333,187.0,4896.0,81.92074333333333,4.192204666666666,0.0576632966666666,0.0016480845,-1.6985116666666666,59.24333333333334,0.0734593866666666,0.004478952,-1.6323233333333331,0.61032425,1.0224626833333332,5.611398166666667,45.5,-1.8333333333333333,-63.41666666666666,-23.666666666666668,19.33333333333333,250.41666666666663,-1070.6666666666667,-13.333333333333334,297.9166666666667,1017.1945833333334,-3.8505401666666663,3329.333333333333,0.0734593866666666,0.0349160833333333,0.004478952,0.0181791433333333,-1.6323233333333331,0.0026228099999999,59240.0,26649.0,29750.0,4.0,26.0,22.0,0,None
2023-01-03 08:41:36.650,304.5008,0.0999999999999999,100.0,1087.0,24276.0,4904.0,98.0,1056.4,188.6,4894.8,81.867046,4.203112,0.0590656233333333,-0.0060175566666666,-1.6956773333333333,59.25,0.0747356933333333,-0.0027605813,-1.6297316666666666,0.62202994,1.0811344000000005,6.770622400000001,46.0,-13.6,-68.8,-6.2,-2.8,276.8,-1057.2,-8.2,316.6,1017.1894,-3.8559216,3330.6,0.0747356933333333,0.01252983,-0.0027605813,-0.0079932299999999,-1.6297316666666666,0.0069739136,59250.0,26661.0,29760.0,8.0,24.0,16.0,0,None
2023-01-03 08:41:37.200,305.05066666666664,0.1001666666666664,100.0,990.0,24285.0,4890.0,98.0,999.3333333333334,190.33333333333331,4897.666666666667,81.81754666666667,4.213644,0.0614902933333333,-0.0134487533333333,-1.6940513333333334,59.25666666666666,0.07662045,-0.0101289923333333,-1.628267666666667,0.6782904333333334,1.0918678833333333,6.466614833333335,58.833333333333336,10.833333333333334,-65.33333333333333,-10.666666666666666,26.666666666666668,249.33333333333331,-1048.0,10.333333333333334,319.3333333333333,1017.2056666666668,-3.8393488333333337,3332.0,0.07662045,0.0323500833333333,-0.0101289923333333,0.0064228546666666,-1.628267666666667,-7.539253333333316e-06,59255.0,26668.5,29765.0,4.0,23.0,19.5,0,None
2023-01-03 08:41:37.750,305.626,0.108000000000004,100.0,979.0,24309.0,4898.0,98.0,990.8,191.8,4893.0,81.77756600000001,4.223495,0.0633118033333333,-0.0043924573333333,-1.6937259999999998,59.25333333333333,0.0789307733333333,-0.0015232773666666,-1.6288860000000005,0.6944478399999999,1.0696703800000005,5.687013200000001,43.4,-0.8,-62.0,-26.6,10.2,242.0,-1045.8,-1.0,317.2,1017.1816,-3.8635002,3333.4,0.0789307733333333,0.0605191033333333,-0.0015232773666666,-0.007224392,-1.6288860000000005,0.0087013759999999,59260.0,26660.0,29770.0,3.0,24.0,16.0,0,None
2023-01-03 08:41:38.300,306.1656,0.1079999999999926,100.0,1046.0,24299.0,4888.0,98.0,1018.4,193.2,4890.4,81.74812,4.232283799999999,0.06474613,-0.0044665655,-1.6942205,59.275000000000006,0.080358635,-0.001494557,-1.6291515,0.68388878,1.14602,6.213686200000001,44.6,-5.6,-63.8,-24.6,29.4,249.6,-1048.4,-20.6,324.8,1017.1906,-3.8543748,3334.6,0.080358635,-0.001033756,-0.001494557,0.0087316729999999,-1.6291515,0.015139482,59280.0,26667.0,29790.0,1.0,25.0,17.0,0,None
2023-01-03 08:41:38.850,306.678,0.0999999999999999,100.0,959.0,24325.0,4893.0,98.0,959.4,194.6,4890.0,81.723408,4.2413244,0.06739668,-0.0040971133333333,-1.694991,59.28333333333333,0.0824403766666666,-0.0022067240866666,-1.6306496666666668,0.80540316,1.2022626,7.221588199999999,48.0,9.8,-61.2,-10.4,16.6,248.4,-1019.0,-26.2,313.6,1017.1746,-3.8705624,3335.8,0.0824403766666666,0.0200013899999999,-0.0022067240866666,-0.014131586,-1.6306496666666668,0.0049876146666666,59290.0,26649.0,29800.0,0.0,26.0,16.0,0,None
2023-01-03 08:41:39.400,307.228,0.1000000000000037,100.0,1076.5,24273.0,4885.0,98.0,1045.1666666666667,196.16666666666663,4886.666666666667,81.70262666666666,4.250517333333334,0.07519131,-0.0043492264,-1.6969173333333334,59.28666666666666,0.0905896166666666,-0.0014894600333333,-1.632688666666667,0.6101234666666667,1.118553583333333,6.027184500000001,54.66666666666666,8.666666666666666,-68.0,-22.166666666666668,6.166666666666667,252.5,-1079.6666666666667,-6.0,306.1666666666667,1017.1685,-3.8766536666666673,3337.0,0.0905896166666666,-0.0052835596666666,-0.0014894600333333,0.0405446933333333,-1.632688666666667,-0.0121477,59290.0,26645.0,29800.0,-8.0,29.0,12.0,0,None
2023-01-03 08:41:39.950,307.778,0.0999999999999999,100.0,1049.0,24283.0,4883.0,98.0,1027.8,197.6,4890.4,81.682952,4.2605138,0.069672395,0.01671945,-1.704028,59.29,0.085449385,0.01925047,-1.6404085,0.5723414800000001,1.07555968,4.594661,52.0,51.0,-66.8,-27.4,-3.6,256.6,-1084.2,-30.2,314.4,1017.1808,-3.8643438,3338.4,0.085449385,-0.030392427,0.01925047,0.0364965725,-1.6404085,-0.0226325174999999,59290.0,26598.0,29800.0,-9.0,33.0,15.0,0,None
2023-01-03 08:41:40.500,308.32800000000003,0.0999999999999942,100.0,993.0,24297.0,4891.0,98.0,1021.3333333333334,199.33333333333331,4885.833333333333,81.66044,4.270704666666667,0.06062281,0.0293916933333333,-1.7090873333333334,59.29666666666666,0.0764451266666666,0.0314098966666666,-1.6461156666666668,0.7128785666666667,0.9065732166666668,6.988588333333333,58.333333333333336,8.333333333333334,-62.833333333333336,-8.5,-20.33333333333333,261.0,-1101.0,-8.166666666666666,312.1666666666667,1017.1893333333334,-3.855729,3339.6666666666665,0.0764451266666666,-0.0219303443333333,0.0314098966666666,0.0091956833333333,-1.6461156666666668,0.0065621099999999,59290.0,26568.0,29800.0,0.0,33.0,14.0,0,None
2023-01-03 08:41:41.050,308.87800000000004,0.0999999999999999,100.0,849.0,24335.0,4883.0,98.0,951.2,200.8,4894.6,81.62666800000002,4.2805442,0.05881208,0.0293696733333333,-1.7125096666666666,59.29333333333333,0.07462016,0.0312285533333333,-1.648416,0.73656682,0.93323774,7.2326582,65.0,-10.6,-73.2,-0.6,39.4,255.6,-1077.8,12.4,290.0,1017.1942,-3.8508278,3341.2,0.07462016,-0.0583068566666666,0.0312285533333333,-0.0368895043333333,-1.648416,0.0266541066666666,59300.0,26549.0,29810.0,12.0,29.0,15.0,0,None
2023-01-03 08:41:41.600,309.42800000000005,0.1000000000000037,100.0,922.0,24332.0,4895.0,98.0,964.6666666666666,202.33333333333331,4890.5,81.57013666666667,4.2902716666666665,0.0671928233333333,0.005363555,-1.706036,59.28666666666667,0.08217714,0.0078998186666666,-1.6419736666666669,0.7206963833333333,1.1256546833333334,7.522086833333333,56.16666666666666,-44.16666666666666,-66.83333333333333,12.333333333333334,16.833333333333332,253.5,-1096.8333333333333,5.0,306.3333333333333,1017.1978333333332,-3.8472916666666666,3342.333333333333,0.08217714,0.0085804766666666,0.0078998186666666,-0.0409059733333333,-1.6419736666666669,0.0164515276666666,59290.0,26587.0,29800.0,24.0,23.0,17.0,0,None
2023-01-03 08:41:42.150,309.97799999999995,0.0999999999999999,100.0,934.0,24350.0,4882.0,98.0,994.6,203.6,4894.4,81.49941799999999,4.2997052,0.0738791749999999,-0.0075161625,-1.7065755,59.27,0.08877339,-0.003696963,-1.6427875,0.68593836,1.3281094,8.281841400000001,63.0,-12.8,-70.4,-12.6,-15.6,247.4,-1172.2,-8.8,298.6,1017.198,-3.8469374,3343.6,0.08877339,0.03343647,-0.003696963,0.0006770139999999,-1.6427875,0.007962784,59280.0,26586.0,29790.0,23.0,25.0,18.0,0,None
2023-01-03 08:41:42.700,310.528,0.1000000000000037,100.0,911.0,24332.0,4896.0,98.0,974.1666666666666,205.33333333333331,4888.833333333333,81.43351833333334,4.3086925,0.07041292,0.002297591,-1.7075736666666668,59.26666666666667,0.0852934799999999,0.005696394,-1.6439663333333332,0.5528872333333333,1.361467,7.721391000000001,58.0,9.666666666666666,-70.16666666666667,-3.8333333333333335,-36.16666666666666,251.66666666666663,-1183.5,-1.8333333333333333,305.1666666666667,1017.1775,-3.8677345,3345.333333333333,0.0852934799999999,-0.0359838633333333,0.005696394,0.0179416926666666,-1.6439663333333332,0.009523741,59260.0,26578.0,29770.0,13.0,29.0,19.0,0,None
2023-01-03 08:41:43.250,311.07800000000003,0.0999999999999999,100.0,966.0,24315.0,4882.0,98.0,949.6,206.6,4892.4,81.374412,4.317597000000001,0.06293532,0.007239755,-1.71146,59.29,0.0789183433333333,0.0110743103333333,-1.6480353333333333,0.59182246,1.0851063,6.920672400000001,53.4,7.4,-67.2,0.4,-17.0,248.0,-1084.2,-13.2,293.2,1017.1650000000002,-3.8802654,3346.4,0.0789183433333333,-0.0102606937333333,0.0110743103333333,-0.0047844959999999,-1.6480353333333333,0.002925741,59280.0,26576.0,29790.0,11.0,32.0,19.0,0,None
2023-01-03 08:41:43.800,311.628,0.0999999999999942,100.0,1005.0,24304.0,4896.0,98.0,971.3333333333334,208.33333333333331,4891.166666666667,81.31545,4.326699666666666,0.0605537966666666,0.0122041726666666,-1.7135490000000002,59.31,0.0767801033333333,0.0160758399999999,-1.6500126666666668,0.5235755666666666,1.01195695,6.077181166666667,57.16666666666666,11.666666666666666,-69.83333333333333,-20.166666666666668,5.833333333333333,254.16666666666663,-1048.3333333333333,-15.333333333333334,314.8333333333333,1017.1476666666669,-3.897499833333334,3347.5,0.0767801033333333,-0.0024661223333333,0.0160758399999999,-0.0043472089999999,-1.6500126666666668,0.0135566583333333,59305.0,26544.5,29815.0,6.5,31.5,12.5,0,None
2023-01-03 08:41:44.350,312.178,0.0999999999999999,100.0,1029.0,24277.0,4877.0,98.0,994.2,209.6,4889.4,81.254248,4.335418799999999,0.057671285,0.015618975,-1.715239,59.325,0.0736967299999999,0.018957045,-1.6516705,0.59405178,1.0628699,5.770715,53.4,2.6,-65.6,-12.6,18.4,255.2,-1065.2,-4.4,309.8,1017.1428,-3.9023592,3348.8,0.0736967299999999,-0.023316875,0.018957045,-0.0033134239999999,-1.6516705,0.0156387799999999,59330.0,26540.0,29840.0,7.0,29.0,15.0,0,None
2023-01-03 08:41:44.900,312.728,0.1000000000000037,100.0,957.5,24330.5,4890.5,98.0,977.1666666666666,211.33333333333331,4892.166666666667,81.19436166666667,4.342725000000001,0.0645373866666666,0.0197297666666666,-1.7105150000000002,59.35,0.0814728533333333,0.02344731,-1.647176,0.5750013833333333,1.155232466666667,6.579429,50.833333333333336,-0.5,-71.33333333333333,-21.166666666666668,26.666666666666668,253.66666666666663,-1035.8333333333333,0.6666666666666666,313.1666666666667,1017.135,-3.910039,3350.1666666666665,0.0814728533333333,0.0120805796666666,0.02344731,-0.01491939,-1.647176,0.017964026,59360.0,26568.0,29870.0,9.0,27.0,9.0,0,None
2023-01-03 08:41:45.450,313.278,0.0999999999999999,100.0,1014.0,24285.0,4896.0,98.0,1004.2,212.6,4892.4,81.118528,4.3506418,0.06885477,0.0196685533333333,-1.7126573333333333,59.37,0.0853031266666666,0.0229119,-1.6484163333333337,0.5538430799999999,1.1435604,5.867547,62.4,7.2,-74.4,-16.0,14.6,262.0,-1026.2,5.2,304.0,1017.1098,-3.9354528,3351.2,0.0853031266666666,-0.0096411286666666,0.0229119,-0.0038412526666666,-1.6484163333333337,0.0025834283333333,59370.0,26555.0,29880.0,8.0,27.0,10.0,0,None
2023-01-03 08:41:46.000,313.82800000000003,0.0999999999999942,100.0,971.0,24306.0,4887.0,98.0,1023.0,214.33333333333331,4884.666666666667,81.03443333333333,4.358417,0.0683669333333333,0.0231500833333333,-1.7150603333333334,59.39666666666667,0.0844664433333333,0.0266894233333333,-1.6511283333333333,0.5148595166666666,1.0328947166666669,5.591157333333332,53.5,1.0,-72.16666666666667,-21.0,-11.5,257.6666666666667,-1067.6666666666667,17.5,303.0,1017.1355,-3.9095961666666663,3352.833333333333,0.0844664433333333,0.0325426283333333,0.0266894233333333,0.0169754799999999,-1.6511283333333333,-0.0012324699999999,59390.0,26539.0,29900.0,12.0,29.0,6.0,0,None
