00000_Time_epoch,00000_Time_boot_sec,00000_Span_Time_boot_sec,1_battery_remaining_avg,1_current_battery_avg,1_voltage_battery_avg,125_Vcc_avg,147_battery_remaining_avg,147_current_battery_avg,147_current_consumed_avg,165_Vcc_avg,168_direction_avg,168_speed_avg,178_pitch_avg,178_roll_avg,178_yaw_avg,182_altitude_avg,182_pitch_avg,182_roll_avg,182_yaw_avg,241_vibration_x_avg,241_vibration_y_avg,241_vibration_z_avg,27_xacc_avg,27_xgyro_avg,27_xmag_avg,27_yacc_avg,27_ygyro_avg,27_ymag_avg,27_zacc_avg,27_zgyro_avg,27_zmag_avg,29_press_abs_avg,29_press_diff_avg,29_temperature_avg,30_pitch_avg,30_pitchspeed_avg,30_roll_avg,30_rollspeed_avg,30_yaw_avg,30_yawspeed_avg,33_alt_avg,33_hdg_avg,33_relative_alt_avg,33_vx_avg,33_vy_avg,33_vz_avg,label,diagnosis
2023-01-01 06:06:40.550,157.483,0.104000000000002,100.0,90.0,25154.0,4888.0,99.0,88.6,35.0,4866.8,-148.74536,0.2170229,-0.0037008644999999,-0.017252945,-1.1953844999999998,32.015,0.00078827095,-0.01605304,-1.2136685,0.025259852,0.02421342,0.035469524,-17.3,0.1,87.8,1.4,4.2,255.6,-1045.3,-0.6,341.9,1022.0006,-0.25371873,2620.7,0.00078827095,0.0047181529999999,-0.01605304,0.0003802741999999,-1.2136685,-0.0006856617899999,32000.0,29046.0,80.0,-4.0,14.0,27.0,0,None
2023-01-01 06:06:41.100,158.04366666666667,0.1033333333333293,100.0,87.0,25151.5,4869.0,99.0,83.5,35.0,4875.833333333333,-149.81477999999998,0.1900943799999999,-0.0031646563333333,-0.0176495933333333,-1.1945033333333337,32.083333333333336,0.0007883108666666,-0.0162396333333333,-1.2134896666666668,0.0241872266666666,0.0243197666666666,0.0349097583333333,-17.166666666666668,0.1666666666666666,88.16666666666667,1.8333333333333333,3.6666666666666665,255.66666666666663,-1045.6666666666667,-0.3333333333333333,342.5,1021.9928333333332,-0.2616666666666666,2622.333333333333,0.0007883108666666,0.0045545586666666,-0.0162396333333333,0.0005318297166666,-1.2134896666666668,-0.0008927668333333,32060.0,29047.0,140.0,-4.0,14.0,28.0,0,None
2023-01-01 06:06:41.650,158.591,0.0999999999999999,100.0,86.0,25165.0,4879.0,99.0,85.0,35.0,4873.6,-150.24788,0.20033978,-0.003836601,-0.0170419466666666,-1.1933956666666667,32.15,0.0007421489333333,-0.0162648066666666,-1.2131606666666668,0.024786996,0.023555852,0.037700338,-17.4,1.0,87.4,2.0,4.0,255.2,-1046.6,-0.4,342.6,1021.9896,-0.26465624,2624.0,0.0007421489333333,0.0045848576666666,-0.0162648066666666,0.00031132808,-1.2131606666666668,-0.0010851134666666,32120.0,29049.0,200.0,-4.0,14.0,28.0,0,None
2023-01-01 06:06:42.200,159.1436666666667,0.1000000000000037,100.0,138.0,25088.0,4853.0,99.0,178.5,36.0,4866.333333333333,-150.40041666666667,0.2263342333333333,-0.00395599,-0.0169840033333333,-1.193738,32.21,0.0005435642333333,-0.01614992,-1.212795,0.1020922283333333,0.2028025683333333,0.5682336283333332,-32.333333333333336,0.1666666666666666,73.66666666666667,-0.8333333333333334,2.1666666666666665,250.83333333333331,-1056.8333333333333,-9.833333333333334,338.5,1021.9988333333334,-0.2554948,2625.5,0.0005435642333333,0.0009249439999999,-0.01614992,0.0004828815333333,-1.212795,0.0029411446666666,32205.0,29050.5,285.0,-3.5,14.0,29.5,0,None
2023-01-01 06:06:42.750,159.74033333333333,0.0966666666666639,100.0,130.0,25122.0,4867.0,99.0,127.33333333333331,36.0,4866.5,-150.31733333333332,0.2601160333333333,-0.0033040636666666,-0.01726674,-1.1954686666666667,32.27,0.0005855343,-0.0161748866666666,-1.2134213333333337,0.126365455,0.25739585,0.6487291000000001,-13.333333333333334,-0.3333333333333333,77.66666666666667,6.5,4.0,256.5,-1047.5,-0.5,341.1666666666667,1022.0193333333332,-0.2349218833333333,2627.1666666666665,0.0005855343,0.00402279,-0.0161748866666666,0.0003280533333333,-1.2134213333333337,-0.0123541566666666,32270.0,29049.0,350.0,-3.0,14.0,30.0,0,None
2023-01-01 06:06:43.300,160.291,0.0999999999999999,100.0,131.0,25135.0,4875.0,99.0,129.0,36.0,4871.8,-150.10528,0.29725774,-0.0035181475,-0.017830455,-1.195665,32.305,0.0006613266,-0.016253125,-1.2134605,0.1067536999999999,0.27922816,0.61793028,-17.4,0.8,78.2,3.0,4.0,254.2,-1046.2,5.4,340.6,1022.0016,-0.25290624,2628.6,0.0006613266,0.0045090825,-0.016253125,0.000103929,-1.2134605,0.0013376849999999,32310.0,29050.0,390.0,-3.0,14.0,30.0,0,None
2023-01-01 06:06:43.850,160.791,0.0999999999999999,100.0,1664.0,24393.0,4867.0,99.0,1078.8,36.8,4870.0,-149.78000000000003,0.33638858,0.0091928366666666,-0.0167074266666666,-1.200156,32.35333333333333,0.0133985568666666,-0.01520965,-1.2171299999999998,0.356531806,0.8130573,3.39125848,-23.4,9.6,68.0,-35.6,77.8,245.8,-1129.0,-9.8,317.4,1022.1914,-0.062890634,2630.2,0.0133985568666666,0.0528834533333333,-0.01520965,-0.0216813633333333,-1.2171299999999998,0.0021838266666666,32350.0,29020.0,430.0,-5.0,15.0,41.0,0,None
2023-01-01 06:06:44.400,161.35033333333334,0.103333333333334,100.0,1721.0,24323.0,4874.0,99.0,1590.5,39.16666666666666,4872.833333333333,-150.01026666666667,0.3814723333333334,-0.0053545966666666,0.0156372933333333,-1.2039866666666663,32.803333333333335,-0.0010461896666666,0.0166594033333333,-1.2198703333333334,0.4614933333333333,1.355328,7.8275695,4.0,45.333333333333336,48.5,11.5,-111.66666666666669,237.33333333333331,-1290.0,28.33333333333333,297.6666666666667,1022.1283333333332,-0.1259244583333333,2631.6666666666665,-0.0010461896666666,-0.1554486133333333,0.0166594033333333,-0.03715192,-1.2198703333333334,0.034363469,32730.0,28993.0,810.0,-6.0,26.0,151.0,0,None
2023-01-01 06:06:44.950,161.923,0.104000000000002,100.0,1892.0,24220.0,4869.0,99.0,1901.2,41.8,4868.8,-151.31099999999998,0.42322294,-0.0277622449999999,-0.023270625,-1.1914105,33.7,-0.02195317,-0.02432241,-1.205987,0.47350704,1.6994122,6.240987,-3.2,-52.2,69.8,-17.2,9.2,241.2,-1244.4,15.2,298.6,1021.826,-0.4283906199999999,2633.2,-0.02195317,0.006237585,-0.02432241,-0.0953037515,-1.205987,0.0276025949999999,33580.0,29089.0,1660.0,16.0,8.0,255.0,0,None
2023-01-01 06:06:45.500,162.439,0.1039999999999963,100.0,1275.0,24463.0,4879.0,99.0,1468.2,44.2,4872.8,-152.3924,0.4544252199999999,-0.0124659166666666,-0.015974261,-1.172372,35.056666666666665,-0.0073631256666666,-0.016090776,-1.2009123333333331,0.46887752,1.399357,5.9640192,-5.6,-58.2,71.8,-4.0,115.6,251.0,-1157.0,68.2,325.4,1021.6946,-0.55964062,2634.8,-0.0073631256666666,0.1093330266666666,-0.016090776,-0.0846521,-1.2009123333333331,0.07361055,34930.0,29182.0,3010.0,21.0,-20.0,333.0,0,None
2023-01-01 06:06:46.050,163.0136666666667,0.103333333333334,100.0,1249.0,24477.0,4850.0,99.0,1452.8333333333333,46.66666666666666,4871.5,-154.2281,0.4833524666666666,0.05187054,-0.0568047866666666,-1.1648666666666667,36.9,0.05556095,-0.05473117,-1.2211946666666669,0.3769246166666666,1.5885531666666666,4.8125610000000005,-6.833333333333333,-37.66666666666666,60.0,-18.83333333333333,57.66666666666666,229.66666666666663,-1062.6666666666667,-26.5,340.5,1021.4671666666668,-0.7869270666666667,2636.1666666666665,0.05556095,0.1181023886666666,-0.05473117,-0.09970705,-1.2211946666666669,-0.0190042166666666,36480.0,29028.0,4560.0,3.0,-28.0,337.0,0,None
2023-01-01 06:06:46.600,163.587,0.1079999999999983,100.0,1030.0,24547.0,4879.5,99.0,1233.0,48.8,4874.4,-156.29206,0.5055038,0.0251077533333333,-0.0312241266666666,-1.16336,38.66666666666666,0.0301278299999999,-0.0296135033333333,-1.2182696666666668,0.4941331599999999,1.5622404,8.3162152,10.3,69.8,66.6,-8.8,-9.4,234.7,-963.9,1.8,341.4,1021.2074,-1.04719514,2637.8,0.0301278299999999,-0.1134845233333333,-0.0296135033333333,0.2085426,-1.2182696666666668,0.01193773,37980.0,28983.0,6060.0,-26.0,-24.0,324.0,0,None
2023-01-01 06:06:47.150,164.107,0.0999999999999999,100.0,1073.0,24511.0,4869.0,99.0,1074.2,50.4,4870.6,-159.61162000000002,0.52110386,0.048734765,0.03541805,-1.1751494999999998,39.87,0.05552625,0.037184045,-1.2291485,0.64397964,1.40026556,7.590718199999999,30.4,156.8,56.4,-31.0,36.4,264.8,-811.2,-45.8,336.0,1021.046,-1.2082343999999998,2639.6,0.05552625,0.120152115,0.037184045,0.068998675,-1.2291485,-0.049820315,39370.0,29025.0,7450.0,-46.0,-28.0,268.0,0,None
2023-01-01 06:06:47.700,164.631,0.108000000000004,100.0,898.0,24596.0,4883.0,99.0,1145.2,52.0,4869.4,-162.70206000000002,0.5263817399999999,0.0456123233333333,0.0973831033333333,-1.2010983333333334,40.52333333333333,0.05069132,0.09703916,-1.2535453333333333,0.4553741999999999,1.3520725400000002,4.953964999999999,36.0,105.2,48.8,-48.8,-5.8,280.6,-809.2,-43.8,313.4,1020.9866,-1.2674062,2641.0,0.05069132,0.0129372133333333,0.09703916,0.0654591363333333,-1.2535453333333333,-0.04423165,40280.0,28877.0,8360.0,-47.0,-29.0,163.0,0,None
2023-01-01 06:06:48.250,165.197,0.099999999999999,100.0,546.0,24732.0,4882.0,99.0,986.3333333333334,53.833333333333336,4866.166666666667,-167.10833333333332,0.5215206333333334,0.0501115166666666,0.0728089833333333,-1.2167386666666669,40.81,0.05551489,0.0722992233333333,-1.266806,0.5102376833333333,1.1393918166666668,3.936822333333333,27.5,-90.33333333333331,47.833333333333336,-30.83333333333333,28.666666666666668,282.5,-976.8333333333334,-18.0,311.0,1020.9555,-1.2987238333333335,2642.6666666666665,0.05551489,0.0665967666666666,0.0722992233333333,-0.08759544,-1.266806,-0.02458724,40785.0,28749.0,8865.0,-1.0,-14.0,61.0,0,None
2023-01-01 06:06:48.800,165.747,0.0999999999999999,100.0,984.0,24559.0,4888.0,99.0,1089.4,55.4,4872.6,-172.79736,0.50612656,0.064608295,0.04932421,-1.2211315,40.855,0.070985835,0.04914801,-1.2689215,0.70449968,1.1891851,6.467121000000001,46.4,-13.0,35.8,-27.6,25.6,275.0,-997.8,-8.2,308.8,1020.9242,-1.3300782,2644.4,0.070985835,-0.042878935,0.04914801,0.01023239,-1.2689215,-0.0081942671,40850.0,28750.0,8930.0,26.0,0.0,25.0,0,None
2023-01-01 06:06:49.350,166.297,0.099999999999999,100.0,1484.0,24319.0,4882.0,99.0,1237.5,57.16666666666666,4870.166666666667,-0.2760833333333276,0.4926251333333333,0.0803404366666666,0.0245932871,-1.208721333333333,40.830000000000005,0.08644688,0.0257551469999999,-1.253767,0.5467653499999999,1.6487438333333335,5.3156688333333335,41.0,-101.0,32.666666666666664,-64.66666666666667,78.66666666666667,251.33333333333331,-1018.8333333333334,4.333333333333333,316.3333333333333,1020.9031666666666,-1.3512891666666669,2645.5,0.08644688,0.0774969166666666,0.0257551469999999,-0.0978294966666666,-1.253767,0.0093371266666666,40820.0,28843.0,8900.0,22.0,13.0,29.0,0,None
2023-01-01 06:06:49.900,166.85520000000002,0.104000000000002,100.0,1365.0,24323.0,4879.0,99.0,1249.6,59.0,4863.2,170.88906000000003,0.4918676799999999,0.0958169899999999,0.0178867696666666,-1.2215176666666665,40.81333333333333,0.10220867,0.019794673,-1.2651896666666664,0.5367445,2.152061,10.4669816,51.4,61.4,23.4,-32.4,-30.0,259.2,-1041.8,-9.0,331.8,1020.9038,-1.3504846,2647.6,0.10220867,-0.0795557066666666,0.019794673,0.0789027633333333,-1.2651896666666664,-0.02336318,40810.0,28765.0,8890.0,4.0,29.0,29.0,0,None
2023-01-01 06:06:50.450,167.38759999999996,0.1079999999999983,100.0,1131.0,24447.0,4882.0,99.0,1221.4,60.6,4867.2,160.71337999999997,0.5087498,0.074432615,0.03960711,-1.2258605,40.82,0.0815567399999999,0.04136822,-1.2684985,0.48548,1.5485016000000005,6.0125062,39.6,-21.2,34.6,-42.0,-17.7,258.5,-1064.6,1.6,334.3,1020.8986,-1.3556405,2648.5,0.0815567399999999,-0.08372172,0.04136822,-0.088987099,-1.2684985,-0.0114976215,40820.0,28731.0,8900.0,-1.0,41.0,19.0,0,None
2023-01-01 06:06:51.000,167.94750000000002,0.0999999999999989,100.0,1064.0,24470.0,4879.0,99.0,990.3333333333334,62.5,4873.166666666667,149.88629999999998,0.5521594,0.0534160599999999,0.0326783633333333,-1.2432203333333331,40.81666666666667,0.05978858,0.0340073066666666,-1.284355,0.5518287000000001,1.5302560000000005,8.426085,30.166666666666668,47.833333333333336,41.833333333333336,-18.5,-50.0,261.6666666666667,-1061.5,-27.83333333333333,327.8333333333333,1020.9386666666666,-1.3155208333333337,2650.5,0.05978858,-0.0826603433333333,0.0340073066666666,0.1441998556666666,-1.284355,-0.0232783533333333,40820.0,28613.0,8900.0,-3.0,53.0,26.0,0,None
2023-01-01 06:06:51.550,168.5158,0.104000000000002,100.0,1192.0,24423.0,4877.0,99.0,1171.2,64.0,4874.6,141.55954,0.60421956,0.0464596566666666,0.0283447233333333,-1.2338196666666663,40.76333333333333,0.0535499666666666,0.0294853866666666,-1.273612,0.4228452,1.3111344800000002,7.7201886,19.2,-61.2,43.8,-47.6,2.0,255.6,-1041.6,35.0,331.8,1020.911,-1.3432656,2652.4,0.0535499666666666,-0.0259999366666666,0.0294853866666666,-0.0869042233333333,-1.273612,0.0697399233333333,40760.0,28673.0,8840.0,2.0,56.0,19.0,0,None
2023-01-01 06:06:52.100,169.0638,0.1081999999999993,100.0,1149.0,24427.0,4875.0,99.0,1059.8,66.0,4863.8,135.50182,0.64877988,0.0154516404999999,0.0312618449999999,-1.216385,40.73,0.02182345,0.03284183,-1.255066,0.47553626,2.0850358000000004,7.733940800000001,16.6,35.2,56.0,-53.2,-92.8,263.0,-1060.6,6.0,333.6,1020.9338,-1.3205156,2654.0,0.02182345,-0.12963449,0.03284183,0.09921397,-1.255066,-0.007515415,40720.0,28811.0,8800.0,-4.0,59.0,28.0,0,None
2023-01-01 06:06:52.650,169.60399999999998,0.1079999999999983,100.0,1083.5,24455.0,4876.0,99.0,1102.8,67.4,4870.2,128.95598,0.7041691999999999,0.0007086063333333,0.03097297,-1.2209716666666666,40.696666666666665,0.007906938,0.0318077533333333,-1.2574323333333333,0.5535534,1.1858557399999998,5.3763722000000005,28.3,19.9,62.9,-11.6,13.1,260.6,-1059.7,0.0,316.7,1020.9712,-1.2829374999999998,2655.6,0.007906938,0.0108334233333333,0.0318077533333333,0.0107594766666666,-1.2574323333333333,-0.0175433883333333,40710.0,28807.0,8790.0,3.0,41.0,22.0,0,None
2023-01-01 06:06:53.200,170.16466666666665,0.099999999999999,100.0,1303.0,24304.0,4871.0,99.0,1180.3333333333333,69.16666666666667,4874.166666666667,123.7348,0.7499189666666667,0.02890743,0.0169130036666666,-1.213558666666667,40.60333333333333,0.0356600266666666,0.0187534826666666,-1.2478763333333334,0.4820480833333333,1.2570023666666663,4.401923333333333,15.333333333333334,-66.16666666666667,55.333333333333336,-35.833333333333336,66.83333333333333,256.0,-1088.0,24.83333333333333,318.1666666666667,1020.9668333333332,-1.2875518333333331,2657.1666666666665,0.0356600266666666,0.04621723,0.0187534826666666,-0.0637846866666666,-1.2478763333333334,0.0247881899999999,40620.0,28820.0,8700.0,15.0,27.0,24.0,0,None
2023-01-01 06:06:53.750,170.736,0.108000000000004,100.0,1160.0,24409.0,4850.0,99.0,1194.6,71.0,4867.4,119.20854,0.7921395,0.03526998,0.0034571642333333,-1.2160973333333334,40.53,0.0400185033333333,0.0053537463333333,-1.248458,0.44763546,1.637117,7.3756018,14.0,7.8,56.2,-21.2,-47.6,260.8,-1087.2,-19.2,332.8,1020.9686,-1.2856406,2658.8,0.0400185033333333,-0.0035943266666666,0.0053537463333333,0.0092168669999999,-1.248458,-0.0352306933333333,40540.0,28875.0,8620.0,7.0,23.0,28.0,0,None
2023-01-01 06:06:54.300,171.25179999999995,0.103800000000001,100.0,1248.0,24351.0,4875.0,99.0,1246.8,73.0,4867.8,115.94226,0.83018438,0.022061445,0.0083151875,-1.224445,40.505,0.0266489,0.0095179415,-1.2558755,0.3325946199999999,1.9469844000000005,6.9204644,12.4,6.2,53.8,-42.2,-14.0,249.0,-1007.0,-0.8,320.8,1020.9784,-1.2758282,2660.2,0.0266489,-0.030375462,0.0095179415,-0.0004048274999999,-1.2558755,0.025842785,40520.0,28813.0,8600.0,-3.0,23.0,28.0,0,None
2023-01-01 06:06:54.850,171.798,0.0968333333333314,100.0,1259.0,24333.0,4880.0,99.0,1220.8333333333333,74.83333333333333,4865.666666666667,112.7597,0.8766542666666667,0.0149749833333333,0.0140615173333333,-1.2203946666666663,40.47333333333333,0.0205544033333333,0.0158651416666666,-1.2502163333333334,0.2915256833333333,2.1969526666666668,8.662480833333333,17.333333333333332,32.833333333333336,57.333333333333336,-48.66666666666666,-22.83333333333333,254.66666666666663,-1021.0,-10.0,323.5,1020.9766666666666,-1.277617166666667,2661.6666666666665,0.0205544033333333,0.0006973773333333,0.0158651416666666,0.0423967333333333,-1.2502163333333334,0.0045035823333333,40470.0,28830.5,8550.0,-9.5,19.0,31.0,0,None
2023-01-01 06:06:55.400,172.34799999999998,0.0999999999999999,100.0,1209.0,24333.0,4879.0,99.0,1237.2,76.8,4869.6,110.08436000000002,0.92131528,-0.013792746,0.0180033969999999,-1.213012,40.446666666666665,-0.0078848539,0.0193780046666666,-1.2412393333333334,0.35982008,1.6148332,6.794833199999999,3.8,-41.4,67.0,-28.4,-9.6,255.8,-1123.4,56.6,325.4,1020.9666,-1.2876562,2663.6,-0.0078848539,-0.0118056899999999,0.0193780046666666,-0.0488392199999999,-1.2412393333333334,0.0226393696666666,40440.0,28946.0,8520.0,-7.0,-2.0,38.0,0,None
2023-01-01 06:06:55.950,172.91466666666665,0.103333333333334,100.0,1161.0,24360.0,4885.0,99.0,1158.0,78.5,4865.333333333333,107.77963333333332,0.9551348,0.021837167,0.011890392,-1.2133763333333334,40.44,0.027931548,0.0148322686666666,-1.2405126666666666,0.4716927833333333,1.5434591666666666,8.432171333333335,3.5,24.83333333333333,70.5,-54.0,96.83333333333331,255.0,-1004.1666666666666,-30.166666666666668,336.3333333333333,1020.949,-1.3052083333333333,2665.0,0.027931548,0.0981574699999999,0.0148322686666666,-0.0064913833333333,-1.2405126666666666,-0.0346129066666666,40440.0,28878.0,8520.0,-13.0,-17.0,30.0,0,None
2023-01-01 06:06:56.500,173.468,0.0999999999999999,100.0,1139.0,24370.0,4866.0,99.0,1168.8,80.4,4860.6,105.44859999999998,0.98117072,0.038257505,0.034080975,-1.237796,40.435,0.04252939,0.03610544,-1.263995,0.48693422,1.356478,6.3943978,24.6,40.2,51.0,-15.2,-6.0,268.6,-1069.6,-38.4,326.8,1020.9626,-1.29175,2666.4,0.04252939,0.042254335,0.03610544,0.0260036455,-1.263995,-0.041847935,40440.0,28745.0,8520.0,-12.0,-15.0,28.0,0,None
2023-01-01 06:06:57.050,174.02133333333333,0.099999999999999,100.0,1027.0,24412.0,4885.0,99.0,1178.5,82.16666666666667,4865.833333333333,103.09183333333333,1.0077745666666666,0.04058099,0.02888127,-1.228571,40.39333333333334,0.04592817,0.0307326366666666,-1.2534556666666667,0.4744968333333334,1.2514911666666666,6.692718333333333,20.83333333333333,-1.8333333333333333,47.833333333333336,-58.833333333333336,5.666666666666667,257.5,-1037.6666666666667,29.166666666666668,322.3333333333333,1020.9756666666666,-1.2786978333333332,2668.1666666666665,0.04592817,0.0375119632,0.0307326366666666,-0.0339407866666666,-1.2534556666666667,0.0243523803333333,40390.0,28838.0,8470.0,-11.0,-12.0,31.0,0,None
2023-01-01 06:06:57.600,174.568,0.0999999999999999,100.0,1232.0,24317.0,4864.0,99.0,1275.4,84.0,4857.4,100.839184,1.0379093999999998,0.0412833666666666,0.0356797899999999,-1.228141666666667,40.336666666666666,0.0457933,0.0393313999999999,-1.2516753333333333,0.5137626599999999,1.1790691399999995,6.8198566,13.8,3.0,52.0,-38.2,12.2,249.2,-1079.6,-9.2,305.2,1020.966,-1.2883438000000005,2669.8,0.0457933,-0.0039565723333333,0.0393313999999999,-0.0149595466666666,-1.2516753333333333,-0.0245609839999999,40340.0,28845.0,8420.0,-8.0,-8.0,28.0,0,None
2023-01-01 06:06:58.150,175.068,0.0999999999999999,100.0,1184.0,24313.0,4874.0,99.0,1154.6,85.6,4866.4,99.007624,1.0672462,0.04285006,0.031552575,-1.2396954999999998,40.32,0.047763755,0.03431077,-1.2626845,0.43798134,1.1049268,5.5358602,27.6,-10.0,48.0,-53.2,16.8,246.6,-987.4,-14.8,301.0,1020.9854,-1.2688748,2671.4,0.047763755,0.0060776925,0.03431077,0.0088180345,-1.2626845,-0.00920257,40320.0,28759.0,8400.0,-3.0,-5.0,31.0,0,None
2023-01-01 06:06:58.700,175.6548333333333,0.1066666666666643,100.0,1194.5,24339.0,4878.5,99.0,1176.1666666666667,87.5,4876.833333333333,96.70129,1.112922,0.0454822766666666,0.0263433533333333,-1.245651,40.303333333333335,0.05034627,0.0294155933333333,-1.2681676666666666,0.6066739666666666,0.9043606833333332,5.257818166666668,23.08333333333333,-8.75,48.16666666666666,-56.0,-4.416666666666667,252.66666666666663,-1074.1666666666667,-16.333333333333332,302.25,1020.9535833333334,-1.3006771666666668,2673.1666666666665,0.05034627,-0.01821968,0.0294155933333333,-0.0174157166666666,-1.2681676666666666,-0.0272493933333333,40310.0,28750.0,8390.0,-3.0,2.0,31.0,0,None
2023-01-01 06:06:59.250,176.212,0.0999999999999999,100.0,1175.0,24307.0,4864.0,99.0,1199.0,89.4,4863.6,95.02516,1.1541382,0.0405439333333333,0.0251280866666666,-1.253658333333333,40.29,0.0459135533333333,0.02853775,-1.2751843333333337,0.4567238,1.3570299,7.357905,20.6,23.8,45.6,-78.2,12.4,257.2,-1031.2,6.2,321.0,1020.9462,-1.3081248,2674.6,0.0459135533333333,-0.0470612559999999,0.02853775,0.0245401466666666,-1.2751843333333337,-0.0060943313333333,40290.0,28678.0,8370.0,-4.0,6.0,28.0,0,None
2023-01-01 06:06:59.800,176.758,0.1000000000000037,100.0,1433.0,24224.0,4871.0,99.0,1324.8333333333333,91.16666666666669,4864.5,93.46206,1.1991876666666668,0.0456083433333333,0.03047566,-1.242557,40.25333333333334,0.05117894,0.0344517766666666,-1.262759,0.33968335,1.8852053333333332,7.778279333333333,27.666666666666668,-19.0,43.66666666666666,-44.333333333333336,-9.666666666666666,254.16666666666663,-1062.8333333333333,19.166666666666668,313.6666666666667,1020.9503333333332,-1.3036848333333333,2676.1666666666665,0.05117894,0.0253452633333333,0.0344517766666666,-0.0640845433333333,-1.262759,0.0168874166666666,40280.0,28740.0,8360.0,-8.0,9.0,27.0,0,None
2023-01-01 06:07:00.350,177.312,0.0999999999999999,100.0,1244.0,24279.0,4877.0,99.0,1208.0,93.4,4873.6,92.077418,1.2463018,0.022096625,0.035357925,-1.242306,40.245000000000005,0.028262185,0.03874115,-1.2607145,0.51219764,1.4755258,6.1871860000000005,19.6,13.4,51.0,-21.8,-4.8,277.8,-1107.2,-1.4,324.4,1020.959,-1.2952186,2677.8,0.028262185,-0.021021495,0.03874115,0.0713857099999999,-1.2607145,-0.00586959,40240.0,28789.0,8320.0,-6.0,13.0,32.0,0,None
2023-01-01 06:07:00.900,177.85800000000003,0.099999999999999,100.0,1188.0,24306.0,4874.0,99.0,1199.1666666666667,95.16666666666669,4871.5,90.83246333333334,1.2916705000000002,0.03774304,0.02561366,-1.2427653333333335,40.24666666666667,0.0442233666666666,0.0294976533333333,-1.2596150000000002,0.5371053,1.4058748333333335,5.6103906666666665,21.83333333333333,-12.0,46.833333333333336,-15.5,49.16666666666666,261.8333333333333,-1074.1666666666667,-11.333333333333334,325.6666666666667,1020.9741666666667,-1.279974,2679.333333333333,0.0442233666666666,0.06993465,0.0294976533333333,-0.0118070933333333,-1.2596150000000002,0.000185522,40245.0,28769.5,8325.0,2.0,6.0,31.5,0,None
2023-01-01 06:07:01.450,178.41199999999998,0.0999999999999999,100.0,1164.0,24319.0,4871.0,99.0,1174.0,97.0,4866.8,89.63771,1.3360067999999998,0.0634765866666666,0.0116135021666666,-1.237828666666667,40.22333333333333,0.06965405,0.016226251,-1.253236,0.3857359199999999,1.6890948,8.7211546,17.6,-44.2,52.4,-66.2,23.8,270.4,-995.6,36.6,331.8,1020.9294,-1.3248438,2680.8,0.06965405,0.0606454693333333,0.016226251,-0.0573371073333333,-1.253236,0.0271522066666666,40220.0,28859.0,8300.0,-8.0,20.0,32.0,0,None
2023-01-01 06:07:02.000,178.948,0.1079999999999983,100.0,1106.0,24336.0,4867.0,99.0,1164.2,98.6,4864.8,88.623998,1.3794194000000002,0.053127745,0.02566111,-1.2331284999999998,40.23,0.05863653,0.030603815,-1.247767,0.4628118,1.26280708,6.5841702,8.6,53.2,46.6,-32.6,-69.0,257.8,-1066.8,-7.2,331.4,1020.9454,-1.3088124,2682.4,0.05863653,-0.09611963,0.030603815,0.05473456655,-1.247767,-0.0073304105,40230.0,28836.0,8310.0,-18.0,37.0,27.0,0,None
2023-01-01 06:07:02.550,179.505,0.103333333333334,100.0,1235.0,24293.0,4871.0,99.0,1185.5,100.5,4861.666666666667,87.71128,1.4253871666666666,0.018576768,0.0297306266666666,-1.2423593333333331,40.20333333333333,0.0251455033333333,0.03296893,-1.256111,0.4480263166666667,1.4732800333333331,7.513148999999999,-0.1666666666666666,10.833333333333334,55.833333333333336,-43.5,-39.0,252.16666666666663,-1023.8333333333334,-23.5,296.5,1020.9396666666668,-1.3145701666666667,2684.0,0.0251455033333333,-0.1017112866666666,0.03296893,-0.0117684033333333,-1.256111,-0.0029999222999999,40190.0,28802.0,8270.0,-18.0,43.0,31.0,0,None
2023-01-01 06:07:03.100,180.10880000000003,0.1081999999999993,100.0,1133.0,24305.0,4875.0,99.0,1112.0,102.4,4871.2,86.73957599999999,1.4740768000000002,-0.0342202216666666,0.0347519366666666,-1.251226333333333,40.17666666666667,-0.026780871,0.0378513233333333,-1.263249,0.50601014,1.4540396000000002,7.413381199999999,27.5,-1.3,70.4,-58.2,-49.2,265.7,-990.8,13.2,317.4,1020.9236,-1.330531,2685.6,-0.026780871,-0.0337843036666666,0.0378513233333333,-0.0030338999999999,-1.263249,-0.0197569966666666,40180.0,28765.0,8260.0,-11.0,23.0,27.0,0,None
2023-01-01 06:07:03.650,180.609,0.0999999999999999,100.0,1246.0,24258.0,4877.0,99.0,1192.2,104.0,4869.8,85.92960400000001,1.5088382,-0.018666113,0.0381552099999999,-1.259647,40.15,-0.0105867385,0.040685085,-1.270085,0.39309464,1.8009018,7.12124,15.6,-3.8,67.2,-34.0,159.0,275.2,-1087.4,-11.2,324.4,1020.949,-1.3051718,2687.2,-0.0105867385,0.1669221,0.040685085,0.0285254165,-1.270085,0.0022839,40140.0,28718.0,8220.0,0.0,-11.0,19.0,0,None
2023-01-01 06:07:04.200,181.16600000000005,0.0999999999999989,100.0,1213.5,24278.5,4875.0,99.0,1262.3333333333333,105.83333333333331,4871.166666666667,84.92922666666668,1.5380213333333332,0.0482604833333333,0.0357953166666666,-1.2379493333333331,40.09,0.0542304533333333,0.0395407066666666,-1.2482126666666666,0.4533061166666666,1.779974,10.084788166666668,10.333333333333334,-5.5,51.66666666666666,-66.5,39.16666666666666,256.0,-1054.5,46.333333333333336,314.5,1020.9271666666668,-1.3271615,2688.5,0.0542304533333333,0.0764061,0.0395407066666666,-0.0218528965333333,-1.2482126666666666,0.0501428466666666,40080.0,28852.0,8160.0,0.0,-9.0,23.0,0,None
2023-01-01 06:07:04.750,181.7132,0.104000000000002,100.0,1116.0,24300.0,4877.0,99.0,1164.0,107.6,4874.8,83.938588,1.5661298,0.05491751,0.03820259,-1.219988,40.06,0.05896592,0.04221787,-1.2294596666666668,0.49681974,1.6489182,7.881736999999999,17.8,24.2,47.4,-63.2,-34.6,257.6,-1042.6,-22.8,308.2,1020.924,-1.3301404,2690.2,0.05896592,-0.0291305566666666,0.04221787,0.02271855,-1.2294596666666668,-0.0026005633333333,40060.0,28978.0,8140.0,-8.0,5.0,27.0,0,None
2023-01-01 06:07:05.300,182.24140000000003,0.1041999999999973,100.0,1269.0,24226.0,4875.0,99.0,1315.6,109.8,4870.8,83.18314000000001,1.593213,0.031854615,0.04697684,-1.238471,40.04,0.0379702299999999,0.0497082499999999,-1.2468884999999998,0.51837112,1.9145474,9.908181,10.6,0.8,58.2,-53.2,9.6,256.6,-1083.6,-7.8,308.8,1020.9012,-1.3528594000000005,2691.4,0.0379702299999999,-0.0145422895,0.0497082499999999,0.0086493349999999,-1.2468884999999998,-0.030572273,40040.0,28858.0,8120.0,-9.0,15.0,24.0,0,None
2023-01-01 06:07:05.850,182.80916666666667,0.1031666666666665,100.0,1176.0,24259.0,4883.0,99.0,1283.3333333333333,111.83333333333331,4871.333333333333,82.34442,1.6273196666666665,0.0337638166666666,0.0479730633333333,-1.2385906666666668,40.01666666666667,0.0401876933333333,0.0517526966666666,-1.2462419999999998,0.4507933833333333,2.4165435,12.523876666666666,8.166666666666666,-1.5,48.333333333333336,-66.33333333333333,-20.666666666666668,254.16666666666663,-1042.0,6.666666666666667,302.3333333333333,1020.9186666666668,-1.335651,2693.333333333333,0.0401876933333333,0.0099102496666666,0.0517526966666666,0.0062017299999999,-1.2462419999999998,-0.0165316280466666,40020.0,28866.0,8100.0,-8.0,23.0,30.0,0,None
2023-01-01 06:07:06.400,183.3816,0.1042000000000029,100.0,1268.0,24251.0,4885.0,99.0,1240.4,113.6,4877.6,81.439318,1.6650176,0.0014223356666666,0.0481536233333333,-1.2419596666666666,40.0,0.008633379,0.0514665133333333,-1.2484663333333332,0.45067218,2.3526646,12.108487999999998,0.3,8.7,62.0,-53.1,-38.6,256.0,-1123.9,11.5,310.2,1020.8923,-1.3622265,2694.7,0.008633379,-0.0179203333333333,0.0514665133333333,0.0513664421,-1.2484663333333332,0.0169016733333333,39990.0,28841.0,8070.0,-4.0,27.0,22.0,0,None
2023-01-01 06:07:06.950,183.89,0.0999999999999999,100.0,1165.0,24298.0,4883.0,99.0,1173.0,115.4,4878.4,80.55688,1.6985932,0.0244247905,0.03100901,-1.2117485,40.015,0.0318731,0.03533735,-1.217362,0.5277375999999999,1.8864724,11.0413304,-15.0,-39.0,64.2,-54.6,63.8,244.2,-1028.2,58.0,304.0,1020.9032,-1.3508593999999998,2696.4,0.0318731,0.07796794,0.03533735,-0.0454387849999999,-1.217362,0.08448727,40010.0,28954.0,8090.0,1.0,17.0,20.0,0,None
2023-01-01 06:07:07.500,184.44000000000003,0.099999999999999,100.0,1216.0,24247.0,4888.0,99.0,1200.1666666666667,117.16666666666669,4873.5,79.65699166666666,1.7273033333333334,0.0277455466666666,0.0381451733333333,-1.2182886666666666,40.00666666666667,0.0330925866666666,0.04240166,-1.222178,0.42055185,2.151322166666667,12.8454715,-4.166666666666667,11.666666666666666,67.66666666666667,-60.333333333333336,-76.16666666666667,257.8333333333333,-1024.8333333333333,-71.0,319.8333333333333,1020.936,-1.3182943333333332,2698.0,0.0330925866666666,-0.0662112233333333,0.04240166,0.0244564433333333,-1.222178,-0.0544699433333333,39990.0,28955.0,8070.0,-6.5,36.0,17.0,0,None
2023-01-01 06:07:08.050,185.01,0.104000000000002,100.0,1236.0,24234.0,4874.0,99.0,1216.4,119.0,4880.0,78.74723800000001,1.7541024,-0.0217650853333333,0.03065411,-1.2555673333333333,39.94,-0.014847772,0.03473959,-1.258127,0.4641135999999999,2.137676,10.1287244,4.4,-1.2,74.4,-84.0,-22.8,261.2,-997.8,-22.0,300.6,1020.9262,-1.328156,2699.4,-0.014847772,-0.0332755833333333,0.03473959,-0.0339524163333333,-1.258127,-0.0208263556,39900.0,28764.0,7980.0,-4.0,19.0,22.0,0,None
2023-01-01 06:07:08.600,185.56333333333336,0.099999999999999,100.0,1381.0,24173.0,4890.0,99.0,1253.8333333333333,120.83333333333331,4880.0,77.83003333333333,1.7790103333333336,-0.0101159546666666,0.0280581533333333,-1.2484933333333337,39.88666666666666,-0.0032073966666666,0.03173368,-1.2494633333333334,0.4912216,1.8321053333333333,10.331938333333332,-13.0,-10.666666666666666,66.66666666666667,-54.5,64.83333333333333,251.5,-1065.5,51.833333333333336,310.1666666666667,1020.9111666666668,-1.3430076666666666,2700.833333333333,-0.0032073966666666,0.08337781,0.03173368,0.007745687,-1.2494633333333334,0.0497871408333333,39870.0,28905.0,7950.0,-6.0,8.0,26.0,0,None
2023-01-01 06:07:09.150,186.114,0.0999999999999999,100.0,1247.0,24237.0,4887.0,99.0,1105.4,122.6,4876.6,76.937306,1.7998024,0.0196080666666666,0.0418545366666666,-1.226127,39.873333333333335,0.0249787499999999,0.0448643066666666,-1.2259663333333333,0.5697875000000001,1.8169234,12.263699,-15.8,63.0,70.4,-67.4,-16.4,260.8,-1023.4,-0.8,310.2,1020.9082,-1.3461874000000005,2702.2,0.0249787499999999,0.0010663833333333,0.0448643066666666,0.0839968266666666,-1.2259663333333333,0.0022457033333333,39870.0,28983.0,7950.0,-13.0,20.0,30.0,0,None
2023-01-01 06:07:09.700,186.66333333333333,0.099999999999999,100.0,1183.5,24247.5,4880.5,99.0,1192.6666666666667,124.5,4880.166666666667,76.08525,1.8171716666666669,-0.0096201339,0.05137767,-1.2334676666666666,39.836666666666666,-0.0043023326666666,0.0541687833333333,-1.232981,0.53750195,2.1629618333333336,12.631909833333332,-15.0,-4.666666666666667,73.83333333333333,-49.16666666666666,-49.333333333333336,257.6666666666667,-1042.5,-16.166666666666668,307.0,1020.943,-1.311263,2703.6666666666665,-0.0043023326666666,-0.0886921666666666,0.0541687833333333,-0.0204527903333333,-1.232981,-0.0231170233333333,39840.0,28945.0,7920.0,-8.0,27.0,23.0,0,None
2023-01-01 06:07:10.250,187.21,0.0999999999999999,100.0,1165.0,24254.0,4883.0,99.0,1302.2,126.4,4880.4,75.20421,1.8334604,-0.04991131,0.041314665,-1.266902,39.78,-0.04460171,0.044794185,-1.265568,0.5659153,1.5545056000000002,9.4873972,0.8,-27.6,79.2,-47.2,-67.6,259.4,-1064.8,-97.4,309.2,1020.9666,-1.2877031999999995,2705.2,-0.04460171,-0.0407646305,0.044794185,-0.0695675,-1.265568,-0.091263365,39770.0,28775.0,7850.0,2.0,16.0,28.0,0,None
2023-01-01 06:07:10.800,187.73,0.1079999999999983,100.0,1221.0,24225.0,4883.0,99.0,1163.6,128.2,4875.0,74.333198,1.847027,-0.0227031046666666,0.0300178166666666,-1.2983923333333334,39.72333333333333,-0.0158561070333333,0.03285327,-1.2959733333333332,0.4495513,1.6901142,9.8423596,-1.4,-40.2,66.6,-50.2,85.0,266.0,-1086.6,-43.0,316.8,1020.9964,-1.2577344,2706.8,-0.0158561070333333,0.1076079466666666,0.03285327,-0.1069806599999999,-1.2959733333333332,0.0079847843333333,39730.0,28558.0,7810.0,19.0,-9.0,30.0,0,None
2023-01-01 06:07:11.350,188.31016666666667,0.103333333333334,100.0,1347.0,24189.0,4883.0,99.0,1235.1666666666667,130.16666666666666,4869.0,73.50370833333334,1.8576393333333332,0.0396749966666666,0.0018457949666666,-1.2717483333333333,39.64666666666667,0.0438198933333333,0.006157737,-1.2679686666666663,0.5204033499999999,2.0136578333333333,10.456955,-5.833333333333333,-27.83333333333333,52.0,-51.833333333333336,90.16666666666669,262.0,-1082.6666666666667,40.5,332.5,1020.9701666666666,-1.2840755,2708.1666666666665,0.04373489,0.1094326933333333,0.0052622108333333,-0.028412473,-1.2682206666666664,0.040416323,39660.0,28712.0,7740.0,15.0,-21.0,30.0,0,None
2023-01-01 06:07:11.900,188.8982,0.1081999999999993,100.0,1268.0,24208.0,4882.0,99.0,1276.4,132.4,4875.0,72.697902,1.8698488,0.035544235,0.025941875,-1.274409,39.61,0.040594305,0.029910085,-1.270166,0.5738199799999999,2.0847924000000004,11.1171496,-2.4,82.5,48.0,-66.9,-47.4,260.7,-1071.7,-31.2,320.6,1020.9631,-1.2911563,2709.7,0.040594305,-0.01845961,0.029910085,0.07426441,-1.270166,-0.0411843099999999,39620.0,28752.0,7700.0,-10.0,-8.0,32.0,0,None
2023-01-01 06:07:12.450,189.422,0.103800000000001,100.0,1326.0,24156.0,4875.0,99.0,1324.2,134.0,4879.4,72.13649799999999,1.8801476,0.02109082,0.0506503399999999,-1.277049,39.59666666666667,0.02642629,0.0539056066666666,-1.272068,0.4752033599999999,2.1590848,11.124540199999998,-3.4,-44.6,48.4,-36.4,-42.4,276.8,-1089.6,30.2,313.8,1020.9414,-1.3126250000000002,2711.6,0.02642629,-0.09021425,0.0539056066666666,-0.05327693,-1.272068,0.0381671606666666,39600.0,28691.0,7680.0,-14.0,3.0,36.0,0,None
2023-01-01 06:07:13.000,189.9904,0.1160000000000024,100.0,1235.0,24195.0,4875.0,99.0,1215.8,136.0,4870.8,71.513322,1.893115,0.01488986,0.035966705,-1.2589405,39.61,0.02000894,0.039800615,-1.253462,0.51693568,2.05167,12.745540600000002,-16.6,64.8,59.8,-49.3,-16.6,262.5,-1069.6,35.2,309.2,1020.9428,-1.3114376,2712.8,0.02000894,0.0477918275,0.039800615,0.04199898,-1.253462,0.00459004,39600.0,28784.0,7680.0,-13.0,11.0,35.0,0,None
2023-01-01 06:07:13.550,190.516,0.1202499999999986,100.0,1183.0,24256.0,4871.0,99.0,1215.625,137.625,4868.375,70.94516250000001,1.905474375,0.0008573198666666,0.0610521133333333,-1.2527186666666663,39.60333333333333,0.0064822406666666,0.06426721,-1.247024,0.5723581375,1.7043285,9.2342245,-16.875,19.0,67.75,-35.375,7.75,252.25,-1062.25,1.375,287.75,1020.963375,-1.290830125,2714.25,0.0064822406666666,-0.0440767066666666,0.06426721,-0.05088972,-1.247024,0.0106269346666666,39610.0,28847.0,7690.0,-9.0,19.0,29.0,0,None
2023-01-01 06:07:14.100,191.04100000000005,0.099999999999999,100.0,1044.0,24277.0,4871.0,99.0,1091.1666666666667,139.5,4878.333333333333,70.35654,1.918230833333333,-0.0098270533333333,0.0318329366666666,-1.2427603333333332,39.583333333333336,-0.0044230573333333,0.0345373466666666,-1.235852333333333,0.6584918333333333,1.1933446666666667,8.811020999999998,-23.166666666666668,-65.16666666666667,72.83333333333333,-46.0,23.166666666666668,267.3333333333333,-1056.3333333333333,4.0,315.5,1020.9755,-1.2787761666666666,2715.5,-0.0044230573333333,0.0101972233333333,0.0345373466666666,-0.0729581116666666,-1.235852333333333,0.0204649,39580.0,28907.5,7660.0,8.0,23.5,30.5,0,None
2023-01-01 06:07:14.650,191.591,0.0999999999999999,100.0,1047.0,24294.0,4877.0,99.0,1117.2,141.4,4878.25,69.727962,1.9309272,-0.001036692,0.006509185,-1.24707,39.53,0.004042386,0.01136931,-1.239736,0.5214433999999999,1.31709575,9.378954749999998,-15.5,-34.75,75.0,-28.0,-49.25,256.75,-1080.25,4.75,323.25,1020.9895,-1.26499975,2717.25,0.004042386,-0.159902,0.01136931,-0.002301776,-1.239736,-0.0451758,39520.0,28897.0,7600.0,6.0,19.0,29.0,0,None
2023-01-01 06:07:15.200,192.141,0.099999999999999,100.0,1078.5,24263.0,4874.5,99.0,1095.5,142.83333333333334,4873.166666666667,69.18343,1.9402765,-0.0061210536666666,0.0110610795666666,-1.2416786666666668,39.5,-0.000995888,0.015259229,-1.234425,0.62676825,1.0527036833333332,9.288104833333334,-15.833333333333334,39.5,73.66666666666667,-38.66666666666666,9.5,248.0,-1075.0,-14.166666666666666,321.8333333333333,1021.0046666666668,-1.2497395,2718.333333333333,-0.000995888,0.06339892,0.015259229,-0.0008389633333333,-1.234425,0.02896615,39470.0,28953.0,7550.0,4.0,15.0,32.0,0,None
2023-01-01 06:07:15.750,192.691,0.0999999999999999,100.0,1356.0,24146.0,4871.0,99.0,1135.0,144.6,4878.6,68.570438,1.9481324,-0.000944481,0.0212163266666666,-1.2403043333333332,39.42333333333334,0.004229222,0.0242189133333333,-1.2329543333333337,0.5834532,1.2065035000000002,9.697676,-2.0,-33.0,73.4,-43.4,0.2,256.8,-1004.2,-1.6,332.2,1021.0236,-1.2307184,2720.0,0.004229222,-0.0835065066666666,0.0242189133333333,0.0069182166666666,-1.2329543333333337,-0.0068682386666666,39400.0,28925.0,7480.0,4.0,14.0,31.0,0,None
2023-01-01 06:07:16.300,193.25133333333332,0.103333333333334,100.0,1222.0,24154.0,4882.0,99.0,1227.3333333333333,146.5,4877.333333333333,68.081335,1.9522873333333333,-0.0126148086666666,-0.000172889,-1.24429,39.35,-0.0080149893333333,0.0034343186666666,-1.2369233333333334,0.45700025,2.079628833333333,14.432470833333332,-4.0,14.0,73.66666666666667,-14.666666666666666,31.0,251.33333333333331,-1045.1666666666667,10.166666666666666,330.1666666666667,1021.0146666666666,-1.2397785,2721.5,-0.0080149893333333,-0.0777071433333333,0.0034343186666666,0.0171242686666666,-1.2369233333333334,-0.0040562663333333,39350.0,28916.0,7430.0,-3.0,2.0,32.0,0,None
2023-01-01 06:07:16.850,193.8194,0.104000000000002,100.0,1496.0,24071.0,4871.0,99.0,1321.2,148.4,4874.6,67.651552,1.9538972,0.02846051,0.02198254,-1.2349795,39.3,0.03238516,0.025588565,-1.2279145,0.4951641,1.4114456,14.229448,-10.8,52.4,62.0,-64.0,29.0,244.6,-1034.4,7.2,323.8,1020.98,-1.2739998,2723.2,0.03238516,-0.0253254999999999,0.025588565,0.075024275,-1.2279145,0.014231882,39300.0,28967.0,7380.0,-15.0,-1.0,35.0,0,None
2023-01-01 06:07:17.400,194.3394,0.1041999999999973,100.0,1190.0,24213.0,4883.0,99.0,1210.8,150.4,4873.8,67.310528,1.9540484,-0.0005438076666666,0.03889984,-1.2432176666666666,39.3,0.0041149429999999,0.0407431333333333,-1.235512333333333,0.49620612,1.2657646000000002,8.5098546,-5.6,20.0,70.8,-31.6,-58.8,263.4,-1052.6,-57.2,308.6,1020.9842,-1.2700312,2724.0,0.0041149429999999,-0.06937501,0.0407431333333333,-0.0024794166666666,-1.235512333333333,-0.036765276,39310.0,28928.0,7390.0,-18.0,4.0,38.0,0,None
2023-01-01 06:07:17.950,194.8758,0.1117999999999994,100.0,1120.0,24219.0,4871.0,99.0,1162.8,152.0,4867.4,66.987174,1.9546354,0.003437071,0.0327640533333333,-1.295642,39.31666666666666,0.00942906,0.033943,-1.2877356666666666,0.48585562,1.3681791999999997,7.5234882,10.3,-40.0,66.4,-35.9,68.3,272.8,-1026.1,-61.0,322.6,1021.0079000000002,-1.2463905,2726.0,0.0088466266666666,0.0817846233333333,0.0354274966666666,-0.1117746927666666,-1.2875573333333334,-0.0547824603333333,39320.0,28613.0,7400.0,-1.0,-7.0,36.0,0,None
2023-01-01 06:07:18.500,195.3915,0.1300000000000025,100.0,1216.0,24192.0,4883.0,99.0,1138.5,153.5,4871.0,66.6460325,1.9557505,0.03722929,0.0005831561999999,-1.317358,39.305,0.041306425,0.0020412225,-1.3091495,0.5110588,1.44636525,7.076561,6.75,-33.0,46.5,-27.75,35.0,259.5,-1034.25,-25.25,335.25,1020.9855,-1.26865225,2727.0,0.041306425,-0.01758028,0.0020412225,-0.05922571,-1.3091495,-0.040016685,39290.0,28500.0,7370.0,-3.0,-1.0,36.0,0,None
2023-01-01 06:07:19.050,196.0148333333333,0.1068333333333318,100.0,1115.0,24247.0,4869.0,99.0,1146.6666666666667,155.66666666666666,4871.833333333333,66.25536166666667,1.9571808333333331,0.0315489566666666,0.0210859666666666,-1.3276693333333334,39.266666666666666,0.0357157366666666,0.0243048166666666,-1.31952,0.51954135,1.7414216666666666,8.423956,-1.6666666666666667,50.333333333333336,41.16666666666666,-26.166666666666668,11.5,250.66666666666663,-1014.1666666666666,-12.833333333333334,318.0,1020.9955,-1.2590363333333334,2728.6666666666665,0.0357157366666666,-0.0257879433333333,0.0243048166666666,0.0660863333333333,-1.31952,0.00972997,39280.0,28433.0,7360.0,-9.0,4.0,31.0,0,None
2023-01-01 06:07:19.600,196.57200000000003,0.0999999999999999,100.0,1192.0,24213.0,4883.0,99.0,1190.0,157.6,4876.2,65.982482,1.9584988,0.03917941,0.0307513533333333,-1.315143333333333,39.21,0.04413511,0.0325607133333333,-1.3064226666666665,0.45489626,1.7664745999999998,9.1616708,-3.6,3.0,37.6,-16.8,2.0,266.4,-1057.2,44.8,326.8,1020.9815999999998,-1.2728124,2730.0,0.04413511,0.007938229,0.0325607133333333,0.02351898,-1.3064226666666665,0.0081388813333333,39220.0,28479.0,7300.0,-7.0,20.0,34.0,0,None
2023-01-01 06:07:20.150,197.12200000000004,0.1000000000000037,100.0,1260.0,24166.5,4878.5,99.0,1237.5,159.5,4873.333333333333,65.75429333333334,1.961660666666667,0.0083629039999999,0.0279863066666666,-1.2911246666666667,39.19,0.013864096,0.0306199166666666,-1.2816273333333332,0.4537584833333333,2.030193333333333,9.2144125,-3.5,10.166666666666666,47.0,-28.666666666666668,-77.66666666666667,259.0,-1058.8333333333333,22.166666666666668,316.6666666666667,1020.995,-1.2594661666666669,2731.5,0.013864096,-0.0433458893333333,0.0306199166666666,-0.01339692,-1.2816273333333332,0.063599,39200.0,28594.0,7280.0,-6.0,37.0,32.0,0,None
2023-01-01 06:07:20.700,197.676,0.1039999999999963,100.0,1355.0,24134.0,4871.0,98.8,1313.8,161.4,4868.2,65.550782,1.9668472,-0.0087286535,0.02196035,-1.2704615,39.185,-0.0015388239999999,0.0242742,-1.2602765,0.40129438,2.0294696,10.283103400000002,-14.2,-21.4,64.2,-29.7,17.4,259.9,-1038.4,50.3,316.5,1020.9727,-1.2815548,2733.0,-0.0015388239999999,0.071708965,0.0242742,0.0128006149999999,-1.2602765,0.0109319,39180.0,28725.0,7260.0,-4.0,39.0,32.0,0,None
2023-01-01 06:07:21.250,198.19600000000003,0.104000000000002,100.0,1223.0,24149.0,4883.0,98.0,1359.8,163.2,4875.6,65.33955399999999,1.9716078,-0.015690853,0.0226404033333333,-1.2616116666666668,39.193333333333335,-0.0092434686666666,0.02488361,-1.2526276666666665,0.42385934,1.32693696,7.9404072,-9.8,-35.0,75.6,-33.0,-78.6,255.6,-1087.6,-0.4,320.4,1020.9626,-1.2914688,2734.8,-0.0092434686666666,-0.0268979833333333,0.02488361,-0.007409583,-1.2526276666666665,0.0046198713333333,39200.0,28837.0,7280.0,2.5,29.5,32.5,0,None
2023-01-01 06:07:21.800,198.76200000000003,0.099999999999999,100.0,1205.0,24188.0,4871.0,98.0,1227.8333333333333,165.16666666666666,4878.166666666667,65.09717666666667,1.9750656666666668,-0.0234661166666666,0.0041332426666666,-1.2489726666666667,39.24666666666667,-0.017500815,0.007292425,-1.2397226666666663,0.4799807666666666,1.3315876666666666,4.2565745,4.833333333333333,0.6666666666666666,80.5,-33.0,77.33333333333333,252.0,-1011.3333333333334,1.6666666666666667,331.6666666666667,1020.9388333333332,-1.3154035,2735.833333333333,-0.017500815,0.09992119,0.007292425,-0.0046348433333333,-1.2397226666666663,0.0172412676666666,39270.0,28908.0,7350.0,5.0,-1.0,29.0,0,None
2023-01-01 06:07:22.350,199.312,0.0999999999999999,100.0,1188.0,24174.0,4883.0,98.0,1223.6,167.0,4881.6,64.85709800000001,1.9762632,0.011401518,0.02185725,-1.261745,39.285,0.0170818,0.02316706,-1.25378,0.42231486,0.8349092600000001,5.3970716,14.6,7.8,66.6,-34.6,55.6,256.6,-1056.8,-30.4,329.0,1020.9828,-1.2714064,2737.4,0.0170818,0.079879265,0.02316706,0.006934505,-1.25378,-0.02517975,39280.0,28793.0,7360.0,11.0,-7.0,26.0,0,None
2023-01-01 06:07:22.900,199.86866666666663,0.103333333333334,100.0,1205.0,24176.0,4871.0,98.0,1260.6666666666667,168.83333333333334,4878.833333333333,64.66079833333333,1.976062,0.0328123166666666,0.000268299,-1.260174,39.26333333333333,0.0378516666666666,0.0019676069999999,-1.2520393333333333,0.4606044,1.3776745333333336,6.459263,-2.333333333333333,-25.33333333333333,55.0,-21.83333333333333,-12.666666666666666,247.0,-1061.5,-3.5,331.0,1020.9648333333332,-1.289414,2738.5,0.039534085,0.01855348281,-0.0037831345,0.0358785175,-1.250325,-0.0266802035,39260.0,28837.0,7340.0,3.0,-3.0,28.0,0,None
2023-01-01 06:07:23.450,200.448,0.1039999999999963,100.0,1277.0,24124.0,4885.0,98.0,1220.6,171.2,4875.0,64.503992,1.9752216,0.0265010266666666,0.0023780738333333,-1.267156,39.24333333333334,0.0311873099999999,0.0049633008333333,-1.2590336666666666,0.51548898,1.297106,6.137221,22.6,18.4,55.4,-17.0,20.4,252.8,-1007.6,-7.4,332.4,1020.9732,-1.2809846,2740.2,0.0311873099999999,0.0089993366666666,0.0049633008333333,0.0596389766666666,-1.2590336666666666,0.002962735,39240.0,28784.0,7320.0,-4.0,-5.0,31.0,0,None
2023-01-01 06:07:24.000,200.98,0.1120000000000004,100.0,1308.0,24126.0,4875.0,98.0,1329.4,173.0,4870.4,64.41752,1.9739638,0.0437020733333333,0.0087352673333333,-1.2744156666666666,39.23333333333333,0.0496272,0.0109080196666666,-1.2664943333333334,0.2822223,1.5274278,3.7375856,8.8,28.4,49.2,-42.0,26.2,258.1,-1050.0,-19.2,334.5,1020.9919000000002,-1.2624298,2741.6,0.0496272,-0.0099083266666666,0.0109080196666666,0.0305765766666666,-1.2664943333333334,-0.0230613733333333,39240.0,28744.0,7320.0,-6.0,0.0,27.0,0,None
2023-01-01 06:07:24.550,201.5122,0.0999999999999999,100.0,1252.0,24153.0,4875.0,98.0,1245.0,174.6,4872.8,64.37809999999999,1.97275,0.02978208,0.0214289849999999,-1.26037,39.225,0.0354396099999999,0.02290139,-1.252694,0.38568514,1.2941222,5.7463338,-4.4,-21.2,56.4,-18.0,-21.8,252.2,-1062.8,66.0,331.4,1020.956,-1.298125,2743.2,0.0354396099999999,0.0087170849999999,0.02290139,-0.07689846,-1.252694,0.09041747,39220.0,28794.0,7300.0,-6.0,12.0,33.0,0,None
2023-01-01 06:07:25.100,202.082,0.103333333333334,100.0,1128.0,24207.0,4875.0,98.0,1112.8333333333333,176.66666666666666,4882.833333333333,64.36952666666667,1.9723806666666668,0.03076267,0.0020967883333333,-1.227878,39.26666666666667,0.0364766733333333,0.0048297503333333,-1.221366,0.4894754166666666,1.2931186666666667,5.209934833333334,8.833333333333334,-40.0,71.66666666666667,-25.666666666666668,-3.0,251.33333333333331,-1036.6666666666667,36.66666666666666,328.8333333333333,1020.9563333333332,-1.2979558333333332,2744.333333333333,0.0364766733333333,0.0059050049999999,0.0048297503333333,-0.0483763366666666,-1.221366,0.0358571303333333,39260.0,29001.0,7340.0,-5.0,17.0,32.0,0,None
2023-01-01 06:07:25.650,202.6608,0.1081999999999993,100.0,1165.0,24177.0,4882.5,98.0,1144.6,178.6,4869.8,64.40059600000001,1.9726892,0.0316787933333333,-0.0072105573333333,-1.218432,39.29,0.0373420966666666,-0.004215459,-1.2117936666666669,0.50074396,1.4273938,5.7880598,8.6,35.2,69.4,-17.4,24.8,239.4,-1033.2,-6.4,332.2,1020.9544,-1.3000156,2746.0,0.0373420966666666,0.0378948366666666,-0.004215459,0.01820346,-1.2117936666666669,0.0120701804,39280.0,29059.0,7360.0,-14.0,17.0,26.0,0,None
2023-01-01 06:07:26.200,203.153,0.0960000000000036,100.0,1084.0,24192.0,4890.0,98.0,1145.8,180.4,4872.8,64.494758,1.9732458,0.018573085,-0.00231799125,-1.218071,39.285,0.023902345,0.0002449709999999,-1.2118220000000002,0.52478026,1.5363344,4.552574999999999,5.2,-1.6,73.8,-40.2,-28.4,248.8,-1075.2,-19.2,326.0,1020.9476,-1.3069378,2746.8,0.023902345,0.008350995,0.0002449709999999,0.0161483745,-1.2118220000000002,-0.03079359,39280.0,29078.0,7360.0,-23.0,20.0,26.0,0,None
2023-01-01 06:07:26.750,203.70633333333333,0.099999999999999,100.0,1226.0,24143.0,4869.0,98.0,1064.5,181.83333333333331,4868.833333333333,64.64397,1.9737091666666664,0.02904387,0.012003285,-1.243564,39.29,0.0347480333333333,0.013072998,-1.237842,0.5295758833333334,1.3890625,4.812609666666666,4.5,17.833333333333332,65.66666666666667,-32.666666666666664,4.333333333333333,245.16666666666663,-1069.8333333333333,-44.833333333333336,325.3333333333333,1020.9523333333332,-1.3017706666666666,2748.5,0.0347480333333333,0.0327272966666666,0.013072998,0.0299044633333333,-1.237842,-0.04866908,39290.0,28939.0,7370.0,-26.0,19.0,30.0,0,None
2023-01-01 06:07:27.300,204.257,0.0999999999999999,100.0,1229.0,24139.0,4872.0,98.0,1154.8,183.4,4872.2,64.824922,1.9743176,0.0340845966666666,0.0284141666666666,-1.2625723333333332,39.27,0.0394255033333333,0.0300724366666666,-1.2573763333333334,0.4624791999999999,1.263427,6.7177768,12.6,51.2,57.4,-24.0,11.4,256.4,-1060.6,-15.4,326.6,1020.9496,-1.3049686,2749.8,0.0394255033333333,0.0393980266666666,0.0300724366666666,0.047021951,-1.2573763333333334,-0.0457561466666666,39280.0,28837.0,7360.0,-26.0,20.0,27.0,0,None
2023-01-01 06:07:27.850,204.813,0.103333333333334,100.0,1120.0,24199.0,4877.0,98.0,1161.5,185.5,4868.333333333333,65.03624,1.9760426666666664,0.0164770046666666,0.0377414066666666,-1.279509,39.26,0.0212545823333333,0.0391902,-1.274242,0.3803286166666667,1.2596382666666666,3.9643605,16.833333333333332,9.5,55.66666666666666,-55.5,-40.16666666666666,262.0,-1024.1666666666667,-32.333333333333336,313.5,1020.959,-1.2952343333333334,2750.833333333333,0.0214110823333333,-0.0493983056666666,0.0390738,-0.0115566462766666,-1.274029,-0.020766899,39260.0,28720.0,7340.0,-14.0,26.0,26.0,0,None
2023-01-01 06:07:28.400,205.373,0.0999999999999999,100.0,1109.0,24200.0,4882.0,98.0,1106.4,187.0,4870.0,65.22683399999998,1.979114,0.0060706315,0.028097045,-1.285368,39.27,0.0116614134999999,0.030086215,-1.2800975,0.495633,1.01601234,4.267041600000001,3.4,-36.4,56.4,-26.8,29.0,263.0,-1027.6,-14.6,316.4,1020.9828,-1.271625,2752.6,0.0116614134999999,0.0120232,0.030086215,-0.050771285,-1.2800975,0.004559924,39270.0,28668.0,7350.0,8.0,22.0,29.0,0,None
2023-01-01 06:07:28.950,205.8934,0.1041999999999972,100.0,1114.0,24178.0,4875.0,98.0,1096.2,188.6,4872.2,65.350548,1.9823994000000005,0.0164244066666666,0.0049744393333333,-1.2801216666666668,39.25666666666667,0.02204529,0.006675621,-1.2749773333333334,0.4709826,0.74567984,1.7802858,1.4,-34.3,56.0,-30.3,24.3,258.6,-1035.7,1.9,332.8,1020.9728,-1.2813124,2753.7,0.02204529,0.0391308126666666,0.006675621,-0.04289709,-1.2749773333333334,0.0042472326666666,39250.0,28714.0,7330.0,12.0,19.0,32.0,0,None
2023-01-01 06:07:29.500,206.45033333333333,0.099999999999999,100.0,1193.0,24144.0,4883.0,98.0,1123.1666666666667,190.16666666666663,4882.0,65.46682833333334,1.9860163333333332,0.0261578566666666,-0.0094510923333333,-1.274161,39.23,0.0317863866666666,-0.0072778377,-1.2693436666666666,0.4471420833333333,1.0366017333333333,3.946475500000001,-3.5,0.3333333333333333,52.5,-36.16666666666666,-7.833333333333333,247.66666666666663,-1041.6666666666667,-20.666666666666668,336.8333333333333,1020.9668333333334,-1.2877605,2755.1666666666665,0.0317863866666666,0.0152635638,-0.0072778377,0.0110132506666666,-1.2693436666666666,-0.00900252,39230.0,28722.0,7310.0,3.0,17.0,30.0,0,None
2023-01-01 06:07:30.050,207.0376,0.1120000000000004,100.0,1091.0,24213.0,4869.0,98.0,1076.2,192.2,4876.4,65.57549200000001,1.9883468,0.017759405,0.001258679,-1.2751665,39.22,0.02363529,0.0032703309,-1.2709009999999998,0.55074178,0.94537844,4.0030192,-0.4,17.6,55.0,-37.6,6.0,259.8,-1031.0,-19.6,334.2,1020.9778,-1.2764844,2756.6,0.02363529,-0.0058977149999999,0.0032703309,0.07054756,-1.2709009999999998,-0.0224645949999999,39220.0,28720.0,7300.0,0.0,15.0,32.0,0,None
2023-01-01 06:07:30.600,207.5578,0.103800000000001,100.0,1156.0,24174.0,4882.0,98.0,1143.6,193.8,4876.0,65.69607600000002,1.9897556,0.0242146066666666,-0.0152038086666666,-1.2748516666666667,39.21,0.03016306,-0.012715727,-1.2710256666666666,0.41779406,0.97513538,3.4666344,18.4,-48.2,59.8,-40.8,22.2,256.6,-1036.4,-13.2,346.4,1020.9628,-1.2916092,2757.8,0.03016306,0.0584200133333333,-0.012715727,-0.0716109533333333,-1.2710256666666666,-0.0131460936666666,39210.0,28719.0,7290.0,-3.0,12.0,32.0,0,None
2023-01-01 06:07:31.150,208.12120000000004,0.1120000000000003,100.0,1110.0,24171.0,4875.0,98.0,1218.4,195.4,4875.4,65.8578,1.9906010000000005,0.03693976,0.0145895153333333,-1.2834943333333333,39.21333333333334,0.0425445499999999,0.017473162,-1.2808496666666669,0.5097535000000001,0.78449978,3.5737624,25.2,68.3,50.5,-34.1,-17.3,253.9,-1066.2,-12.0,320.2,1020.9723,-1.2820861,2759.6,0.0425445499999999,0.0037859326666666,0.017473162,0.068146492,-1.2808496666666669,-0.016829204,39210.0,28653.0,7290.0,-15.0,10.0,29.0,0,None
2023-01-01 06:07:31.700,208.6416,0.1002000000000008,100.0,1255.0,24126.0,4875.0,98.0,1192.4,197.6,4873.6,66.013032,1.9912978,0.02569539,0.015822385,-1.2775105,39.215,0.03083489,0.017600025,-1.2744665,0.37834764,0.72968528,3.1134184,6.0,-27.8,47.8,-16.2,-12.2,260.0,-1080.4,18.0,343.4,1020.9608,-1.2935154,2760.6,0.03083489,-0.0063952155,0.017600025,-0.03735654,-1.2744665,0.005077247,39210.0,28697.0,7290.0,-11.0,14.0,32.0,0,None
2023-01-01 06:07:32.250,209.207,0.1065000000000016,100.0,1151.0,24164.5,4877.5,98.0,1160.8333333333333,199.16666666666663,4872.333333333333,66.19900333333334,1.9927956666666664,0.0219911099999999,0.0179381099999999,-1.278353,39.24,0.0279968,0.0203879566666666,-1.2756276666666666,0.5699301500000001,0.8030511499999999,4.778971666666666,9.166666666666666,18.5,54.5,-29.33333333333333,7.333333333333333,260.3333333333333,-1034.1666666666667,4.5,326.0,1020.9536666666668,-1.3006771666666666,2762.1666666666665,0.0279968,0.027521954,0.0203879566666666,0.0410642876666666,-1.2756276666666666,-0.0016396717333333,39240.0,28687.0,7320.0,-9.0,14.0,33.0,0,None
2023-01-01 06:07:32.800,209.8056,0.1079999999999983,100.0,1158.0,24153.0,4875.0,98.0,1149.0,201.0,4871.8,66.38448,1.994917,0.0222522366666666,0.0226190633333333,-1.2822576666666667,39.26666666666667,0.0288603366666666,0.0247191033333333,-1.2798576666666666,0.42590484,0.87783156,3.77869,17.7,-10.1,50.1,-43.6,7.5,255.5,-1038.9,-4.5,326.5,1020.9629,-1.2915155,2763.6,0.0288603366666666,0.0095922433333333,0.0247191033333333,-0.006316828,-1.2798576666666666,-0.0054576843333333,39260.0,28672.0,7340.0,-1.0,12.0,30.0,0,None
2023-01-01 06:07:33.350,210.3218,0.1041999999999972,100.0,1144.0,24160.0,4875.0,98.0,1151.8,202.6,4875.0,66.54487600000002,1.9974762,0.02464906,0.010662048,-1.2762995,39.265,0.03069355,0.012303171,-1.2738075,0.39532158,1.01983132,2.3498840000000003,15.8,-26.8,54.6,-31.6,-8.0,257.2,-1012.4,24.0,333.2,1020.9486,-1.3057028000000002,2764.8,0.03069355,-0.01624934,0.012303171,-0.00932345,-1.2738075,0.008919543,39270.0,28682.0,7350.0,3.0,14.0,28.0,0,None
2023-01-01 06:07:33.900,210.8836666666667,0.099999999999999,100.0,1136.0,24168.0,4877.0,98.0,1117.8333333333333,204.66666666666663,4869.0,66.69159166666667,2.0003485000000003,0.02273253,-0.0005233820166666,-1.2633986666666666,39.26666666666667,0.0284302333333333,0.0025465356666666,-1.2612256666666666,0.2952278666666666,0.8924482833333333,4.509286666666666,2.833333333333333,-13.833333333333334,59.16666666666666,-8.166666666666666,-10.5,254.83333333333331,-1092.3333333333333,49.833333333333336,328.0,1020.9618333333334,-1.2924478333333334,2766.0,0.0284302333333333,0.01638807,0.0025465356666666,-0.0218745636666666,-1.2612256666666666,0.0469487399999999,39265.0,28804.5,7345.0,3.5,18.5,29.5,0,None
2023-01-01 06:07:34.450,211.4496,0.108000000000004,100.0,1117.0,24181.0,4882.0,98.0,1110.2,206.2,4873.4,66.840474,2.0029708,0.0176320933333333,-0.0010758933333333,-1.23912,39.25333333333333,0.0236916066666666,0.002205687,-1.2374733333333334,0.47557966,1.16086058,5.3998982,8.4,4.8,64.8,-20.4,-21.0,242.0,-1037.4,27.0,333.6,1020.9584,-1.2960002,2767.8,0.0236916066666666,-0.006593081,0.002205687,0.0103319233333333,-1.2374733333333334,0.0201316866666666,39250.0,28915.0,7330.0,-1.0,19.0,27.0,0,None
2023-01-01 06:07:35.000,211.9818,0.1039999999999963,100.0,1236.0,24116.0,4875.0,98.0,1163.8,208.0,4871.0,66.996866,2.0049318,0.0035748448,-0.0006140255,-1.2474875,39.25,0.0096393595,0.0017080399999999,-1.2458205,0.46412296,1.2414022,5.1300198,-6.4,-8.6,67.4,-23.4,-5.6,257.0,-1031.0,-52.0,330.4,1020.9552,-1.2991874,2768.8,0.0096393595,-0.0307477099999999,0.0017080399999999,0.037735565,-1.2458205,-0.0619753049999999,39250.0,28785.0,7330.0,-2.0,13.0,30.0,0,None
2023-01-01 06:07:35.550,212.502,0.108000000000004,100.0,1147.0,24150.0,4880.0,98.0,1120.2,209.6,4876.4,67.14773,2.0057412,0.0092476006666666,-0.0070908176666666,-1.2754113333333337,39.26,0.01564723,-0.0047103853333333,-1.274383,0.3876708799999999,1.19914824,3.4648274,-7.0,7.8,60.4,-27.4,39.1,246.4,-1043.5,-51.9,331.4,1020.9418000000002,-1.3126797,2770.0,0.01564723,0.0418572666666666,-0.0047103853333333,-0.0175997443333333,-1.274383,-0.0425212499999999,39270.0,28654.0,7350.0,-5.0,8.0,28.0,0,None
2023-01-01 06:07:36.100,213.03799999999995,0.1039999999999963,100.0,1186.0,24147.0,4853.0,98.0,1163.0,211.0,4875.8,67.304632,2.005303,0.01346554,0.010282686,-1.2817935,39.27,0.0206701499999999,0.012281751,-1.281677,0.3979403,0.94751862,3.1855386,1.0,51.4,57.6,-5.0,0.2,260.6,-1051.6,-16.4,344.2,1020.9466,-1.3078282,2771.4,0.0206701499999999,-0.012468825,0.012281751,0.07105205,-1.281677,-0.0044896815,39270.0,28630.0,7350.0,-1.0,4.0,25.0,0,None
2023-01-01 06:07:36.650,213.574,0.108000000000004,100.0,1156.0,24139.0,4883.0,98.0,1168.0,213.0,4874.4,67.45106799999999,2.0042382,0.01932259,0.015718844,-1.2802866666666668,39.26666666666667,0.0268126733333333,0.0162338433333333,-1.2812216666666665,0.5105542599999999,0.9363131,3.3057076000000003,6.3,-33.0,55.6,-14.1,32.3,246.1,-1074.8,17.1,322.8,1020.9659,-1.2882264,2772.8,0.0268126733333333,0.0315933503666666,0.0162338433333333,-0.03720076,-1.2812216666666665,0.01257991,39260.0,28715.0,7340.0,6.0,3.0,27.0,0,None
2023-01-01 06:07:37.200,214.1262,0.1079999999999983,100.0,1224.0,24111.0,4890.0,98.0,1206.2,214.6,4885.8,67.616538,2.0032114,0.0300232033333333,-0.0082826066666666,-1.253321,39.25666666666667,0.0364678133333333,-0.0069423313333333,-1.2540893333333334,0.40432686,1.19107828,4.0295998,17.8,-30.8,55.8,-26.6,-21.6,256.6,-1097.6,27.2,335.4,1020.9682,-1.2860470000000002,2774.2,0.0364678133333333,0.0018772526666666,-0.0069423313333333,-0.0346261063333333,-1.2540893333333334,0.0124330039999999,39250.0,28829.0,7330.0,0.0,5.0,27.0,0,None
2023-01-01 06:07:37.750,214.6582,0.1040000000000019,100.0,1210.0,24127.0,4875.0,98.0,1187.0,216.6,4873.4,67.74943,2.0024966,0.029039755,0.0050148965,-1.2541479999999998,39.245000000000005,0.035290255,0.006634391,-1.255768,0.38342076,0.95124588,3.683419400000001,6.4,43.4,61.6,-20.8,-9.0,248.8,-1051.0,-22.4,329.8,1020.962,-1.292172,2775.4,0.035290255,-0.0048352915,0.006634391,0.03773348,-1.255768,-0.0047422485,39240.0,28800.0,7320.0,-1.0,8.0,30.0,0,None
2023-01-01 06:07:38.300,215.26083333333332,0.1099999999999994,100.0,1164.0,24124.0,4886.5,98.0,1174.8333333333333,218.5,4880.5,67.95033166666666,2.0016686666666668,0.02902771,0.0044860403333333,-1.258638666666667,39.25,0.03645718,0.0060469518333333,-1.2601703333333332,0.4109915166666666,0.9586026333333332,2.4091663333333333,4.083333333333333,-33.916666666666664,53.5,-9.916666666666666,51.91666666666666,249.75,-1036.0,-6.75,323.25,1020.95625,-1.298125,2776.9166666666665,0.03645718,0.0533133336666666,0.0060469518333333,-0.0233083033333333,-1.2601703333333332,-0.012668417,39260.0,28768.0,7340.0,3.0,10.0,31.0,0,None
2023-01-01 06:07:38.850,215.8222,0.1079999999999983,100.0,1105.0,24151.0,4883.0,98.0,1175.8,220.4,4884.6,68.12541600000002,2.0012774,0.0344734166666666,-0.0173516266666666,-1.2570093333333334,39.26666666666667,0.04118369,-0.015202384,-1.25904,0.57788968,0.8642215,4.1052738,12.8,7.4,56.6,-15.0,-20.2,255.4,-1037.8,12.4,343.6,1020.9438,-1.3104532,2778.0,0.04118369,-0.0283573456666666,-0.015202384,-5.5163333333333016e-05,-1.25904,0.00027715,39270.0,28786.0,7350.0,-5.0,16.0,28.0,0,None
2023-01-01 06:07:39.400,216.3586,0.104000000000002,100.0,1182.0,24127.0,4883.0,98.0,1206.8,222.4,4879.8,68.309248,2.0010476,0.025742265,-0.01776116,-1.254172,39.27,0.03275131,-0.015176185,-1.2559835,0.49516022,1.2007008,3.7575404,20.6,-12.8,53.6,0.2,-4.0,239.4,-1047.4,23.4,321.2,1020.9546,-1.2996404,2779.4,0.03275131,-0.0058995059999999,-0.015176185,-0.018620145,-1.2559835,-0.0112803115,39270.0,28812.0,7350.0,-16.0,14.0,26.0,0,None
2023-01-01 06:07:39.950,216.8862,0.1041999999999973,100.0,1182.0,24092.0,4877.0,98.0,1195.4,224.0,4876.4,68.528548,2.0010394,0.0250193566666666,-0.001563143,-1.2555500000000002,39.26,0.03269721,0.0005336183333333,-1.2579416666666667,0.4481402200000001,0.93562962,5.0040594,0.2,39.6,58.3,-22.2,-9.6,245.0,-1070.5,-22.0,329.7,1020.9527,-1.3016249999999998,2780.6,0.03269721,0.0086746493333333,0.0005336183333333,0.0374406533333333,-1.2579416666666667,-0.0066983533333333,39260.0,28790.0,7340.0,-25.0,11.0,27.0,0,None
