00000_Time_epoch,00000_Time_boot_sec,00000_Span_Time_boot_sec,1_battery_remaining_avg,1_current_battery_avg,1_voltage_battery_avg,125_Vcc_avg,147_battery_remaining_avg,147_current_battery_avg,147_current_consumed_avg,165_Vcc_avg,168_direction_avg,168_speed_avg,178_pitch_avg,178_roll_avg,178_yaw_avg,182_altitude_avg,182_pitch_avg,182_roll_avg,182_yaw_avg,241_vibration_x_avg,241_vibration_y_avg,241_vibration_z_avg,27_xacc_avg,27_xgyro_avg,27_xmag_avg,27_yacc_avg,27_ygyro_avg,27_ymag_avg,27_zacc_avg,27_zgyro_avg,27_zmag_avg,29_press_abs_avg,29_press_diff_avg,29_temperature_avg,30_pitch_avg,30_pitchspeed_avg,30_roll_avg,30_rollspeed_avg,30_yaw_avg,30_yawspeed_avg,33_alt_avg,33_hdg_avg,33_relative_alt_avg,33_vx_avg,33_vy_avg,33_vz_avg,label,diagnosis
2023-01-02 12:35:48.050,210.386,-0.1199999999999988,83.0,82.0,23330.0,4867.0,99.0,80.0,47.5,4864.2,167.03046,0.1344581,0.00454733,-0.0078505555,-1.2184855,35.665,0.011162835,-0.0075025985,-1.2211925,0.02333903,0.025716585,0.040515215,-7.5,0.25,78.25,-8.75,5.5,258.25,-1055.5,-0.5,335.0,1020.95975,-0.294101575,2955.0,0.011162835,0.005993126,-0.0075025985,-0.00077751055,-1.2211925,-0.00100227625,35620.0,29004.0,80.0,-5.0,12.0,33.0,0,None
2023-01-02 12:35:48.600,210.89399999999995,0.1039999999999963,83.0,80.0,23325.0,4869.0,99.0,79.6,48.0,4862.2,168.50656,0.11391708,0.0042987669999999,-0.008522288,-1.2183443333333337,35.78333333333333,0.0113015033333333,-0.007628042,-1.2212903333333334,0.0250719399999999,0.02565832,0.035825614,-7.6,0.0,77.4,-8.0,4.8,258.4,-1056.0,-0.8,335.2,1020.9624,-0.2915625,2955.8,0.0113015033333333,0.0054667113333333,-0.007628042,-0.0001309107,-1.2212903333333334,-0.0004062022666666,35740.0,29003.0,200.0,-5.0,12.0,33.0,0,None
2023-01-02 12:35:49.150,211.414,0.104000000000002,83.0,77.0,23327.0,4871.0,99.0,77.6,48.0,4873.4,169.56906,0.1124289799999999,0.004783424,-0.007834454,-1.218069,35.925,0.011392395,-0.007678314,-1.221395,0.026429168,0.0258161599999999,0.033252872,-7.6,0.0,78.4,-9.0,5.0,258.6,-1055.8,-0.7,335.5,1020.9705,-0.28328906,2957.1,0.011392395,0.0057153099999999,-0.007678314,-0.0002825487,-1.221395,-0.001101305,35890.0,29003.0,350.0,-5.0,12.0,34.0,0,None
2023-01-02 12:35:49.700,211.98933333333332,0.103333333333334,83.0,77.0,23315.0,4871.0,99.0,148.33333333333334,48.0,4866.166666666667,170.18679999999998,0.1217969333333333,0.004935365,-0.0079078413333333,-1.2179723333333332,36.04,0.0116624133333333,-0.0074837436666666,-1.221444,0.0786301266666666,0.1388878466666666,0.6821952916666666,-6.0,0.1666666666666666,74.83333333333333,-7.5,6.166666666666667,258.1666666666667,-1064.5,15.166666666666666,332.1666666666667,1020.984,-0.26979165,2958.333333333333,0.0116624133333333,0.0066109473333333,-0.0074837436666666,0.0002993387,-1.221444,0.0102243437333333,36010.0,29002.0,470.0,-5.0,12.0,35.0,0,None
2023-01-02 12:35:50.250,212.546,0.0999999999999999,83.0,123.0,23286.0,4879.0,99.0,130.6,48.0,4861.0,170.51666,0.13732094,0.0051756036666666,-0.0080039773333333,-1.2186336666666666,36.13999999999999,0.0118330333333333,-0.0073901856666666,-1.2220213333333332,0.115329816,0.21675866,1.247334,-17.4,3.6,76.2,-10.0,7.8,258.0,-1057.0,-16.6,332.8,1020.991,-0.26281246,2959.4,0.0118330333333333,0.0091344806666666,-0.0073901856666666,0.0034283766666666,-1.2220213333333332,-0.0114424139999999,36110.0,28999.0,570.0,-5.0,13.0,36.0,0,None
2023-01-02 12:35:50.800,213.06200000000004,0.1039999999999963,83.0,142.0,23283.0,4877.0,99.0,410.4,48.2,4871.8,170.52364,0.15438282,0.0051697305,-0.0072605045,-1.2183795,36.19,0.012223385,-0.0070998155,-1.2219425,0.1868093599999999,0.33718824,1.2425664,-6.4,-2.2,77.6,1.0,9.8,259.4,-1046.0,23.4,322.8,1021.0594,-0.19453123,2960.8,0.012223385,0.009244149,-0.0070998155,0.0081279975,-1.2219425,-0.022514065,36160.0,29003.0,620.0,-5.0,13.0,35.0,0,None
2023-01-02 12:35:51.350,213.6326666666667,0.103333333333334,83.0,2052.0,22741.0,4866.0,99.0,1781.3333333333333,50.5,4873.833333333333,170.29525,0.1754551666666667,0.03040856,-0.005656248,-1.220418,36.36333333333334,0.0375934233333333,-0.0051945786666666,-1.2222676666666663,0.3976977833333333,1.596817,5.606451,-9.166666666666666,4.166666666666667,36.66666666666666,-7.5,14.166666666666666,248.66666666666663,-1279.1666666666667,28.5,268.1666666666667,1021.3066666666668,0.0526171783333333,2962.0,0.0375934233333333,0.0117171666666666,-0.0051945786666666,0.01691241,-1.2222676666666663,-0.0155163072666666,36400.0,29004.0,860.0,-10.5,26.5,93.0,0,None
2023-01-02 12:35:51.900,214.206,0.104000000000002,82.0,1871.0,22778.0,4880.0,99.0,1925.4,53.4,4877.4,168.61002,0.21828268,-0.0100026666666666,-0.0018538066666666,-1.223035,37.24,-0.0026489683333333,-0.0005940633333333,-1.222122,0.3818144,1.4206128,4.6354714,-17.2,42.4,60.2,-2.0,-50.8,244.0,-1294.6,-20.4,247.2,1020.9316,-0.32228124,2963.4,-0.0026489683333333,-0.040706995,-0.0005940633333333,0.0791686333333333,-1.222122,-0.024033024,37510.0,28977.0,1970.0,-16.0,38.0,269.0,0,None
2023-01-02 12:35:52.450,214.731,0.1081999999999993,81.5,1787.0,22735.0,4879.5,99.0,1779.8,56.4,4875.8,167.13912,0.26270544,-0.0353311,0.0043563254999999,-1.236303,38.485,-0.02836309,0.0052153785,-1.2341665000000002,0.40577808,1.5054798,6.9933602,-18.8,-123.6,65.3,-12.2,-121.3,248.1,-1141.0,-11.0,248.0,1020.7067,-0.5470625100000001,2964.6,-0.02836309,-0.12801159,0.0052153785,-0.16033785,-1.2341665000000002,-0.027516865,38900.0,28917.0,3360.0,0.0,29.0,331.0,0,None
2023-01-02 12:35:53.000,215.2552,0.1041999999999972,81.0,1719.0,22738.0,4874.0,99.0,1688.4,58.8,4870.4,166.84537999999998,0.28966458,-0.07575182,-0.0501515066666666,-1.2362093333333333,40.05666666666667,-0.0676038533333333,-0.0487678266666666,-1.263077,0.30550628,2.00081,6.138189400000001,-10.4,15.0,89.6,-13.6,53.0,231.2,-1064.6,19.4,263.8,1020.513,-0.7408593600000001,2965.8,-0.0676038533333333,0.0620562566666666,-0.0487678266666666,-0.0003348369666666,-1.263077,0.0291334699999999,40450.0,28778.0,4910.0,-5.0,-17.0,336.0,0,None
2023-01-02 12:35:53.550,215.82466666666667,0.103333333333334,81.0,1245.0,22879.0,4883.0,99.0,1463.8333333333333,61.333333333333336,4867.5,168.8253,0.3086779666666666,0.01115712,0.0108930466666666,-1.2062496666666669,41.96333333333334,0.0201496566666666,0.0108815366666666,-1.2331553333333334,0.4104061666666667,1.4371006666666668,5.430066833333334,-10.0,118.5,64.0,7.166666666666667,159.16666666666666,248.5,-1017.5,56.333333333333336,284.3333333333333,1020.2708333333334,-0.98311195,2967.1666666666665,0.0201496566666666,0.0644361666666666,0.0108815366666666,0.0255861716666666,-1.2331553333333334,0.0422234,42070.0,28989.0,6530.0,1.0,-26.0,328.0,0,None
2023-01-02 12:35:54.100,216.3962,0.1042000000000029,80.0,1598.0,22783.0,4877.0,99.0,1282.6,63.4,4870.8,171.32312,0.32459704,-0.105237875,0.036873745,-1.2174005,43.435,-0.097938905,0.037150325,-1.242846,0.46149956,1.05027256,5.6730514,10.4,58.0,88.4,-7.6,-468.8,259.2,-880.6,-34.8,250.8,1020.0716,-1.182125,2968.6,-0.097938905,-0.47000205,0.037150325,0.1638544499999999,-1.242846,-0.04604253,43510.0,28872.0,7970.0,26.0,-29.0,249.0,0,None
2023-01-02 12:35:54.650,216.9242,0.1077999999999974,80.0,1215.0,22863.0,4877.0,99.0,1276.2,65.6,4877.8,172.29041999999998,0.34608932,-0.2665269666666667,0.0060723333333333,-1.172883,44.49,-0.2521524333333333,0.0053065433333333,-1.1978566666666666,0.3034377,1.14333008,7.059361000000001,12.2,-92.9,154.1,-22.5,-127.9,257.6,-1001.1,200.7,219.3,1019.9551,-1.2986875999999998,2969.6,-0.2521524333333333,-0.1821857266666666,0.0053065433333333,-0.0780903496666666,-1.1978566666666666,0.2219270666666666,44590.0,29183.0,9050.0,98.0,-136.0,200.0,0,None
2023-01-02 12:35:55.200,217.452,0.104000000000002,80.0,1350.0,22811.0,4877.0,99.0,1380.0,67.4,4874.8,172.27112,0.3765777999999999,-0.2372515499999999,-0.0501269649999999,-1.055325,45.395,-0.22378635,-0.049068675,-1.0804795,0.26516192,1.5664872,6.691386399999999,0.6,31.0,184.8,-25.0,173.8,235.8,-1115.2,79.8,256.6,1019.8898,-1.3640468,2971.0,-0.22378635,0.1827537,-0.049068675,0.05452691,-1.0804795,0.064685525,45470.0,29836.0,9930.0,140.0,-280.0,192.0,0,None
2023-01-02 12:35:55.750,218.03133333333332,0.103333333333334,79.0,1363.0,22834.0,4879.0,99.0,1352.6666666666667,69.5,4874.166666666667,172.1069,0.4089630333333332,-0.10549234,-0.0212034796666666,-1.0184086666666667,46.31666666666666,-0.0968852933333333,-0.0191571646666666,-1.046039,0.45413305,1.6597689999999998,8.291920833333334,-32.333333333333336,52.0,160.5,-58.333333333333336,282.0,230.83333333333331,-1115.0,116.83333333333331,252.16666666666663,1019.7406666666668,-1.5130078333333332,2972.5,-0.0968852933333333,0.4033798666666666,-0.0191571646666666,0.0575967166666666,-1.046039,0.12153932,46380.0,30016.0,10840.0,164.0,-375.0,224.0,0,None
2023-01-02 12:35:56.300,218.588,0.0999999999999999,79.0,1209.0,22843.0,4871.0,99.0,1431.6,71.6,4872.2,171.88327999999998,0.43395044,-0.0299207799999999,0.0323424146666666,-0.9184526333333332,47.53,-0.0273107166666666,0.0345089501666666,-0.9476745,0.47192584,1.7167929999999998,12.623744,-19.2,133.6,156.8,-52.4,-50.4,237.0,-1074.6,231.8,253.8,1019.6298,-1.6239532,2973.6,-0.0273107166666666,-0.0867021233333333,0.0345089501666666,0.06075036,-0.9476745,0.2107514666666667,47410.0,30485.0,11870.0,152.0,-398.0,230.0,0,None
2023-01-02 12:35:56.850,219.0962,0.1039999999999963,79.0,1486.0,22767.0,4875.0,99.0,1518.8,73.8,4877.6,170.01012,0.45383354,-0.06248323,0.092554585,-0.8389953,48.6,-0.0590286399999999,0.09430965,-0.8688617999999999,0.45604008,2.0457972,10.0347528,-21.8,103.4,189.6,-67.6,-37.8,250.2,-1035.4,92.6,256.6,1019.5126,-1.741406,2974.4,-0.0590286399999999,-0.054710855,0.09430965,0.059234545,-0.8688617999999999,0.0623948165,48470.0,31015.0,12930.0,168.0,-404.0,235.0,0,None
2023-01-02 12:35:57.400,219.67566666666667,0.1035000000000015,78.0,1441.0,22766.0,4875.0,99.0,1444.5,76.16666666666667,4878.666666666667,165.9786333333333,0.4706155333333333,-0.0905539866666666,0.08300188,-0.8207839333333333,49.74666666666667,-0.0870508533333333,0.08464513,-0.8506542,0.4717133666666666,2.009346333333333,11.467466666666668,-22.166666666666668,-18.33333333333333,201.41666666666663,-80.58333333333333,4.416666666666667,245.25,-1084.25,21.83333333333333,249.58333333333331,1019.3613333333334,-1.8925325,2975.833333333333,-0.0870508533333333,-0.0111080946666666,0.08464513,-0.0217108111666666,-0.8506542,0.00207932,49630.0,31128.0,14090.0,214.0,-409.0,244.0,0,None
2023-01-02 12:35:57.950,220.22900000000004,0.0999999999999999,78.0,1450.0,22746.0,4874.0,99.0,1538.0,78.6,4878.6,160.82170000000002,0.4821901199999999,-0.0775562433333333,0.0733389266666666,-0.8190824,51.09,-0.0743069166666666,0.0777432399999999,-0.8498608666666666,0.47540006,1.9031914,9.6550978,-33.4,-27.4,201.0,-77.4,14.0,238.6,-1084.4,-21.4,249.4,1019.2168,-2.0369374,2977.4,-0.0743069166666666,0.0920553433333333,0.0777432399999999,0.0794274933333333,-0.8498608666666666,-0.0069792616666666,50740.0,31142.0,15200.0,255.0,-426.0,251.0,0,None
2023-01-02 12:35:58.500,220.78233333333336,0.103333333333334,77.5,1532.0,22729.0,4852.5,99.0,1491.3333333333333,81.0,4867.0,154.7088666666667,0.49382305,-0.0692526933333333,0.07252991,-0.8379007666666668,52.42333333333334,-0.0649920466666666,0.0783291833333333,-0.8700308333333333,0.5377718499999999,2.0913818333333336,12.346025000000004,-21.33333333333333,53.16666666666666,192.16666666666663,-108.16666666666669,40.833333333333336,234.0,-1030.6666666666667,-23.666666666666668,249.5,1019.0106666666668,-2.2429950000000005,2978.833333333333,-0.0649920466666666,0.0023369133333333,0.0783291833333333,0.0221658536666666,-0.8700308333333333,-0.05898006,52405.0,31019.5,16865.0,283.5,-455.0,253.0,0,None
2023-01-02 12:35:59.050,221.361,0.1079999999999983,77.0,1879.0,22627.0,4851.0,99.0,1951.8,83.6,4871.6,147.45154,0.50929182,-0.0484233149999999,0.10186327,-0.85566505,53.6,-0.04459239,0.10872517,-0.88839515,0.55755912,1.6601664,8.8406012,-11.6,17.4,173.6,-79.2,11.8,243.8,-1051.0,-37.6,219.8,1018.862,-2.392078,2980.0,-0.04459239,-0.0132611249999999,0.10872517,0.079922535,-0.88839515,-0.0397220999999999,54130.0,30863.0,18590.0,309.0,-478.0,242.0,0,None
2023-01-02 12:35:59.600,221.869,0.0959999999999979,77.0,1654.0,22634.0,4872.0,99.0,1631.2,86.0,4865.2,139.32678,0.5336028199999999,-0.0305909999999999,0.08899968,-0.8506953999999999,54.79666666666666,-0.0265583499999999,0.0956665766666666,-0.8835323333333333,0.52557902,1.6733689999999997,10.146649,-33.6,3.0,180.4,-98.6,60.6,228.8,-1067.6,16.8,245.8,1018.7326,-2.5212812,2981.2,-0.0265583499999999,0.0101774033333333,0.0956665766666666,0.0448909,-0.8835323333333333,0.0185729266666666,55340.0,30977.0,19800.0,315.0,-481.0,265.0,0,None
2023-01-02 12:36:00.150,222.377,0.104000000000002,76.0,1652.0,22674.0,4872.0,99.0,1641.0,88.2,4872.4,131.40282,0.57261458,-0.0088617809999999,0.1039988749999999,-0.8497655,55.995,-0.0040839125,0.11237455,-0.88342665,0.6010805400000001,1.7973606,9.1150514,-36.6,37.0,162.0,-122.0,11.6,253.2,-998.6,-37.6,258.6,1018.615,-2.6389218,2982.2,-0.0040839125,-0.0235387,0.11237455,0.063572295,-0.88342665,-0.031491085,56550.0,30888.0,21010.0,310.0,-474.0,255.0,0,None
2023-01-02 12:36:00.700,222.98266666666663,0.1099999999999993,76.0,1416.0,22738.0,4880.0,99.0,1519.1666666666667,91.0,4875.333333333333,121.15566666666668,0.6630538666666667,-0.0319948525,0.112788375,-0.872896925,57.4375,-0.0264966375,0.1198905,-0.906053325,0.5435506166666667,1.943708,12.119119,-20.33333333333333,33.166666666666664,177.0,-117.91666666666669,-21.25,245.66666666666663,-1049.25,-11.416666666666666,230.91666666666663,1018.4764166666664,-2.77742825,2983.5,-0.0262500975,-0.03826375,0.1198839,0.0198835825,-0.905974275,-0.0126743174999999,57720.0,30801.0,22180.0,326.0,-471.0,255.0,0,None
2023-01-02 12:36:01.250,223.565,0.104000000000002,76.0,1550.0,22684.0,4879.0,99.0,1493.8,93.6,4869.8,114.12926,0.7642168399999999,-0.02653994,0.096170515,-0.8743753000000001,58.785,-0.018163185,0.10222615,-0.90719105,0.48371314,2.059172,10.5710292,-12.6,-17.4,169.4,-94.0,18.4,238.6,-1116.8,-20.4,249.2,1018.337,-2.916578,2985.0,-0.018163185,-0.008505755,0.10222615,0.00034438,-0.90719105,-0.044977805,58830.0,30796.0,23290.0,343.0,-474.0,258.0,0,None
2023-01-02 12:36:01.800,224.069,0.0999999999999999,75.0,2061.0,22508.0,4880.0,99.0,1533.2,95.6,4873.0,108.7687,0.8769320799999999,0.069148772,0.0971573499999999,-0.8870317999999999,59.89666666666667,0.0763294103333333,0.1035497866666666,-0.9191148333333332,0.4868554400000001,2.1446841999999995,12.8275434,-29.2,-19.4,147.0,-113.0,366.0,251.6,-1016.0,-93.6,264.2,1018.2268,-3.0271092000000004,2986.0,0.0763294103333333,0.3257766666666666,0.1035497866666666,0.0148844436666666,-0.9191148333333332,-0.0649728399999999,59940.0,30760.0,24400.0,349.0,-458.0,266.0,0,None
2023-01-02 12:36:02.350,224.63566666666665,0.103333333333334,75.0,1261.0,22744.0,4883.0,99.0,1139.5,97.5,4878.5,104.27751666666666,1.0008516666666665,0.1016962933333333,0.0660118966666666,-0.9292203666666669,60.98666666666667,0.1070070666666666,0.07340574,-0.9606105333333332,0.4808188,1.45014335,12.213233333333337,-4.833333333333333,-75.83333333333333,111.0,-103.66666666666669,-237.33333333333331,248.0,-922.5,-58.16666666666666,304.3333333333333,1018.1193333333334,-3.134531166666666,2987.5,0.1070070666666666,-0.2851548666666666,0.07340574,-0.1042685933333333,-0.9606105333333332,-0.0776221733333333,60890.0,30555.0,25350.0,311.0,-403.0,199.0,0,None
2023-01-02 12:36:02.900,225.189,0.0999999999999999,75.0,1139.0,22784.0,4853.0,99.0,1115.2,99.4,4870.8,100.618824,1.1308408,-0.02766532,0.02677086,-0.9967428,61.525000000000006,-0.0169580875,0.033177955,-1.0266055,0.41941108,1.6708018,13.539392,6.8,-5.4,142.4,-29.0,-100.4,253.4,-963.8,-126.2,287.4,1018.0886,-3.1653438,2988.4,-0.0169580875,-0.11223802,0.033177955,0.00053957,-1.0266055,-0.1634042,61460.0,30178.0,25920.0,285.0,-396.0,140.0,0,None
2023-01-02 12:36:03.450,225.739,0.099999999999999,75.0,1255.5,22743.5,4878.5,99.0,1116.8333333333333,100.83333333333331,4875.666666666667,97.78472,1.270861,-0.03386829,0.03122794,-1.0526756666666668,61.78666666666667,-0.0204371633333333,0.0364182433333333,-1.081386,0.4864896833333333,1.5445386666666667,13.883798333333331,8.166666666666666,19.5,132.5,-89.83333333333333,30.166666666666668,250.33333333333331,-1017.8333333333334,-134.83333333333334,283.8333333333333,1018.0483333333336,-3.205703,2989.833333333333,-0.0204371633333333,0.0282657846666666,0.0364182433333333,-0.0086589966666666,-1.081386,-0.1004891499999999,61760.0,29868.0,26220.0,280.0,-427.0,103.0,0,None
2023-01-02 12:36:04.000,226.293,0.1039999999999963,75.0,1091.0,22764.0,4883.0,99.0,1184.0,102.6,4879.6,95.770662,1.4105450000000002,-0.011312083,0.0307310933333333,-1.099769,61.96333333333334,0.0019931296666666,0.0332428466666666,-1.1282786666666669,0.45641078,1.4770294,13.167442,15.4,-42.4,122.2,-83.4,60.0,257.8,-1041.6,-26.0,278.0,1017.9794,-3.274406,2991.6,0.0019931296666666,0.02756944,0.0332428466666666,-0.147687261,-1.1282786666666669,-0.0352926533333333,61920.0,29563.0,26380.0,285.0,-457.0,77.0,0,None
2023-01-02 12:36:04.550,226.8096,0.1002000000000008,75.0,1150.0,22762.0,4888.0,99.0,1141.8,104.4,4886.2,94.254038,1.5573628,0.020185975,0.009090451,-1.125265,62.075,0.03223675,0.012284235,-1.154316,0.47539162,1.4797448,10.878806,18.2,-27.2,99.4,-78.8,67.4,253.4,-1019.4,-67.8,297.8,1017.962,-3.2916092,2992.6,0.03223675,0.036476055,0.012284235,-0.0074542699999999,-1.154316,-0.04385302,62040.0,29446.0,26500.0,282.0,-479.0,65.0,0,None
2023-01-02 12:36:05.100,227.37266666666665,0.1065000000000016,74.0,1221.0,22736.0,4887.0,99.0,1161.8333333333333,106.16666666666669,4882.5,93.4322,1.6851779999999998,0.0388859233333333,0.0222572333333333,-1.152326,62.13666666666666,0.05093884,0.0233720233333333,-1.181909,0.5280488,1.3753793333333333,11.8138255,24.666666666666668,30.5,87.08333333333333,-44.833333333333336,-4.916666666666667,255.91666666666663,-1078.75,15.5,292.6666666666667,1017.9715,-3.2824934166666666,2993.6666666666665,0.0510324733333333,0.0262710933333333,0.02317581,0.0549985566666666,-1.1822713333333332,0.0005353166666666,62140.0,29253.5,26600.0,265.0,-489.0,53.0,0,None
2023-01-02 12:36:05.650,227.949,0.0999999999999999,74.0,1190.0,22775.0,4883.0,99.0,1158.2,108.4,4878.0,92.96080200000002,1.8088144,0.0337668999999999,0.0306842466666666,-1.1383186666666667,62.18333333333334,0.0450353033333333,0.03154028,-1.1683033333333332,0.465349,1.15521886,9.4182312,14.2,-32.8,92.8,-48.8,7.8,251.8,-1075.2,-3.8,297.4,1017.9558,-3.2982656,2995.2,0.0450353033333333,-0.0325753466666666,0.03154028,-0.0306472633333333,-1.1683033333333332,0.0032735216666666,62200.0,29302.0,26660.0,256.0,-490.0,48.0,0,None
2023-01-02 12:36:06.200,228.4616,0.1041999999999973,74.0,1280.0,22733.0,4856.0,99.0,1156.8,109.6,4879.8,92.697836,1.9246852,0.05743614,0.0118979656666666,-1.1432753333333332,62.21,0.0674803966666666,0.0127103166666666,-1.174094,0.49132854,1.24905132,9.74315,3.0,-6.0,84.0,-67.2,78.4,256.0,-1025.4,-37.4,298.0,1017.9514,-3.3025780000000005,2996.0,0.0674803966666666,0.0220721899999999,0.0127103166666666,-0.0311156643333333,-1.174094,-0.0203875855999999,62210.0,29259.0,26670.0,237.0,-482.0,38.0,0,None
2023-01-02 12:36:06.750,229.02,0.1000000000000037,74.0,1095.0,22751.0,4883.0,99.0,1174.6666666666667,111.5,4875.666666666667,92.54871,2.0406910000000003,0.03582739,0.02356334,-1.1610073333333333,62.223333333333336,0.04564423,0.0243986366666666,-1.192349,0.4885431666666666,1.4834118333333333,10.288748,24.166666666666668,29.166666666666668,75.83333333333333,-30.0,-85.0,250.83333333333331,-1068.3333333333333,-24.0,282.1666666666667,1017.901,-3.352838333333333,2997.333333333333,0.04564423,-0.0253219633333333,0.0243986366666666,0.0265829833333333,-1.192349,-0.03790565,62220.0,29168.0,26680.0,224.0,-474.0,42.0,0,None
2023-01-02 12:36:07.300,229.5862,0.1041999999999973,74.0,1090.0,22768.0,4859.0,99.0,1079.6,113.4,4874.6,92.528248,2.1539624,0.00576998775,0.0433329999999999,-1.1654785,62.26,0.016496085,0.042868325,-1.1976685,0.47878752,1.302536,8.9722238,16.8,17.2,88.0,-59.8,-49.6,264.4,-1100.0,-17.6,293.0,1017.942,-3.311953,2998.6,0.016496085,0.0178548499999999,0.042868325,-0.02090599,-1.1976685,0.016838085,62270.0,29139.0,26730.0,231.0,-481.0,33.0,0,None
2023-01-02 12:36:07.850,230.1064,0.103800000000001,74.0,972.0,22785.0,4871.0,99.0,1076.8,114.8,4877.2,92.591468,2.2701468,0.0018474768333333,0.0325169433333333,-1.154877,62.22666666666667,0.0130585236666666,0.0323738099999999,-1.187603,0.44495798,1.4055918,7.456430399999999,21.6,-37.4,87.0,2.4,17.0,261.2,-1062.0,35.4,289.2,1017.9652,-3.288625000000001,2999.8,0.0130585236666666,0.03680927,0.0323738099999999,-0.03184376,-1.187603,0.05011489,62230.0,29199.0,26690.0,248.0,-495.0,32.0,0,None
2023-01-02 12:36:08.400,230.67766666666668,0.1035000000000015,74.0,1164.0,22729.0,4877.0,99.0,1201.3333333333333,116.83333333333331,4870.0,92.70907333333332,2.393007666666667,0.03838722,0.013706577,-1.1390833333333334,62.14666666666667,0.0481139033333333,0.0133843226666666,-1.1722456666666663,0.4299496166666666,1.6338916666666667,9.856348666666667,8.916666666666666,-21.416666666666668,84.75,-54.583333333333336,59.66666666666666,259.4166666666667,-1055.75,38.583333333333336,289.3333333333333,1017.92875,-3.32517575,3001.0,0.0481139033333333,0.1127772266666666,0.0133843226666666,-0.01366403,-1.1722456666666663,0.0358005666666666,62150.0,29271.0,26610.0,248.0,-505.0,30.0,0,None
2023-01-02 12:36:08.950,231.2544,0.1079999999999983,74.0,1266.0,22715.5,4863.0,99.0,1189.8,118.6,4865.0,92.8666,2.503857,0.0699450349999999,0.020657615,-1.1181715,62.105,0.078319155,0.0226992,-1.151898,0.4897662,1.44337126,11.6361328,15.6,22.4,78.8,-38.4,33.2,257.2,-1049.6,41.2,288.2,1017.9174,-3.336453,3002.6,0.078319155,0.0462551249999999,0.0226992,0.0276271299999999,-1.151898,0.043099,62120.0,29374.0,26580.0,230.0,-497.0,29.0,0,None
2023-01-02 12:36:09.500,231.77820000000003,0.103800000000001,73.0,1249.0,22718.0,4874.0,99.0,1248.4,120.4,4872.4,93.02606,2.5960118000000003,0.03912296,0.0380116366666666,-1.0933233333333332,62.086666666666666,0.0476936933333333,0.0392294666666666,-1.1277796666666666,0.5189137,1.0571098200000002,11.0614206,7.4,36.6,98.2,-69.0,-93.0,260.0,-1072.2,12.0,301.0,1017.9158,-3.338203,3003.4,0.0476936933333333,-0.0401898553333333,0.0392294666666666,0.0455759966666666,-1.1277796666666666,0.0134088806666666,62090.0,29553.0,26550.0,216.0,-482.0,31.0,0,None
2023-01-02 12:36:10.050,232.2942,0.1039999999999963,73.0,1271.0,22709.0,4874.0,99.0,1237.4,122.2,4873.4,93.194538,2.6947504,0.04504224,-0.03634404,-1.1275825,62.07,0.0537710599999999,-0.0348443145,-1.162089,0.35855662,1.5746576799999998,9.973481,13.6,-297.4,98.4,-33.8,65.4,241.2,-1088.6,-144.0,285.0,1017.9382000000002,-3.3158124,3004.4,0.0537710599999999,0.084479532,-0.0348443145,-0.42641015,-1.162089,-0.195324025,62070.0,29458.0,26530.0,209.0,-482.0,32.0,0,None
2023-01-02 12:36:10.600,232.86733333333336,0.1035000000000015,73.0,1161.0,22697.0,4861.0,99.0,1239.1666666666667,124.16666666666669,4875.666666666667,93.35247,2.815081333333333,0.0198480466666666,-0.1451360666666666,-1.2891433333333333,62.04333333333333,0.0289876866666666,-0.1432871,-1.3233819999999998,0.4101229,1.4574334333333334,7.204184833333333,20.58333333333333,-44.91666666666666,60.083333333333336,-60.583333333333336,-26.25,214.0,-1067.75,-323.4166666666667,319.0,1017.9361666666668,-3.31774725,3005.6666666666665,0.0289876866666666,-0.0338758724666666,-0.1432871,-0.0154542466666666,-1.3233819999999998,-0.3442657666666666,62040.0,28580.0,26500.0,145.0,-496.0,35.0,0,None
2023-01-02 12:36:11.150,233.43860000000004,0.103800000000001,73.0,1231.0,22719.0,4877.0,99.0,1224.8,126.4,4881.2,93.47270600000002,2.9188242,0.0019613566333333,-0.1158218333333333,-1.4589036666666668,62.00666666666666,0.0113338266666666,-0.1160963666666666,-1.4941696666666668,0.41455494,1.21023222,3.2767648,1.8,37.8,11.6,-27.4,35.0,231.8,-1061.0,-203.8,329.8,1017.9806,-3.2733904000000003,3007.4,0.0113338266666666,0.0260802797,-0.1160963666666666,0.0402233066666666,-1.4941696666666668,-0.2002495,62020.0,27679.0,26480.0,62.0,-522.0,34.0,0,None
2023-01-02 12:36:11.700,233.96200000000005,0.1039999999999963,73.0,1188.0,22711.0,4851.0,99.0,1217.4,128.0,4874.2,93.571054,3.0049254000000003,0.0121343764999999,-0.10428304,-1.539324,61.95,0.02022448,-0.1083773,-1.5741915,0.4667331999999999,1.4267605,5.898655199999999,-0.4,64.6,-13.6,-6.0,14.4,223.6,-1119.8,-112.8,312.4,1017.957,-3.2969532,3008.6,0.02022448,0.0301040885,-0.1083773,0.0694842112,-1.5741915,-0.13522367,61970.0,27100.0,26430.0,0.0,-536.0,34.0,0,None
2023-01-02 12:36:12.250,234.52083333333331,0.1001666666666664,73.0,1195.0,22709.0,4877.0,99.0,1185.1666666666667,129.83333333333334,4878.0,93.66446,3.101612,0.0130870033333333,-0.0337259633333333,-1.6235856666666668,61.89666666666667,0.0208026566666666,-0.0380310766666666,-1.6582610000000002,0.4155753666666666,1.3903598333333334,6.145736666666665,-4.166666666666667,122.33333333333331,-39.0,-31.666666666666668,5.166666666666667,251.33333333333331,-1041.0,-182.66666666666663,309.8333333333333,1017.969,-3.284739333333333,3009.5,0.0208026566666666,0.00755931,-0.0380310766666666,0.12444867,-1.6582610000000002,-0.1569790666666666,61920.0,26684.0,26380.0,-54.0,-541.0,39.0,0,None
2023-01-02 12:36:12.800,235.071,0.0999999999999999,73.0,1279.0,22720.0,4883.0,99.0,1288.4,131.6,4873.8,93.72876,3.1944424,0.0016453466666666,-0.0090825006666666,-1.70472,61.830000000000005,0.00845845,-0.0143500453333333,-1.7386160000000002,0.39476432,1.09711826,3.8378468,-2.6,-34.6,-58.6,20.0,-22.2,261.2,-1054.8,-102.6,284.6,1017.9458,-3.3080937999999995,3010.6,0.00845845,-0.0219863066666666,-0.0143500453333333,-0.0325538126666666,-1.7386160000000002,-0.1139905266666666,61870.0,26216.0,26330.0,-65.0,-544.0,36.0,0,None
2023-01-02 12:36:13.350,235.621,0.1000000000000037,73.0,1260.0,22693.0,4885.0,99.0,1267.0,133.66666666666666,4872.5,93.76243499999998,3.2803680000000006,0.0037460816666666,-0.0652551266666666,-1.757588666666667,61.77666666666666,0.0109347383333333,-0.0695195,-1.7900973333333334,0.52449745,0.9741388333333334,4.858533666666666,-18.166666666666668,-116.33333333333331,-72.83333333333333,8.166666666666666,46.66666666666666,237.0,-1055.8333333333333,-82.5,321.3333333333333,1017.962,-3.291718833333333,3012.1666666666665,0.0109347383333333,0.0531524053333333,-0.0695195,-0.1193232,-1.7900973333333334,-0.0677356033333333,61795.0,25809.0,26255.0,-71.0,-554.0,37.0,0,None
2023-01-02 12:36:13.900,236.19100000000003,0.1039999999999963,72.0,1408.0,22649.0,4885.0,99.0,1319.4,135.6,4879.6,93.78581,3.3629408000000005,0.0202134949999999,-0.07947375,-1.8035565,61.735,0.02770003,-0.0810172899999999,-1.8365205,0.39590716,1.0325495,5.6908556,-6.2,55.0,-90.6,-1.0,22.6,212.0,-1077.0,-72.6,314.8,1017.9384,-3.3155156000000003,3013.2,0.02770003,0.0449296215,-0.0810172899999999,0.08078522,-1.8365205,-0.089803285,61730.0,25421.0,26190.0,-108.0,-545.0,39.0,0,None
2023-01-02 12:36:14.450,236.7441666666667,0.1000000000000037,72.0,1316.0,22650.5,4885.0,99.0,1353.5,137.66666666666666,4874.833333333333,93.817,3.444689666666667,0.0049548866666666,-0.05053954,-1.8214203333333328,61.74,0.011540261,-0.0521201166666666,-1.855298,0.3828964000000001,1.00556645,6.146177833333334,-1.1666666666666667,23.0,-96.0,22.83333333333333,-34.166666666666664,244.0,-1041.1666666666667,10.0,302.1666666666667,1017.9221666666668,-3.331745,3014.1666666666665,0.011540261,-0.0462814303333333,-0.0521201166666666,0.0017972299999999,-1.855298,0.00841734,61750.0,25367.0,26210.0,-121.0,-542.0,37.0,0,None
2023-01-02 12:36:15.000,237.29100000000005,0.0999999999999999,72.0,1271.0,22701.0,4858.0,99.0,1324.2,139.6,4882.2,93.861994,3.5237288,0.0032765578333333,-0.0618665733333333,-1.810132,61.77333333333333,0.010929384,-0.0624310466666666,-1.8423753333333333,0.39698946,0.97829644,6.623340999999999,-15.6,-31.4,-94.8,1.8,12.6,221.0,-1061.4,21.4,305.6,1017.9178,-3.3361094,3015.4,0.010929384,0.0442925933333333,-0.0624310466666666,0.0711717066666666,-1.8423753333333333,0.018246796,61780.0,25436.0,26240.0,-134.0,-541.0,38.0,0,None
2023-01-02 12:36:15.550,237.84100000000004,0.099999999999999,72.0,1175.0,22689.0,4882.0,99.0,1234.1666666666667,141.5,4875.333333333333,93.91149166666666,3.5972448333333333,-0.0171049436666666,-0.01816448,-1.7976676666666669,61.82666666666668,-0.009197799,-0.0188000979999999,-1.830494,0.4566229999999999,1.16127566,7.256100399999999,-13.333333333333334,101.66666666666669,-85.0,23.33333333333333,-37.333333333333336,235.0,-1051.6666666666667,35.666666666666664,298.6666666666667,1017.9008333333336,-3.353138,3016.6666666666665,-0.009197799,-0.0087391566666666,-0.0188000979999999,0.0524026766666666,-1.830494,0.0459194666666666,61820.0,25493.0,26280.0,-146.0,-543.0,38.0,0,None
2023-01-02 12:36:16.100,238.395,0.0999999999999999,72.0,1101.0,22724.0,4859.0,99.0,1167.0,143.4,4879.4,93.966976,3.6681426,-0.023340075,-0.01840545,-1.7811935,61.865,-0.015460495,-0.01886628,-1.8152305,0.64260288,0.8827218400000001,9.3339976,-15.0,-65.6,-73.0,14.6,56.0,243.0,-999.2,36.0,307.6,1017.859,-3.3948126000000003,3017.6,-0.015460495,0.038500145,-0.01886628,-0.05213502,-1.8152305,0.013190126,61860.0,25603.0,26320.0,-138.0,-562.0,32.0,0,None
2023-01-02 12:36:16.650,238.941,0.099999999999999,72.0,1180.0,22701.0,4883.0,99.0,1162.1666666666667,145.16666666666666,4879.333333333333,94.00067333333334,3.7382566666666666,0.0181410893333333,-0.0587649733333333,-1.7856553333333334,61.9,0.02554731,-0.0581304733333333,-1.8221363333333336,0.5492124333333334,1.0863976666666666,9.270239166666668,-20.666666666666668,-40.16666666666666,-83.83333333333333,17.666666666666668,75.5,237.5,-1071.0,-15.666666666666666,312.5,1017.8666666666668,-3.3871745,3018.6666666666665,0.02554731,0.0973239766666666,-0.0581304733333333,-0.0571670666666666,-1.8221363333333336,-0.01509143,61900.0,25587.0,26360.0,-140.0,-568.0,26.0,0,None
2023-01-02 12:36:17.200,239.491,0.0999999999999999,72.0,1278.0,22652.0,4882.0,99.0,1203.0,147.0,4876.0,94.035674,3.804284,0.0283115233333333,-0.1572957366666666,-1.8483516666666668,61.91666666666666,0.0342697233333333,-0.1549461233333333,-1.8857146666666669,0.513646525,1.153737,8.60904,-36.4,-309.2,-100.8,24.6,65.6,207.6,-1088.4,-187.2,335.2,1017.8624,-3.3912653999999995,3020.0,0.0342697233333333,-0.0025395349999999,-0.1549461233333333,-0.2768252333333333,-1.8857146666666669,-0.2008135066666666,61920.0,25427.0,26380.0,-149.0,-550.0,29.0,0,None
2023-01-02 12:36:17.750,240.041,0.099999999999999,72.0,1232.0,22657.0,4882.0,99.0,1382.3333333333333,149.0,4880.333333333333,94.08614333333334,3.864243,0.0055095099999999,-0.2330385666666666,-2.0228436666666667,61.91,0.0131726433333333,-0.2302775,-2.059341,0.4624129333333333,1.1880953666666667,10.1320205,-33.166666666666664,9.666666666666666,-137.83333333333334,51.16666666666666,-50.66666666666666,160.33333333333334,-1130.0,-318.6666666666667,345.3333333333333,1017.8535,-3.4003251666666667,3021.333333333333,0.0131726433333333,-0.0310213233333333,-0.2302775,0.0004444933333333,-2.059341,-0.2812205,61910.0,24667.0,26370.0,-205.0,-503.0,28.0,0,None
2023-01-02 12:36:18.300,240.607,0.104000000000002,72.0,1194.0,22682.0,4880.0,99.0,1271.8,151.0,4876.4,94.18599600000002,3.93154,-0.053957145,-0.1797763,-2.15295,61.94,-0.044230875,-0.17955875,-2.1869515,0.5168693599999999,1.0443417199999998,8.300046400000001,-44.2,114.8,-153.6,71.8,-23.4,147.0,-1095.0,-247.0,339.2,1017.8362,-3.4177029999999995,3022.4,-0.044230875,-0.04896472,-0.17955875,0.1578605,-2.1869515,-0.20330625,61910.0,23870.0,26370.0,-286.0,-450.0,33.0,0,None
2023-01-02 12:36:18.850,241.16100000000003,0.099999999999999,72.0,1126.0,22658.0,4851.0,99.0,1138.3333333333333,153.0,4878.0,94.29658166666668,3.9870968333333336,-0.0498931566666666,-0.1206840333333333,-2.233292,62.0,-0.0391778766666666,-0.1252249666666667,-2.264542333333333,0.6525418,1.2680048333333334,8.671742666666669,-43.333333333333336,53.5,-172.0,46.16666666666666,67.33333333333333,154.33333333333334,-1096.6666666666667,-125.66666666666669,339.0,1017.8218333333332,-3.431979166666667,3023.333333333333,-0.0391778766666666,0.036606582,-0.1252249666666667,0.0033826919999999,-2.264542333333333,-0.1199766833333333,61995.0,23050.0,26455.0,-364.0,-426.0,34.0,0,None
2023-01-02 12:36:19.400,241.711,0.0999999999999999,72.0,893.0,22749.0,4882.0,99.0,952.2,154.4,4883.2,94.44621,4.0472534,-0.0355112533333333,-0.1185823666666666,-2.314695,62.086666666666666,-0.0263862866666666,-0.1253872,-2.344783333333333,0.92507892,1.550734,11.461939999999998,-36.8,-15.0,-193.6,89.0,16.4,153.4,-1033.4,-146.0,343.8,1017.788,-3.4659688,3024.8,-0.0263862866666666,-0.03662013,-0.1253872,-0.0494503766666666,-2.344783333333333,-0.1464407333333333,62100.0,22454.0,26560.0,-396.0,-413.0,29.0,0,None
2023-01-02 12:36:19.950,242.261,0.099999999999999,71.0,1022.5,22739.5,4868.5,99.0,1043.8333333333333,156.16666666666666,4877.666666666667,94.61184666666666,4.1050385,-0.0446530566666666,-0.1084343666666666,-2.3694003333333336,62.11666666666667,-0.03564297,-0.1138797999999999,-2.3967196666666664,0.8455742333333333,1.4692765,10.342318666666666,-74.5,26.83333333333333,-199.66666666666663,28.666666666666668,24.0,127.83333333333331,-1090.5,-78.0,346.5,1017.8053333333332,-3.4484371666666664,3025.833333333333,-0.03564297,0.0090726833333333,-0.1138797999999999,-0.0294289866666666,-2.3967196666666664,-0.0581009333333333,62120.0,22273.0,26580.0,-416.0,-406.0,21.0,0,None
2023-01-02 12:36:20.500,242.815,0.104000000000002,71.0,1077.0,22682.0,4875.0,99.0,1068.0,157.6,4875.6,94.790298,4.1628106,-0.0347572649999999,-0.11576625,-2.415988,62.11,-0.026046155,-0.12156455,-2.442749,0.8230297,1.418723,10.4998656,-56.4,-17.4,-210.2,104.4,-7.6,125.0,-1028.8,-93.8,341.8,1017.7782,-3.4754684,3026.8,-0.026046155,-0.033899292,-0.12156455,-0.00684793,-2.442749,-0.107361825,62110.0,21986.0,26570.0,-430.0,-395.0,18.0,0,None
2023-01-02 12:36:21.050,243.3112,0.0961999999999988,71.0,1183.0,22667.0,4880.0,99.0,1122.2,159.2,4886.8,94.93441,4.2078058,-0.03490908,-0.1112291999999999,-2.4473463333333334,62.11666666666667,-0.0268204866666666,-0.1166909333333333,-2.4734966666666662,0.8339219,1.560219,11.940469999999998,-35.2,-1.0,-230.4,65.0,5.4,116.8,-1154.0,-39.2,317.8,1017.7742,-3.4797186000000004,3027.6,-0.0268204866666666,0.0066808399999999,-0.1166909333333333,0.0014579636666666,-2.4734966666666662,-0.0540109566666666,62120.0,21821.0,26580.0,-435.0,-383.0,20.0,0,None
2023-01-02 12:36:21.600,243.862,0.099999999999999,71.0,1098.0,22680.0,4882.0,99.0,1100.3333333333333,160.83333333333334,4886.166666666667,95.10152,4.258549666666667,-0.0407004166666666,-0.0978303233333333,-2.4554946666666666,62.15,-0.0316870733333333,-0.10258604,-2.480723,0.7037218,1.6265893333333334,12.571558333333334,-24.166666666666668,4.166666666666667,-220.83333333333331,86.16666666666667,20.33333333333333,117.66666666666669,-1066.5,11.333333333333334,329.1666666666667,1017.8198333333332,-3.4339323333333334,3029.1666666666665,-0.0316870733333333,-0.0147734033333333,-0.10258604,-0.01478811,-2.480723,-0.0126507078666666,62150.0,21804.0,26610.0,-440.0,-376.0,23.0,0,None
2023-01-02 12:36:22.150,244.4166,0.1042000000000029,71.0,852.0,22753.0,4879.0,98.2,999.6,162.8,4883.8,95.265996,4.3076766,-0.02486107,-0.10269781,-2.475253,62.165,-0.016461425,-0.1076198999999999,-2.500131,0.76505178,1.4461502000000002,11.0483248,-49.4,-21.8,-224.6,72.6,17.2,113.8,-1033.6,-50.6,336.0,1017.8300000000002,-3.4240158000000003,3030.0,-0.016461425,-0.044963035,-0.1076198999999999,-0.011486757,-2.500131,-0.080868925,62160.0,21702.0,26620.0,-445.0,-369.0,28.0,0,None
2023-01-02 12:36:22.700,244.9635,0.0968333333333314,71.0,872.0,22748.0,4882.0,98.0,929.6666666666666,164.33333333333334,4883.0,95.40760333333333,4.353365666666667,-0.0279207133333333,-0.0948047833333333,-2.486977,62.173333333333325,-0.0196075233333333,-0.0992892933333333,-2.511498,0.6988581000000001,1.7486175,11.391289166666668,-72.5,12.166666666666666,-226.33333333333331,54.66666666666666,-7.666666666666667,114.66666666666669,-1136.3333333333333,1.3333333333333333,345.3333333333333,1017.928,-3.326002666666666,3031.0,-0.0196075233333333,0.021386994,-0.0992892933333333,0.0151081833333333,-2.511498,-0.0123300253666666,62170.0,21608.0,26630.0,-445.0,-352.0,36.0,0,None
2023-01-02 12:36:23.250,245.5132,0.099799999999999,71.0,690.0,22816.0,4882.0,98.0,924.4,165.4,4887.2,95.519344,4.397360999999999,-0.0414530933333333,-0.0770120133333333,-2.4699386666666663,62.11333333333334,-0.0314087766666666,-0.0800946933333333,-2.494468,0.65329438,1.8393714000000003,10.958209,-63.4,63.0,-221.8,58.4,-16.2,123.0,-1113.0,45.6,344.2,1017.9402,-3.3136406000000003,3032.4,-0.0314087766666666,0.01497091,-0.0800946933333333,0.0594093899999999,-2.494468,0.0497900946666666,62140.0,21657.0,26600.0,-446.0,-337.0,31.0,0,None
2023-01-02 12:36:23.800,246.06966666666668,0.099999999999999,71.0,963.0,22717.0,4882.0,98.0,831.5,166.5,4880.5,95.60829,4.440198333333333,-0.0423726966666666,-0.05842538,-2.449238333333333,62.06333333333333,-0.03223508,-0.0615208733333333,-2.474021,0.6459627499999999,1.8275618333333332,10.649617333333332,-46.833333333333336,9.666666666666666,-213.83333333333331,35.0,20.666666666666668,137.83333333333334,-1065.0,35.166666666666664,346.8333333333333,1017.9485,-3.3056248333333333,3033.333333333333,-0.03223508,-0.0313607066666666,-0.0615208733333333,0.0371492266666666,-2.474021,0.0179764058666666,62080.0,21801.0,26540.0,-452.0,-336.0,35.0,0,None
2023-01-02 12:36:24.350,246.6134,0.0999999999999999,71.0,1059.0,22710.0,4858.0,98.0,799.8,167.8,4881.8,95.667464,4.478997399999999,-0.02658599,-0.046403625,-2.443436,62.02,-0.01668418,-0.0490995149999999,-2.4682415,0.7084096,2.0634005,11.963920000000002,-27.6,42.0,-216.8,33.2,12.6,134.4,-1105.6,14.0,334.4,1018.0008,-3.2529529999999998,3034.4,-0.01668418,-0.029125145,-0.0490995149999999,0.09461284,-2.4682415,0.0165133761,62050.0,21854.0,26510.0,-462.0,-342.0,40.0,0,None
2023-01-02 12:36:24.900,247.16983333333332,0.1001666666666664,71.0,1112.0,22705.0,4880.0,98.0,963.0,169.33333333333334,4885.0,95.68452666666668,4.5119675,0.0052702253333333,-0.0804930033333333,-2.432760666666667,61.95333333333334,0.013508454,-0.0839479566666666,-2.458022333333333,0.7297909333333332,1.7637365,11.219633833333331,-39.16666666666666,-252.5,-223.5,29.33333333333333,153.0,144.33333333333334,-945.6666666666666,-25.166666666666668,325.0,1017.902,-3.351966166666667,3035.333333333333,0.013508454,0.1881926,-0.0839479566666666,-0.2844929666666667,-2.458022333333333,-0.0313458266666666,61965.0,21857.0,26425.0,-460.5,-346.0,43.5,0,None
2023-01-02 12:36:25.450,247.7132,0.0998000000000046,71.0,1245.0,22679.0,4883.0,98.0,1270.0,171.0,4883.2,95.673028,4.541248399999999,0.0623029533333333,-0.286229,-2.5756916666666663,61.95,0.06874704,-0.2869392666666666,-2.599871333333333,0.6904387599999999,1.2206322000000005,11.3953554,-51.8,-200.6,-272.4,103.8,57.0,53.2,-1127.6,-323.0,303.8,1017.8334,-3.4204374,3036.6,0.06874704,0.1177125166666666,-0.2869392666666666,-0.1407759066666666,-2.599871333333333,-0.3332769,61960.0,20875.0,26420.0,-454.0,-255.0,40.0,0,None
2023-01-02 12:36:26.000,248.26316666666665,0.099999999999999,71.0,1105.0,22711.0,4885.0,98.0,1288.6666666666667,173.33333333333334,4883.0,95.66891333333332,4.571433666666667,0.00992535,-0.3273424333333333,-2.805604,62.07666666666666,0.0194452,-0.3285119,-2.824159666666666,0.5824288666666666,1.1598901,10.5889355,-80.5,-11.333333333333334,-281.3333333333333,109.0,17.0,-10.333333333333334,-1066.6666666666667,-425.1666666666667,314.3333333333333,1017.6969999999998,-3.556848833333333,3037.5,0.0194452,-0.03772415,-0.3285119,0.0062102366666666,-2.824159666666666,-0.4206399,62080.0,19757.0,26540.0,-450.0,-132.0,42.0,0,None
2023-01-02 12:36:26.550,248.8132,0.0999999999999999,71.0,865.0,22774.0,4885.0,98.0,1119.0,174.8,4882.6,95.6707,4.6047152,-0.06941415,-0.2738911499999999,-3.009048,62.285,-0.057552585,-0.2810216,-3.0196775,0.68595592,1.3917438,10.4074074,-109.6,113.2,-267.6,68.2,-52.2,-70.2,-1061.0,-426.0,327.2,1017.7351999999998,-3.518781,3038.6,-0.057552585,-0.044324455,-0.2810216,0.09690874,-3.0196775,-0.4141458,62290.0,18653.0,26750.0,-448.0,-32.0,31.0,0,None
2023-01-02 12:36:27.100,249.36300000000003,0.099999999999999,71.0,1302.0,22624.0,4883.0,98.0,1190.3333333333333,176.5,4888.0,95.64775166666664,4.6407645,-0.1490527999999999,-0.1932707333333333,1.0103983333333333,62.35999999999999,-0.1363771,-0.2064792333333333,1.0080686666666667,0.7575553666666667,1.4092343333333333,10.287165666666668,-147.0,98.33333333333331,-235.5,91.0,0.3333333333333333,-87.33333333333333,-1079.6666666666667,-301.3333333333333,329.8333333333333,1017.7883333333332,-3.465481833333333,3039.833333333333,-0.1363771,0.0515294866666666,-0.2064792333333333,0.1049878566666666,1.0080686666666667,-0.2876090333333333,62360.0,17705.0,26820.0,-462.0,25.0,12.0,0,None
2023-01-02 12:36:27.650,249.9174,0.0999999999999999,71.0,1698.0,22522.0,4862.0,98.0,1340.2,178.4,4890.2,95.63078999999998,4.6792866,-0.1691375,-0.1400426,3.009173333333333,62.32666666666668,-0.1580271666666666,-0.1570838666666666,3.013834333333333,0.75665046,1.588953,12.788660000000002,-138.4,52.8,-231.8,64.8,-8.2,-104.8,-991.2,-79.8,336.2,1017.797,-3.4568438,3040.8,-0.1580271666666666,-0.04601435,-0.1570838666666666,0.10462539,3.013834333333333,-0.0719192799999999,62340.0,17294.0,26800.0,-479.0,56.0,12.0,0,None
2023-01-02 12:36:28.200,250.4738333333333,0.1035000000000015,71.0,1193.0,22636.0,4885.0,98.0,1265.1666666666667,180.83333333333331,4887.666666666667,95.63504666666664,4.721017333333333,-0.1716201333333333,-0.1114772566666666,2.998327666666667,62.29999999999999,-0.1613210666666666,-0.1295299,3.0057656666666666,0.7213773333333333,1.515112,11.571616666666666,-131.16666666666666,13.083333333333334,-229.16666666666663,78.91666666666667,-48.41666666666666,-99.16666666666669,-963.3333333333334,1.5833333333333333,337.0,1017.8095,-3.444251166666666,3041.833333333333,-0.1613210666666666,0.0482796466666666,-0.1295299,-0.05255372,3.0057656666666666,-0.0052837216666666,62300.0,17234.0,26760.0,-505.0,66.0,20.0,0,None
2023-01-02 12:36:28.750,251.034,0.0999999999999999,71.0,1433.0,22601.0,4867.0,98.0,1269.0,182.6,4881.6,95.657752,4.7631584,-0.163709,-0.1165157,2.982602,62.295,-0.15436255,-0.13368775,2.9907255,0.69020594,1.4034392,10.744551,-132.0,-14.6,-231.2,49.6,51.0,-98.6,-1022.0,-39.4,337.2,1017.8044,-3.4493904,3043.0,-0.15436255,-0.00204665,-0.13368775,-0.0315408949999999,2.9907255,-0.05722355,62290.0,17188.0,26750.0,-532.0,72.0,16.0,0,None
2023-01-02 12:36:29.300,251.59733333333332,0.103333333333334,71.0,1120.0,22662.0,4885.0,98.0,1134.5,184.5,4884.166666666667,95.68922833333332,4.803135666666667,-0.1485718333333333,-0.1193437666666666,2.9494946666666664,62.30666666666667,-0.1410034999999999,-0.1352175666666666,2.955982333333333,0.7534601500000001,1.4801266666666664,10.723281666666669,-125.33333333333331,31.83333333333333,-230.16666666666663,33.0,28.5,-109.33333333333331,-1001.1666666666666,-46.66666666666666,334.1666666666667,1017.8505,-3.403541666666667,3043.833333333333,-0.1410034999999999,0.0193500823333333,-0.1352175666666666,0.0519014393333333,2.955982333333333,-0.06830755,62300.0,17005.0,26760.0,-553.0,88.0,19.0,0,None
2023-01-02 12:36:29.850,252.158,0.0999999999999999,71.0,946.0,22730.0,4888.0,98.0,993.2,186.2,4884.6,95.72294200000002,4.841732800000001,-0.1366802333333333,-0.09963566,2.925447666666667,62.28,-0.1301772666666666,-0.1136802333333333,2.931214,0.91150696,1.5686559999999998,10.1405788,-151.8,10.8,-240.4,43.0,9.2,-109.8,-1054.4,-14.6,344.0,1017.9558,-3.2980310000000004,3044.8,-0.1301772666666666,0.0748341,-0.1136802333333333,0.0395670166666666,2.931214,-0.0101024446666666,62310.0,16834.0,26770.0,-564.0,108.0,26.0,0,None
2023-01-02 12:36:30.400,252.658,0.0999999999999999,71.0,1078.0,22671.0,4877.0,98.0,1029.2,187.4,4872.8,95.7453875,4.8793265,-0.1199777,-0.131065205,2.9173865,62.185,-0.11308045,-0.14455255,2.922396,1.0594834000000002,1.5949914,10.854091999999998,-115.2,-216.4,-235.8,75.4,88.8,-109.0,-1024.8,-62.2,340.0,1017.9496,-3.304203,3045.8,-0.11308045,0.048750785,-0.14455255,-0.21483075,2.922396,-0.087488415,62250.0,16772.0,26710.0,-572.0,119.0,30.0,0,None
2023-01-02 12:36:30.950,253.21066666666664,0.1033333333333293,71.0,1052.0,22683.0,4866.5,98.0,1043.3333333333333,189.0,4872.666666666667,95.75537333333334,4.910423,-0.1020079166666666,-0.2211719333333333,2.809134333333334,62.10666666666666,-0.0972945,-0.2317885333333333,2.814338,0.8864551833333333,1.329988,11.3208545,-152.0,-92.0,-233.33333333333331,88.16666666666667,46.0,-172.0,-1091.6666666666667,-276.1666666666667,311.5,1017.9086666666668,-3.3452735,3047.0,-0.0972945,0.0500796817666666,-0.2317885333333333,-0.0546870599999999,2.814338,-0.2761904,62120.0,16161.0,26580.0,-551.5,171.5,36.0,0,None
2023-01-02 12:36:31.500,253.85800000000003,0.1160000000000024,71.0,1077.0,22670.0,4877.0,98.0,1071.6,191.0,4882.9,95.726767,4.9478991,-0.1267767333333333,-0.2076956333333333,2.637132333333333,62.09,-0.1226789333333333,-0.2180859,2.6457616666666666,0.92103824,1.5815636,10.819818,-164.7,31.4,-207.7,116.4,-11.1,-209.4,-1124.2,-262.8,305.0,1017.8526,-3.4011482,3047.7,-0.1226789333333333,0.0088286006666666,-0.2180859,0.0834504533333333,2.6457616666666666,-0.2965583666666667,62090.0,14969.0,26550.0,-494.0,253.0,41.0,0,None
2023-01-02 12:36:32.050,254.35800000000003,0.0999999999999999,71.0,1055.0,22654.0,4883.0,98.0,1061.4,192.4,4889.25,95.659642,4.9760876000000005,-0.1565292,-0.1464253,2.516515333333333,62.123333333333335,-0.1517996,-0.1580549666666666,2.5302400000000005,0.985369575,1.482313,10.7601925,-121.8,90.6,-170.0,85.4,-30.6,-216.2,-1057.6,-123.4,305.0,1017.9288,-3.3252188000000005,3049.0,-0.1517996,0.0381576433333333,-0.1580549666666666,0.13831469,2.5302400000000005,-0.1421192366666666,62130.0,14461.0,26590.0,-472.0,296.0,36.0,0,None
2023-01-02 12:36:32.600,254.862,0.104000000000002,71.0,897.0,22711.0,4883.0,98.0,962.6,193.8,4877.6,95.54593,5.0038266,-0.114132605,-0.1405036,2.4868750000000004,62.12,-0.108217845,-0.1534386999999999,2.5038395,1.0324307,1.5800785999999998,9.2180796,-180.4,-29.2,-185.0,36.2,311.0,-220.4,-1048.4,36.2,306.0,1017.9394,-3.3146408000000003,3049.8,-0.108217845,0.210765295,-0.1534386999999999,-0.0781168449999999,2.5038395,0.055624512,62120.0,14336.0,26580.0,-464.0,326.0,42.0,0,None
2023-01-02 12:36:33.150,255.394,0.1199999999999988,71.0,906.0,22731.0,4890.0,98.0,904.8,195.2,4882.9,95.397594,5.027994,0.0450500482,-0.1433015333333333,2.4993506666666665,62.10333333333333,0.0479714796666666,-0.1543416666666666,2.516837333333333,1.06060216,1.8112956,11.777362,-154.0,42.0,-235.8,64.6,196.4,-224.6,-1054.0,45.6,278.0,1018.0324,-3.2213748000000004,3050.6,0.0479714796666666,0.1656436,-0.1543416666666666,0.0493967399999999,2.516837333333333,0.0490246666666666,62110.0,14426.0,26570.0,-401.0,322.0,44.0,0,None
2023-01-02 12:36:33.700,255.974,0.0999999999999942,71.0,874.0,22749.0,4885.0,98.0,869.4,196.6,4871.6,95.127508,5.0480882000000005,0.0880405566666666,-0.08700688,2.4973233333333336,62.02333333333333,0.0896960533333333,-0.0963653433333333,2.516455333333333,0.92331936,1.8378632,12.444584,-131.2,81.0,-260.8,32.4,3.0,-207.6,-1013.0,-6.4,279.4,1018.076,-3.1779528,3051.2,0.0896960533333333,0.0089311532,-0.0963653433333333,0.0717671163333333,2.516455333333333,-0.0190240499999999,62030.0,14425.0,26490.0,-303.0,282.0,54.0,0,None
2023-01-02 12:36:34.250,256.52400000000006,0.1000000000000037,71.0,703.0,22761.0,4885.0,98.0,741.6666666666666,197.83333333333331,4883.333333333333,94.82238,5.061693333333333,0.05943559,-0.0385891466666666,2.495706333333333,61.95666666666667,0.06427645,-0.0475930133333333,2.515166,0.8490266000000001,2.4142043333333327,15.022743333333333,-100.0,78.33333333333333,-253.16666666666663,74.0,-26.33333333333333,-196.0,-1184.6666666666667,-12.833333333333334,292.1666666666667,1018.1141666666668,-3.1395961666666667,3052.5,0.06427645,-0.008030494,-0.0475930133333333,0.1176795866666666,2.515166,-0.0177120166666666,61980.0,14407.0,26440.0,-229.0,236.0,54.0,0,None
2023-01-02 12:36:34.800,257.09,0.1039999999999963,71.0,942.0,22699.0,4880.0,98.0,886.0,199.2,4881.6,94.52688,5.070682800000001,0.06681535,-0.008779834,2.5023905,61.88,0.07440157,-0.01861335,2.5201255,1.01382184,1.9983432,11.938158,-92.4,45.6,-253.4,27.0,83.0,-182.6,-1043.2,33.0,303.2,1018.0088,-3.244953,3053.4,0.07440157,0.10268086,-0.01861335,0.074529705,2.5201255,0.00526358,61910.0,14421.0,26370.0,-178.0,193.0,55.0,0,None
2023-01-02 12:36:35.350,257.64399999999995,0.1000000000000037,71.0,745.0,22785.0,4879.0,98.0,858.6666666666666,200.5,4882.833333333333,94.30054166666666,5.073379166666667,0.1027302466666666,-0.0005030022333333,2.5079656666666668,61.88999999999999,0.1083657,-0.0094331961666666,2.5225163333333334,0.8888099,1.8026491666666664,11.917421666666668,-69.33333333333333,-15.5,-263.8333333333333,20.83333333333333,20.33333333333333,-172.5,-1082.0,-6.166666666666667,299.6666666666667,1017.9955,-3.2582421666666668,3054.0,0.1083657,0.0325458,-0.0094331961666666,-0.0396399533333333,2.5225163333333334,-0.0117080333333333,61895.0,14439.0,26355.0,-104.5,101.5,58.5,0,None
2023-01-02 12:36:35.900,258.194,0.0999999999999999,71.0,989.0,22684.0,4871.0,98.0,933.4,201.8,4876.2,94.159962,5.0690006,0.1050068333333333,-0.009032094,2.5020286666666665,61.946666666666665,0.1103231333333333,-0.0167856366666666,2.512395333333333,0.78586004,1.5885234,11.703609,-61.0,9.6,-262.4,36.4,22.0,-177.0,-1063.6,-13.4,291.6,1017.936,-3.317781,3055.2,0.1103231333333333,0.0293835915333333,-0.0167856366666666,0.0184817637666666,2.512395333333333,-0.012387199,61970.0,14390.0,26430.0,-26.0,19.0,53.0,0,None
2023-01-02 12:36:36.450,258.6948,0.1001999999999952,71.0,774.0,22749.0,4890.0,98.0,752.8,203.0,4885.4,94.088674,5.059915200000001,0.07813034,-0.015003665,2.5042470000000003,62.03,0.085203585,-0.0231670299999999,2.5117115,0.74084822,2.076958,12.747308,-52.6,-17.2,-258.8,21.4,-85.0,-180.6,-1015.0,20.2,295.6,1017.9166,-3.33725,3055.8,0.085203585,-0.027543645,-0.0231670299999999,0.05363585,2.5117115,0.016210648,62070.0,14411.0,26530.0,15.0,-17.0,41.0,0,None
2023-01-02 12:36:37.000,259.26500000000004,0.103333333333334,71.0,913.5,22722.0,4876.0,98.0,847.5,204.33333333333331,4888.666666666667,94.04482,5.045081,0.0350357933333333,-0.0204528366666666,2.5048413333333333,62.1,0.04347285,-0.0287540666666666,2.5095536666666667,0.6688756666666666,2.0160495,13.25677,-59.333333333333336,-6.0,-244.5,-4.5,-68.83333333333333,-186.83333333333331,-1080.5,-28.5,300.0,1017.8963333333332,-3.357734333333333,3056.833333333333,0.04347285,-0.0996150933333333,-0.0287540666666666,-0.0089475299999999,2.5095536666666667,-0.0269066,62120.0,14347.0,26580.0,42.0,-39.0,41.0,0,None
2023-01-02 12:36:37.550,259.8146,0.0999999999999999,71.0,905.0,22703.0,4875.0,98.0,920.2,205.6,4878.6,94.014678,5.0294076,-0.0106393872999999,-0.0098816069999999,2.4982813333333334,62.13333333333333,-0.0017032055999999,-0.0198275,2.4994686666666666,0.5588472999999999,1.8590628,15.707731999999998,-55.4,18.2,-230.2,-30.8,-52.0,-180.4,-815.4,5.4,315.8,1017.8802,-3.3738280000000005,3057.8,-0.0017032055999999,-0.0050734633333333,-0.0198275,0.0360594066666666,2.4994686666666666,0.0249162733333333,62140.0,14319.0,26600.0,55.0,-50.0,28.0,0,None
2023-01-02 12:36:38.100,260.37166666666667,0.103333333333334,71.0,964.0,22715.0,4887.0,98.0,923.5,207.0,4878.333333333333,93.97289,5.013340666666667,-0.0387635033333333,-0.0126977243333333,2.501365,62.17666666666667,-0.0303487766666666,-0.02467045,2.498644,0.5963959833333333,1.5768575,16.18416,-58.25,-23.25,-219.08333333333331,13.833333333333334,-15.833333333333334,-179.25,-1057.5,0.0833333333333333,322.3333333333333,1017.859,-3.3950063333333333,3058.6666666666665,-0.0303487766666666,-0.0158723033333333,-0.02467045,-0.0070082533333333,2.498644,0.0082611842333333,62180.0,14320.0,26640.0,55.0,-57.0,32.0,0,None
2023-01-02 12:36:38.650,260.943,0.1039999999999963,71.0,977.0,22685.0,4879.0,98.0,952.0,208.6,4874.0,93.952326,4.9985040000000005,-0.05767302,-0.0285121299999999,2.502725,62.215,-0.0489763,-0.04145993,2.4983705,0.61738496,1.4452648,14.625818,-58.6,-27.6,-207.0,39.8,-23.4,-195.2,-1039.2,3.2,295.4,1017.836,-3.4179062,3059.6,-0.0489763,0.0182232734999999,-0.04145993,-0.03581295,2.4983705,0.015406165,62210.0,14317.0,26670.0,49.0,-55.0,30.0,0,None
2023-01-02 12:36:39.200,261.4708,0.1040000000000076,71.0,896.0,22726.0,4890.0,98.0,920.8,210.0,4884.8,93.956488,4.9852796,-0.0600225933333333,-0.03342358,2.508389333333333,62.25,-0.0515446833333333,-0.04684275,2.5023163333333334,0.5783566199999999,1.6795664,15.50225,-53.0,4.4,-208.6,7.0,-17.8,-190.2,-1147.0,6.2,310.0,1017.852,-3.4016562,3060.6,-0.0515446833333333,0.02166697,-0.04684275,-0.0032617743333333,2.5023163333333334,0.0019133289999999,62250.0,14338.0,26710.0,45.0,-45.0,31.0,0,None
2023-01-02 12:36:39.750,262.0278333333333,0.0998333333333315,71.0,790.0,22738.0,4887.0,98.0,837.5,211.33333333333331,4880.5,93.97423166666664,4.973042666666667,-0.0692961866666666,-0.0317178833333333,2.517662333333333,62.28,-0.0601953433333333,-0.0466339766666666,2.509442333333333,0.5763057833333333,2.0114018333333337,14.04056,-45.0,-21.33333333333333,-208.16666666666663,9.166666666666666,-21.666666666666668,-182.33333333333331,-1053.6666666666667,16.666666666666668,327.5,1017.8405,-3.4136718333333333,3061.6666666666665,-0.0601953433333333,0.0029076566666666,-0.0466339766666666,-0.0602882499999999,2.509442333333333,0.0176957666666666,62280.0,14353.0,26740.0,33.0,-31.0,30.0,0,None
2023-01-02 12:36:40.300,262.591,0.1042000000000029,71.0,1156.0,22671.0,4850.0,98.0,987.0,212.6,4877.4,93.996938,4.9622612,-0.038846225,-0.05183644,2.532437,62.265,-0.030707745,-0.0666566,2.5226685,0.7335115999999999,1.5396286,10.4144798,-72.2,-33.6,-217.4,33.0,81.4,-186.0,-1036.6,18.6,306.8,1017.7876,-3.4663906000000004,3062.2,-0.030707745,0.105629365,-0.0666566,0.020597382,2.5226685,0.0129160995,62270.0,14437.0,26730.0,21.0,-21.0,21.0,0,None
2023-01-02 12:36:40.850,263.11080000000004,0.103800000000001,71.0,940.0,22708.0,4883.0,98.0,925.0,214.2,4876.2,94.020764,4.952018799999999,-0.0199018366666666,-0.0588416699999999,2.5359770000000004,62.28,-0.012476912,-0.0727847899999999,2.524356,0.7303902800000001,1.6883484,10.937046,-53.0,-21.2,-232.8,9.8,-13.2,-192.2,-1058.6,-23.2,307.0,1017.8146,-3.4391406000000004,3063.6,-0.012476912,-0.0056132866666666,-0.0727847899999999,-0.0165980616666666,2.524356,-0.0217960933333333,62270.0,14475.0,26730.0,26.0,-19.0,21.0,0,None
2023-01-02 12:36:41.400,263.6848333333333,0.1034999999999967,71.0,915.0,22688.0,4882.0,98.0,876.3333333333334,215.66666666666663,4884.833333333333,94.02570333333334,4.942619999999999,-0.03139334,-0.06844079,2.524002333333333,62.29666666666666,-0.02269342,-0.0809768433333333,2.5117073333333333,0.5577071,1.873343,12.43676,-40.333333333333336,1.9166666666666667,-225.0,21.916666666666668,18.666666666666668,-198.41666666666663,-1063.75,-24.416666666666668,304.5833333333333,1017.8425,-3.4113345000000006,3064.333333333333,-0.02269342,-0.007806053,-0.0809768433333333,0.0152272356666666,2.5117073333333333,-0.0280109499999999,62300.0,14414.0,26760.0,34.0,-7.0,22.0,0,None
2023-01-02 12:36:41.950,264.2388,0.0999999999999999,71.0,900.0,22729.0,4882.0,98.0,832.0,217.0,4883.4,94.01395,4.9331102,-0.0346396749999999,-0.0572337,2.5182885,62.285,-0.025881935,-0.069242835,2.5050955000000004,0.63301954,1.7733912,11.548987,-43.0,42.8,-225.4,16.8,14.0,-188.6,-1005.0,0.2,312.6,1017.845,-3.409031,3065.4,-0.025881935,-0.071360732,-0.069242835,0.033710985,2.5050955000000004,-0.023444465,62290.0,14352.0,26750.0,44.0,9.0,23.0,0,None
2023-01-02 12:36:42.500,264.79133333333334,0.1031666666666618,71.0,957.5,22699.0,4885.0,98.0,872.6666666666666,218.33333333333331,4885.333333333333,93.98488333333334,4.924699333333334,-0.0175520066666666,-0.0408539133333333,2.521170333333333,62.25666666666666,-0.0090681036666666,-0.0526077633333333,2.5060299999999995,0.59874082,1.8891658,11.603732,-45.0,15.166666666666666,-224.83333333333331,32.666666666666664,50.0,-181.33333333333331,-1113.5,3.8333333333333335,319.1666666666667,1017.829,-3.4248175,3066.333333333333,-0.0090681036666666,0.0683198366666666,-0.0526077633333333,0.0398034466666666,2.5060299999999995,0.0187019833333333,62255.0,14352.5,26715.0,48.5,22.0,21.5,0,None
2023-01-02 12:36:43.050,265.339,0.1002000000000065,71.0,969.0,22683.0,4883.0,98.0,1017.6,219.6,4886.4,93.937638,4.9166966,0.0011165371,-0.0393316733333333,2.526539333333333,62.23666666666667,0.009040594,-0.0506674266666666,2.509640333333333,0.5647548200000001,1.664019,15.364881999999998,-52.0,2.8,-239.8,21.8,-61.6,-195.6,-1117.8,30.0,305.4,1017.8482,-3.4058752,3067.0,0.009040594,-0.05309774,-0.0506674266666666,0.0342748773333333,2.509640333333333,0.0057121839999999,62230.0,14406.0,26690.0,65.0,7.0,23.0,0,None
2023-01-02 12:36:43.600,265.8632,0.1039999999999962,71.0,1157.0,22623.0,4877.0,98.0,1114.0,221.4,4875.8,93.884704,4.9086964,-0.02930031,-0.036974895,2.5337655,62.21,-0.020796715,-0.047731705,2.514795,0.74729908,1.6027087999999998,12.4436896,-70.0,-6.8,-226.4,-1.2,-33.4,-167.4,-1051.4,-24.4,326.8,1017.714,-3.5397188,3067.8,-0.020796715,-0.049694685,-0.047731705,0.0171652185,2.514795,-0.04513999,62210.0,14383.0,26670.0,67.0,-7.0,23.0,0,None
2023-01-02 12:36:44.150,266.4386666666666,0.103333333333334,71.0,1041.0,22677.0,4888.0,98.0,1029.8333333333333,222.83333333333331,4883.0,93.83814999999998,4.899352333333333,-0.0527283899999999,-0.0433318066666666,2.530123333333333,62.26666666666667,-0.0436988333333333,-0.0531981833333333,2.508636333333333,0.8663759666666667,1.3968578333333337,12.564289833333332,-74.0,-21.666666666666668,-214.83333333333331,33.166666666666664,-54.833333333333336,-187.66666666666663,-1033.6666666666667,4.0,304.5,1017.7363333333332,-3.5175128333333334,3068.6666666666665,-0.0436988333333333,-0.0495022166666666,-0.0531981833333333,-0.0133487966666666,2.508636333333333,0.0036693253333333,62310.0,14374.0,26770.0,62.0,-13.0,19.0,0,None
2023-01-02 12:36:44.700,267.0,0.1002000000000066,71.0,1131.0,22639.0,4866.0,98.0,1133.6,224.6,4879.4,93.80675999999998,4.8915714,-0.0695592866666666,-0.05190063,2.537577666666667,62.35333333333333,-0.05964859,-0.0611429933333333,2.514493666666666,0.7624029400000001,1.5295924,12.8487212,-68.8,-19.2,-208.4,38.6,35.8,-180.6,-1029.0,8.0,328.0,1017.702,-3.5519374,3069.8,-0.05964859,-0.0236149833333333,-0.0611429933333333,0.0214646619,2.514493666666666,0.0131582863333333,62370.0,14413.0,26830.0,49.0,-11.0,17.0,0,None
2023-01-02 12:36:45.250,267.55066666666664,0.1003333333333292,71.0,1367.0,22556.0,4883.0,98.0,1172.6666666666667,226.16666666666663,4883.666666666667,93.78018666666668,4.884280166666667,-0.0679409033333333,-0.0655158166666666,2.545345333333333,62.39666666666667,-0.05827072,-0.0735891033333333,2.519857,0.7430168333333333,1.504655,12.1521655,-41.833333333333336,5.333333333333333,-225.33333333333331,49.16666666666666,-18.83333333333333,-193.5,-1024.0,29.5,311.1666666666667,1017.6918333333332,-3.5620181666666664,3070.6666666666665,-0.05827072,-0.01627336,-0.0735891033333333,0.0077977666666666,2.519857,0.0253772066666666,62390.0,14419.0,26850.0,44.0,-3.0,4.0,0,None
2023-01-02 12:36:45.800,268.098,0.0999999999999999,70.0,1163.0,22594.0,4858.0,98.0,1194.6,228.0,4881.6,93.761726,4.8798116,-0.064999815,-0.057778735,2.5614805,62.42,-0.054557845,-0.066130715,2.534803,0.5997111,1.3635608,11.831374,-67.2,-16.8,-218.0,85.0,31.2,-187.4,-1072.0,9.6,311.6,1017.6606,-3.5933749999999995,3071.4,-0.054557845,-0.011240379,-0.066130715,-0.01798058,2.534803,0.0066076479999999,62420.0,14523.0,26880.0,32.0,0.0,7.0,0,None
