00000_Time_epoch,00000_Time_boot_sec,00000_Span_Time_boot_sec,1_battery_remaining_avg,1_current_battery_avg,1_voltage_battery_avg,125_Vcc_avg,147_battery_remaining_avg,147_current_battery_avg,147_current_consumed_avg,165_Vcc_avg,168_direction_avg,168_speed_avg,178_pitch_avg,178_roll_avg,178_yaw_avg,182_altitude_avg,182_pitch_avg,182_roll_avg,182_yaw_avg,241_vibration_x_avg,241_vibration_y_avg,241_vibration_z_avg,27_xacc_avg,27_xgyro_avg,27_xmag_avg,27_yacc_avg,27_ygyro_avg,27_ymag_avg,27_zacc_avg,27_zgyro_avg,27_zmag_avg,29_press_abs_avg,29_press_diff_avg,29_temperature_avg,30_pitch_avg,30_pitchspeed_avg,30_roll_avg,30_rollspeed_avg,30_yaw_avg,30_yawspeed_avg,33_alt_avg,33_hdg_avg,33_relative_alt_avg,33_vx_avg,33_vy_avg,33_vz_avg,label,diagnosis
2023-01-03 04:47:24.150,234.01066666666665,-0.0833333333333333,100.0,73.0,24933.0,4874.0,99.0,80.8,52.2,4870.166666666667,-141.31199999999998,0.2922661333333333,-0.0085881379999999,-0.017130795,-1.210724,32.114999999999995,-0.001462933,-0.01674448,-1.2259275,0.0251718199999999,0.02529647,0.03756068,-20.6,-0.2,83.0,0.8,5.0,254.4,-1048.2,-1.0,341.6,1020.858,-0.36242186,2668.8,-0.001462933,0.00554437,-0.01674448,-0.00039335595,-1.2259275,-0.0014895715,32100.0,28977.0,50.0,-4.0,11.0,26.0,0,None
2023-01-03 04:47:24.700,234.574,0.104000000000002,100.0,71.0,24928.0,4861.0,99.0,80.2,53.0,4867.0,-143.47512,0.2499179799999999,-0.007891613,-0.01802099,-1.2105683333333332,32.16,-0.0016463026666666,-0.0165759033333333,-1.2259323333333334,0.0239549979999999,0.025180282,0.036772918,-20.2,0.2,83.0,1.4,5.0,254.0,-1047.8,-0.6,342.0,1020.8676,-0.35279688,2670.0,-0.0016463026666666,0.005320458,-0.0165759033333333,0.0002616511333333,-1.2259323333333334,-0.0011359609,32150.0,28976.0,100.0,-3.0,11.0,26.0,0,None
2023-01-03 04:47:25.250,235.09880000000004,0.1041999999999973,100.0,72.0,24921.0,4877.0,99.0,83.8,53.0,4875.6,-142.95698000000002,0.24889,-0.007781523,-0.018091635,-1.2105505,32.2,-0.001688012,-0.016550465,-1.225982,0.0262625659999999,0.024241968,0.037040682,-20.6,0.2,83.2,1.6,5.2,254.8,-1049.2,-1.0,341.0,1020.8583999999998,-0.361875,2670.4,-0.001688012,0.005369349,-0.016550465,-0.0006680613,-1.225982,-0.0016827035,32190.0,28976.0,140.0,-2.0,10.0,26.0,0,None
2023-01-03 04:47:25.800,235.656,0.1035000000000015,100.0,109.5,24904.0,4865.5,99.0,172.0,53.0,4874.0,-142.39476666666667,0.2730305666666666,-0.0087070016666666,-0.0184487466666666,-1.2103883333333334,32.23,-0.0017692866666666,-0.0165255966666666,-1.225960333333333,0.078140715,0.2343270083333333,1.6140605733333333,-22.83333333333333,1.8333333333333333,81.83333333333333,-9.666666666666666,1.1666666666666667,252.5,-1085.0,-0.3333333333333333,339.5,1020.8773333333334,-0.3431510333333333,2672.0,-0.0017692866666666,0.0059447286666666,-0.0165255966666666,-0.0004607702666666,-1.225960333333333,0.0012587653333333,32220.0,28979.0,170.0,-2.0,10.0,29.0,0,None
2023-01-03 04:47:26.350,236.2372,0.1043999999999982,100.0,1503.0,24274.0,4866.0,99.0,473.8,53.2,4867.4,-141.56736,0.3062717,-0.0051697193333333,-0.0182881066666666,-1.2108496666666666,32.26666666666667,0.0001399333333333,-0.0165925366666666,-1.22606,0.282117642,0.32699992,0.83649448,-3.0,1.0,79.6,-3.8,2.0,256.4,-1044.8,3.2,306.4,1020.9256,-0.29487498,2673.0,0.0001399333333333,0.055934372,-0.0165925366666666,0.0045765582,-1.22606,-0.013495,32250.0,28976.0,200.0,-2.0,8.0,27.0,0,None
2023-01-03 04:47:26.900,236.741,0.103800000000001,100.0,1584.0,24203.0,4880.0,99.0,1642.8,55.2,4865.8,-140.84048,0.33778654,0.034518325,-0.0040716822,-1.2126045,32.44,0.04005174,-0.002737244,-1.2263335,0.70890434,0.919872,4.1907082,-19.2,46.1,50.1,-21.3,86.3,243.8,-1263.1,-10.1,293.1,1021.2255,0.0051796819999999,2674.1,0.04005174,-0.01098378,-0.002737244,0.006824813,-1.2263335,0.0050861034999999,32300.0,28971.0,250.0,-6.0,9.0,47.0,0,None
2023-01-03 04:47:27.450,237.3052,0.1120000000000003,100.0,1816.0,24105.0,4862.0,99.0,1790.6,57.8,4874.2,-141.22344,0.38012092,0.0027950463333333,0.0060562589999999,-1.2150766666666666,33.2,0.0079610933333333,0.0063047993333333,-1.2266543333333333,0.3537476599999999,1.417249,1.806987,-8.2,-17.0,52.6,-14.2,-92.4,248.8,-1277.8,9.2,267.0,1020.8502,-0.37007814,2675.2,0.0079610933333333,-0.0904835033333333,0.0063047993333333,-0.01225113,-1.2266543333333333,0.0070501886666666,33205.0,28971.0,1155.0,-11.0,29.5,209.5,0,None
2023-01-03 04:47:28.000,237.8452,0.1079999999999983,100.0,1614.0,24125.0,4879.0,99.0,1654.8,60.4,4867.4,-140.82577999999998,0.40736514,-0.032476045,-0.0067951865,-1.2144355,34.375,-0.026059665,-0.0055695205,-1.2244855,0.39119758,1.5052194,2.2492062,-17.6,-11.7,72.3,-16.6,-15.7,256.3,-1164.0,6.7,273.1,1020.6535,-0.56698436,2676.2,-0.026059665,-0.03730244,-0.0055695205,-0.011585269,-1.2244855,0.0114500934999999,35090.0,29003.0,3040.0,-4.0,14.0,327.0,0,None
2023-01-03 04:47:28.550,238.3786,0.1044000000000039,100.0,1391.0,24219.0,4866.0,99.0,1441.6,63.0,4868.8,-139.75961999999998,0.41847254,-0.0315630666666666,0.0011913300333333,-1.211124,35.913333333333334,-0.0232686666666666,0.0044889853333333,-1.254342,0.49530956,0.95587548,2.0259724,-12.0,47.6,80.0,-19.4,35.0,269.0,-1051.8,10.0,298.0,1020.4654,-0.7547968399999999,2677.6,-0.0232686666666666,0.0169858533333333,0.0044889853333333,0.03235631,-1.254342,0.018755836,36640.0,28726.0,4590.0,0.0,-2.0,337.0,0,None
2023-01-03 04:47:29.100,238.94233333333327,0.103333333333334,100.0,1364.0,24221.0,4867.0,99.0,1339.5,65.0,4864.333333333333,-136.92028333333332,0.4248777166666667,-0.0039278916666666,0.008100412,-1.2091353333333332,37.78333333333333,0.0037752866666666,0.0095028371666666,-1.2676923333333334,0.5478101833333334,1.0383435333333333,2.2659205,-24.166666666666668,-35.666666666666664,73.33333333333333,-9.0,52.5,254.5,-1009.0,-13.5,285.8333333333333,1020.2573333333332,-0.9631641,2678.333333333333,0.0037752866666666,0.05656335,0.0095028371666666,-0.04963297,-1.2676923333333334,-0.0006783199999999,38240.0,28735.0,6190.0,8.0,-5.0,330.0,0,None
2023-01-03 04:47:29.650,239.5186,0.1077999999999973,100.0,1152.0,24293.0,4866.0,99.0,1037.2,66.8,4860.6,-133.67912,0.42952024,0.0044280586,-0.034674345,-1.211119,39.245000000000005,0.010986559,-0.033136155,-1.267964,0.52857648,1.17497516,2.233643,1.2,-198.0,70.8,-38.4,-24.6,253.2,-880.0,12.8,320.8,1020.0635999999998,-1.1566717999999998,2679.6,0.010986559,-0.0003795499999999,-0.033136155,-0.1549282699999999,-1.267964,-0.004589435,39610.0,28750.0,7560.0,-2.0,-5.0,256.0,0,None
2023-01-03 04:47:30.200,240.039,0.1002000000000009,100.0,1019.0,24373.0,4872.0,99.0,1094.6,68.4,4864.0,-131.21030000000002,0.4328921799999999,-0.0160925346666666,-0.1989474333333333,-1.2187473333333334,40.29666666666666,-0.0071651166,-0.1962437333333333,-1.2725926666666665,0.79629668,0.93748608,2.430924800000001,-15.8,-274.0,72.2,-12.4,-17.0,206.4,-939.0,-53.8,344.6,1019.9336,-1.2866404,2680.8,-0.0071651166,-0.0113842333333333,-0.1962437333333333,-0.2728816966666667,-1.2725926666666665,-0.0551869973333333,40510.0,28676.0,8460.0,-76.0,-29.0,181.0,0,None
2023-01-03 04:47:30.750,240.589,0.099999999999999,100.0,1338.0,24180.0,4871.0,99.0,1259.8333333333333,70.16666666666667,4868.5,-130.15196666666668,0.4323350333333334,-0.0485624933333333,-0.2183334,-1.3729756666666668,41.086666666666666,-0.0384040966666666,-0.2160748666666666,-1.4255673333333334,0.7017810333333334,1.0325445333333334,3.7194015,7.0,80.83333333333333,59.66666666666666,-37.66666666666666,7.833333333333333,196.16666666666663,-1049.1666666666667,-362.6666666666667,374.6666666666667,1019.8115,-1.4089973333333334,2681.833333333333,-0.0384040966666666,0.0117777236666666,-0.2160748666666666,0.0838097666666666,-1.4255673333333334,-0.3725685999999999,41130.0,27749.0,9080.0,-185.0,-72.0,150.0,0,None
2023-01-03 04:47:31.300,241.1518,0.1081999999999993,100.0,1259.0,24284.0,4871.0,99.0,1271.0,72.0,4857.8,-130.46166,0.4301317799999999,-0.0563888266666666,-0.1596250666666666,-1.6027806666666666,41.836666666666666,-0.04605517,-0.1627732333333333,-1.6526443333333332,0.5370786,0.96910526,6.785360399999999,-8.6,41.4,1.3,-7.0,80.3,208.7,-1075.2,-353.0,351.2,1019.7054,-1.5149687,2682.8,-0.0462449733333333,0.1254339466666666,-0.1629861666666666,0.033815936,-1.6503353333333333,-0.3448951333333332,41740.0,26664.0,9690.0,-273.0,-110.0,152.0,0,None
2023-01-03 04:47:31.850,241.715,0.0969999999999989,100.0,1270.0,24230.5,4874.5,99.0,1323.3333333333333,74.16666666666667,4863.666666666667,-131.9975,0.4293604333333333,-0.03677552,-0.1289845,-1.8169813333333331,42.64666666666667,-0.0295916733333333,-0.1352197666666666,-1.8625373333333333,0.4631032333333333,0.96593175,9.484146,-16.333333333333332,21.33333333333333,-65.33333333333333,28.5,58.333333333333336,217.66666666666663,-1035.5,-363.0,363.3333333333333,1019.5998333333332,-1.620625166666667,2684.0,-0.0295916733333333,0.0446072270333333,-0.1352197666666666,0.0417474056666666,-1.8625373333333333,-0.3646764666666666,42420.0,25676.0,10370.0,-335.0,-130.0,161.0,0,None
2023-01-03 04:47:32.400,242.27000000000004,0.0999999999999999,100.0,1320.0,24085.0,4875.0,99.0,1290.2,76.0,4872.0,-134.68564,0.42858056,-0.06468224,-0.109576,-2.0031095,43.395,-0.06068521,-0.11718635,-2.044036,0.48443978,1.0489656799999998,8.4815524,-19.6,5.2,-117.2,15.6,-12.6,202.0,-1072.6,-354.2,364.0,1019.4932,-1.7270156,2685.2,-0.06068521,0.0146691249999999,-0.11718635,-0.06120695,-2.044036,-0.3671126,43150.0,24629.0,11100.0,-381.0,-135.0,168.0,0,None
2023-01-03 04:47:32.950,242.8153333333333,0.1000000000000037,100.0,1375.0,24170.0,4877.0,99.0,1393.0,78.16666666666667,4868.333333333333,-138.25623333333334,0.4238605333333333,-0.0606896566666666,-0.1039069666666666,-2.1726216666666667,44.16,-0.05698686,-0.110188,-2.20937,0.4919017333333333,1.02155075,9.1740065,-24.0,-15.833333333333334,-160.0,30.33333333333333,56.333333333333336,183.33333333333331,-1057.1666666666667,-336.0,363.8333333333333,1019.3961666666668,-1.8241146666666663,2686.5,-0.05698686,0.0558792033333333,-0.110188,-0.044277433,-2.20937,-0.3287787,43920.0,23633.0,11870.0,-421.0,-151.0,167.0,0,None
2023-01-03 04:47:33.500,243.374,0.1039999999999963,100.0,1298.0,24207.0,4875.0,99.0,1307.2,80.2,4869.2,-142.67816,0.41372168,-0.05751232,-0.0849773433333333,-2.384062,45.09,-0.0552913366666666,-0.0904472466666666,-2.414705333333333,0.49192512,1.11207394,10.2225416,-37.4,13.8,-204.8,33.4,27.2,151.8,-1003.6,-340.8,359.8,1019.3066,-1.9137188000000005,2687.8,-0.0552913366666666,-0.0135517866666666,-0.0904472466666666,0.0341143133333333,-2.414705333333333,-0.3574122666666666,44680.0,22697.0,12630.0,-457.0,-157.0,174.0,0,None
2023-01-03 04:47:34.050,243.89,0.0999999999999999,100.0,1336.0,24164.0,4877.0,99.0,1316.4,82.4,4868.8,-148.23092,0.39768966,-0.07144639,-0.086842425,-2.5706905,45.88,-0.069209505,-0.0921972299999999,-2.5962505,0.58259542,1.1285552,11.5672534,-56.0,-52.2,-230.0,43.4,9.4,112.0,-1095.0,-371.2,361.0,1019.1776,-2.0429532,2688.6,-0.069209505,0.033573295,-0.0921972299999999,-0.0777757749999999,-2.5962505,-0.3675959,45470.0,21663.0,13420.0,-474.0,-163.0,173.0,0,None
2023-01-03 04:47:34.600,244.44866666666667,0.103333333333334,100.0,1250.0,24200.0,4879.0,99.0,1256.0,84.33333333333333,4866.666666666667,-157.265,0.3748780333333333,-0.0818189166666666,-0.0836388533333333,-2.753844666666667,46.67333333333334,-0.0797769233333333,-0.0878316366666666,-2.7748586666666664,0.5575638666666668,0.9568156,11.418725,-61.833333333333336,1.6666666666666667,-255.66666666666663,34.5,9.166666666666666,57.0,-1029.6666666666667,-350.5,365.0,1019.0471666666668,-2.1733721666666668,2689.6666666666665,-0.0797769233333333,-0.01320795,-0.0878316366666666,-0.0151394133333333,-2.7748586666666664,-0.3429443,46650.0,20134.0,14600.0,-502.5,-162.5,178.0,0,None
2023-01-03 04:47:35.150,245.006,0.104000000000002,100.0,1080.0,24273.0,4874.0,99.0,1156.4,86.0,4868.4,-167.45832,0.3593748,-0.09717035,-0.0670409933333333,-2.9020786666666667,47.64000000000001,-0.0963553133333333,-0.0699065033333333,-2.91854,0.7133554,1.01113884,9.3240032,-76.0,12.0,-256.6,28.6,-40.0,22.2,-1044.0,-95.8,359.8,1019.023,-2.1974688,2691.2,-0.0963553133333333,-0.0110300066666666,-0.0699065033333333,0.0141136619999999,-2.91854,-0.0804919899999999,47850.0,19223.0,15800.0,-530.0,-160.0,171.0,0,None
2023-01-03 04:47:35.700,245.538,0.1039999999999963,100.0,1407.0,24155.0,4854.0,99.0,1326.6,88.0,4869.4,-33.601800000000004,0.3524151999999999,-0.10212018,-0.055937165,-2.895424,48.39,-0.098094355,-0.05783409,-2.908392,0.62633994,0.89962424,8.281011600000001,-65.0,22.4,-258.2,31.2,45.4,11.8,-1072.8,70.2,357.0,1018.902,-2.3182342,2692.0,-0.098094355,0.070163905,-0.05783409,0.03439348,-2.908392,0.056951925,48580.0,19397.0,16530.0,-558.0,-165.0,175.0,0,None
2023-01-03 04:47:36.250,246.092,0.1000000000000037,100.0,1194.0,24256.0,4877.0,99.0,1216.5,89.83333333333333,4869.5,169.31486666666666,0.3545333333333333,-0.0873805266666666,-0.0504415033333333,-2.868682666666667,49.14000000000001,-0.08249141,-0.0537190399999999,-2.8771226666666663,0.5825698833333334,0.9938150666666667,10.8790585,-67.0,9.166666666666666,-262.0,32.333333333333336,32.666666666666664,14.833333333333334,-1033.0,47.333333333333336,347.5,1018.8095,-2.4107030000000003,2693.1666666666665,-0.08249141,0.0264130263333333,-0.0537190399999999,0.0207732266666666,-2.8771226666666663,0.0326462886666666,49350.0,19550.0,17300.0,-577.0,-174.0,181.0,0,None
2023-01-03 04:47:36.800,246.66200000000003,0.1039999999999963,100.0,1288.0,24185.0,4877.0,99.0,1262.4,91.6,4860.6,155.98152,0.3720155,-0.0698458233333333,-0.0538252633333333,-2.8507363333333333,50.04333333333333,-0.0654880033333333,-0.0563062433333333,-2.856437666666667,0.55866092,1.0531797399999998,11.0876194,-65.5,-9.4,-266.9,31.3,43.7,43.4,-1024.3,29.9,360.1,1018.6983,-2.5223125000000004,2694.6,-0.0654880033333333,0.0489723866666666,-0.0563062433333333,-0.0082015226666666,-2.856437666666667,0.0492077033333333,50110.0,19636.0,18060.0,-591.0,-182.0,179.0,0,None
2023-01-03 04:47:37.350,247.194,0.1120000000000004,100.0,1373.5,24145.5,4877.0,99.0,1374.2,94.0,4865.4,143.033,0.40880232,-0.050260915,-0.052364965,-2.8354675,50.785,-0.046223835,-0.05282787,-2.838332,0.51042598,0.9435406,10.181321,-57.4,19.4,-272.0,36.8,44.4,38.0,-1058.2,27.2,335.6,1018.631,-2.5893438,2695.6,-0.046223835,0.016286564,-0.05282787,0.0429841049999999,-2.838332,0.03875957,50860.0,19749.0,18810.0,-597.0,-182.0,175.0,0,None
2023-01-03 04:47:37.900,247.72600000000003,0.104000000000002,100.0,1298.0,24183.0,4875.0,99.0,1265.8,95.6,4863.6,133.8724,0.44815712,-0.03282495,-0.0393928933333333,-2.827946333333333,51.56666666666666,-0.02915585,-0.04007798,-2.826452,0.5380018200000001,0.93424484,10.3205776,-59.2,35.0,-276.6,36.8,16.2,33.2,-1047.6,25.6,333.2,1018.5398,-2.6805156,2696.6,-0.02915585,0.0316828553333333,-0.04007798,0.0348121066666666,-2.826452,0.02301243,51630.0,19816.0,19580.0,-594.0,-185.0,186.0,0,None
2023-01-03 04:47:38.450,248.2923333333333,0.1001666666666664,100.0,1280.0,24182.0,4877.0,99.0,1254.5,97.83333333333331,4865.5,124.06976666666668,0.5020229,-0.0274453633333333,-0.0336421733333333,-2.8135626666666664,52.53666666666666,-0.0227895366666666,-0.0345767966666666,-2.8085896666666668,0.5497594833333334,1.0488201333333331,11.413191666666668,-55.0,-13.166666666666666,-280.8333333333333,28.5,17.0,51.16666666666666,-1044.0,28.0,336.5,1018.4238333333332,-2.7966536666666664,2697.5,-0.0227895366666666,0.0182804216666666,-0.0345767966666666,-0.0254924866666666,-2.8085896666666668,0.0338396866666666,52440.0,19900.0,20390.0,-584.0,-194.0,190.0,0,None
2023-01-03 04:47:39.000,248.851,0.1039999999999963,100.0,1346.0,24144.0,4877.0,99.0,1289.6,99.6,4868.2,114.98847999999998,0.5628916800000001,-0.02692323,-0.043535925,-2.8048595,53.33,-0.02093138,-0.043208655,-2.7966135000000003,0.5413686999999999,0.94911338,10.769943,-61.0,-7.3,-284.8,29.3,14.9,48.1,-1056.5,29.6,336.7,1018.3172,-2.9031796,2699.0,-0.02093138,0.0135488,-0.043208655,0.002553706,-2.7966135000000003,0.01509426,53220.0,19969.0,21170.0,-576.0,-197.0,183.0,0,None
2023-01-03 04:47:39.550,249.371,0.104000000000002,100.0,1383.0,24130.0,4867.0,99.0,1336.4,101.6,4864.0,107.52824,0.6277584599999999,-0.01552876,-0.0407086766666666,-2.790884666666667,54.126666666666665,-0.0107250596666666,-0.0402659033333333,-2.780093666666667,0.4905082600000001,0.94330516,10.373954,-53.6,4.4,-281.2,45.0,6.6,68.0,-1076.2,21.0,349.8,1018.2038,-3.01675,2699.8,-0.0107250596666666,0.022945618,-0.0402659033333333,-0.0191643013333333,-2.780093666666667,0.0265189966666666,54020.0,20065.0,21970.0,-568.0,-198.0,187.0,0,None
2023-01-03 04:47:40.100,249.9331666666667,0.1001666666666665,100.0,1342.0,24131.0,4871.0,99.0,1317.6666666666667,103.83333333333331,4867.5,99.79716333333332,0.7139624666666666,-0.0184102333333333,-0.0367440433333333,-2.7807820000000003,55.11333333333334,-0.0147082266666666,-0.0352250966666666,-2.765572,0.4986984333333333,0.9525601,10.666314833333333,-45.833333333333336,10.166666666666666,-283.8333333333333,41.833333333333336,-0.5,59.0,-1029.1666666666667,14.833333333333334,327.1666666666667,1018.1103333333334,-3.1099218333333334,2701.333333333333,-0.0147082266666666,-0.0055528799999999,-0.0352250966666666,0.0087995823333333,-2.765572,0.0117985836666666,54860.0,20134.0,22810.0,-556.0,-199.0,192.0,0,None
2023-01-03 04:47:40.650,250.488,0.0999999999999999,100.0,1389.0,24095.0,4874.0,99.0,1341.2,106.0,4870.8,94.060792,0.7959662399999999,-0.01612257,-0.032006015,-2.7739545000000003,55.895,-0.0112099779999999,-0.03137947,-2.7553780000000003,0.4981216400000001,0.9552518,10.2112414,-52.2,-3.4,-280.8,32.2,4.4,72.6,-1077.4,24.6,330.2,1018.0172,-3.2033594,2702.0,-0.0112099779999999,0.017349713,-0.03137947,-0.01833241,-2.7553780000000003,0.01456614,55650.0,20188.0,23600.0,-547.0,-202.0,188.0,0,None
2023-01-03 04:47:41.200,251.034,0.099999999999999,100.0,1299.0,24136.0,4871.0,99.0,1344.5,108.0,4867.333333333333,89.15947999999999,0.8858614333333334,-0.0134215766666666,-0.0376512433333333,-2.768643666666667,56.67333333333334,-0.008595089,-0.0368948166666666,-2.7459949999999997,0.49003455,0.9629911166666668,11.0260995,-52.5,-15.166666666666666,-281.5,35.0,-7.0,60.5,-1042.0,24.5,331.1666666666667,1017.8828333333336,-3.3373570000000004,2703.1666666666665,-0.008595089,0.0217019646666666,-0.0368948166666666,0.0132567033333333,-2.7459949999999997,0.02908254,56820.0,20281.0,24770.0,-530.0,-203.0,188.5,0,None
2023-01-03 04:47:41.750,251.60400000000004,0.104000000000002,100.0,1446.0,24050.0,4877.0,99.0,1399.6,110.0,4869.4,85.138274,0.97852944,-0.0247674433333333,-0.04188491,-2.761397666666667,57.66333333333333,-0.018384,-0.0415384299999999,-2.734552666666666,0.47615726,0.99226328,9.4933886,-50.2,28.0,-280.4,25.6,10.4,54.8,-1035.0,3.0,313.8,1017.785,-3.4355624,2704.2,-0.018384,0.0068329996666666,-0.0415384299999999,0.0395361133333333,-2.734552666666666,-0.0024263699999999,58070.0,20327.0,26020.0,-518.0,-201.0,193.0,0,None
2023-01-03 04:47:42.300,252.154,0.099999999999999,100.0,1218.0,24152.0,4875.5,99.0,1262.0,112.16666666666669,4867.666666666667,82.05515333333334,1.0685325,-0.0292053733333333,-0.0319365833333333,-2.7672633333333336,58.85,-0.023289815,-0.033593225,-2.7390525,0.5080580666666668,0.9509769500000002,10.713075833333336,-54.0,-6.666666666666667,-276.3333333333333,32.166666666666664,-0.6666666666666666,79.16666666666667,-1045.0,-7.666666666666667,333.0,1017.6828333333334,-3.537643166666667,2705.5,-0.0225309666666666,-0.003387426,-0.0326378333333333,-0.02949348,-2.7382106666666672,-0.0228879566666666,58920.0,20302.0,26870.0,-511.0,-202.0,194.0,0,None
2023-01-03 04:47:42.850,252.704,0.0999999999999999,100.0,934.0,24274.0,4883.0,99.0,1114.8,114.0,4875.6,79.58338999999998,1.15701,-0.0254274499999999,-0.03836271,-2.7726665,59.515,-0.0187523949999999,-0.03966687,-2.741482,0.5275209999999999,1.05034734,11.1552886,-45.6,-12.0,-272.8,18.0,175.8,71.0,-997.0,-4.2,331.0,1017.5806,-3.6398592,2706.2,-0.0187523949999999,0.148388985,-0.03966687,-0.036497605,-2.741482,0.002113674,59740.0,20278.0,27690.0,-502.0,-203.0,185.0,0,None
2023-01-03 04:47:43.400,253.254,0.099999999999999,100.0,961.0,24273.0,4882.0,99.0,965.3333333333334,115.5,4872.333333333333,77.61547999999999,1.2453933333333334,0.0139173049999999,-0.0285015133333333,-2.770960333333333,60.24,0.02000466,-0.0298635466666666,-2.737221333333333,0.7642338,1.1390213333333332,9.144621833333334,-32.666666666666664,43.16666666666666,-288.5,26.83333333333333,-154.5,76.66666666666667,-922.6666666666666,38.0,336.6666666666667,1017.5126666666666,-3.707591,2707.333333333333,0.02000466,-0.1105096233333333,-0.0298635466666666,0.0508827506666666,-2.737221333333333,0.0159568066666666,60420.0,20344.0,28370.0,-480.0,-197.0,139.0,0,None
2023-01-03 04:47:43.950,253.804,0.0999999999999999,100.0,1078.0,24187.0,4874.0,99.0,969.6,116.8,4870.0,76.009512,1.3294305999999998,-0.0450694799999999,-0.0165799266666666,-2.755419,60.81333333333333,-0.03813828,-0.01641569,-2.7191086666666666,0.8896226200000001,1.2447524,9.8953416,-38.4,6.4,-261.6,75.2,1.2,83.4,-902.4,40.4,341.8,1017.404,-3.8164531999999993,2708.2,-0.03813828,-0.0305688366666666,-0.01641569,-0.0265153406666666,-2.7191086666666666,0.0075628937,60850.0,20429.0,28800.0,-477.0,-207.0,91.0,0,None
2023-01-03 04:47:44.500,254.354,0.1000000000000037,100.0,1117.0,24222.0,4880.0,99.0,1085.5,118.5,4875.833333333333,74.687875,1.4054825,-0.0484696,-0.0129175423333333,-2.741959666666667,61.14333333333334,-0.0420226733333333,-0.0150272333333333,-2.703302666666667,0.7320594666666667,1.2730156666666668,10.788230333333331,-54.5,-4.5,-261.3333333333333,30.0,47.333333333333336,89.5,-969.6666666666666,28.166666666666668,353.6666666666667,1017.3623333333336,-3.857786333333333,2709.5,-0.0420226733333333,0.002067793,-0.0150272333333333,-0.0074692129999999,-2.703302666666667,0.03374239,61120.0,20503.0,29070.0,-481.0,-225.0,61.0,0,None
2023-01-03 04:47:45.050,254.904,0.0999999999999999,100.0,1058.0,24237.0,4882.0,99.0,1042.8,120.2,4873.4,73.59161,1.4751691999999998,-0.03768116,-0.029179955,-2.7383295,61.33,-0.033368055,-0.03035222,-2.697801,0.73447124,1.1684558,12.028658,-36.4,-29.2,-261.0,45.0,-15.6,80.6,-1042.6,-7.8,333.6,1017.3252,-3.8953124,2710.6,-0.033368055,0.03370444,-0.03035222,-0.0081537465,-2.697801,-0.0096367465,61310.0,20547.0,29260.0,-483.0,-238.0,53.0,0,None
2023-01-03 04:47:45.600,255.454,0.099999999999999,100.0,1067.0,24219.0,4879.0,99.0,1018.3333333333334,121.66666666666669,4873.166666666667,72.67091,1.5417033333333334,-0.0363614966666666,-0.04167033,-2.7507023333333334,61.45333333333334,-0.03191044,-0.0421833166666666,-2.7073370000000003,0.7837266,1.2231721666666668,14.32694,-85.33333333333333,9.5,-268.1666666666667,1.3333333333333333,13.833333333333334,74.66666666666667,-1070.5,-36.333333333333336,345.5,1017.3395,-3.880702833333333,2711.5,-0.03191044,0.0221908966666666,-0.0421833166666666,-0.0165147433333333,-2.7073370000000003,0.0002689706666666,61450.0,20497.0,29400.0,-485.0,-241.0,37.0,0,None
2023-01-03 04:47:46.150,256.004,0.0999999999999999,100.0,818.0,24313.0,4877.0,99.0,932.6,123.2,4878.2,71.95916399999999,1.6046592,-0.03495893,-0.0408736733333333,-2.7641830000000005,61.52666666666666,-0.0312508166666666,-0.0419757566666666,-2.719467,0.79204238,1.2826094,14.73908,-50.6,-8.2,-262.4,28.0,3.2,74.4,-1008.4,-18.2,342.0,1017.4332,-3.7869688,2712.4,-0.0312508166666666,0.0403212566666666,-0.0419757566666666,-0.0107710496666666,-2.719467,-0.0130789866666666,61520.0,20434.0,29470.0,-488.0,-237.0,37.0,0,None
2023-01-03 04:47:46.700,256.55400000000003,0.0999999999999942,100.0,977.0,24248.0,4880.0,99.0,981.1666666666666,124.66666666666669,4874.0,71.41497666666667,1.662391333333333,-0.0468430699999999,-0.0345590266666666,-2.773414333333333,61.49666666666666,-0.0420101666666666,-0.0352498466666666,-2.725909333333333,0.8248082333333335,1.3051651666666666,15.395105,-52.833333333333336,21.83333333333333,-264.3333333333333,9.5,-14.333333333333334,58.66666666666666,-1080.3333333333333,3.5,324.1666666666667,1017.4435,-3.7767056666666665,2713.5,-0.0420101666666666,-0.0278318433333333,-0.0352498466666666,0.0121619530333333,-2.725909333333333,-0.0018052419999999,61500.0,20384.5,29450.0,-491.0,-225.0,42.0,0,None
2023-01-03 04:47:47.250,257.104,0.0999999999999999,100.0,959.0,24278.0,4875.0,99.0,1013.4,126.2,4874.0,70.965808,1.7173144,-0.061339035,-0.030184605,-2.77109,61.46,-0.05550465,-0.032697105,-2.722765,0.8400081,1.199755,13.847914,-49.4,1.8,-256.8,4.6,-23.4,80.4,-1021.6,24.6,348.2,1017.4348,-3.78575,2714.8,-0.05550465,-0.03346068355,-0.032697105,-0.0152998564999999,-2.722765,0.0029944705,61450.0,20435.0,29400.0,-502.0,-223.0,43.0,0,None
2023-01-03 04:47:47.800,257.67400000000004,0.103333333333334,100.0,1084.5,24214.0,4865.5,99.0,1076.0,127.83333333333331,4865.833333333333,70.58562666666667,1.7706043333333332,-0.0744032166666666,-0.0210525333333333,-2.7557143333333336,61.46,-0.06801435,-0.02334517,-2.7059040000000003,0.92140195,1.4132436666666666,13.79539,-82.66666666666667,23.0,-254.83333333333331,-16.5,-9.166666666666666,79.5,-1098.1666666666667,23.5,347.0,1017.3705,-3.8497135,2715.833333333333,-0.06801435,-0.02739623,-0.02334517,0.0154990163,-2.7059040000000003,0.0576594733333333,61480.0,20554.0,29430.0,-511.0,-233.0,44.0,0,None
2023-01-03 04:47:48.350,258.228,0.1040000000000076,100.0,982.0,24252.0,4861.0,99.0,965.8,129.4,4863.6,70.296296,1.8190048,-0.0481124340333333,0.025044238,-2.730449,61.53666666666666,-0.042224529,0.022227952,-2.678774333333333,0.77333934,1.129956,13.512002,-67.8,254.0,-251.8,-2.2,207.2,99.6,-1001.6,87.8,356.0,1017.3628,-3.8574374,2716.8,-0.042224529,0.18261838,0.022227952,0.200569059,-2.678774333333333,0.1023929366666666,61560.0,20688.0,29510.0,-508.0,-251.0,44.0,0,None
2023-01-03 04:47:48.900,258.744,0.0999999999999999,100.0,1031.0,24207.0,4871.0,99.0,1009.0,130.6,4868.2,70.13566800000001,1.855948,0.0456633149999999,0.1976621,-2.602741,61.595,0.0502248099999999,0.1936759499999999,-2.55153,0.6563133999999999,1.3587066,13.953454,-49.8,274.6,-276.0,-4.6,157.0,167.2,-943.4,362.8,296.0,1017.439,-3.781328,2717.6,0.0502248099999999,0.1565122,0.1936759499999999,0.3065036,-2.55153,0.36122635,61600.0,21679.0,29550.0,-429.0,-312.0,43.0,0,None
2023-01-03 04:47:49.450,259.2802,0.1079999999999926,100.0,1243.0,24088.0,4871.0,99.0,1125.6,132.6,4867.4,70.058348,1.8926406,0.03268955,0.2719507333333333,-2.426665,61.57333333333333,0.03222785,0.2678076,-2.373986,0.75501252,1.9026096,13.588736,-80.6,16.0,-246.0,-20.1,77.7,247.4,-1174.8,229.3,252.7,1017.3661,-3.8543671,2718.4,0.03222785,0.0061442599999999,0.2678076,0.0458983899999999,-2.373986,0.2901639,61560.0,22690.0,29510.0,-302.0,-393.0,39.0,0,None
2023-01-03 04:47:50.000,259.84000000000003,0.1240000000000008,100.0,1109.0,24153.0,4869.0,99.0,1126.0,134.2,4863.2,70.01674600000001,1.9224408,0.0912111533333333,0.1148011903333333,-2.3550090000000004,61.59333333333333,0.0880089499999999,0.1148309266666666,-2.299141333333333,0.6331679800000001,0.9897936,11.4341464,-36.4,-534.0,-232.4,-12.7,92.5,227.7,-1049.2,-29.8,254.6,1017.3185,-3.9019297,2719.4,0.08667483,0.0762900433333333,0.11852896,-0.5283333333333333,-2.298957,-0.03391664,61590.0,22835.0,29540.0,-179.0,-436.0,41.0,0,None
2023-01-03 04:47:50.550,260.428,0.108000000000004,100.0,1058.0,24172.0,4874.0,99.0,1064.0,136.0,4870.0,69.969892,1.9468804,0.0815765233333333,-0.1029694966666666,-2.3685063333333334,61.69333333333333,0.0806059133333333,-0.0923817466666666,-2.305932666666666,0.5796083600000002,1.08186052,9.319121,-28.6,-142.2,-236.8,-10.4,-47.0,156.4,-1017.8,-14.2,317.0,1017.3196,-3.9008904,2720.6,0.0806059133333333,-0.0514642466666666,-0.0923817466666666,-0.1343767533333333,-2.305932666666666,-0.0092603496666666,61680.0,22792.0,29630.0,-138.0,-386.0,39.0,0,None
2023-01-03 04:47:51.100,260.956,0.1039999999999963,100.0,1124.0,24150.0,4877.0,99.0,1141.4,137.4,4864.8,69.962776,1.964006,0.088680435,-0.091774355,-2.3727015,61.73,0.092964475,-0.07912094,-2.3067385,0.60091864,0.9503017,8.242917799999999,-21.3,92.9,-236.5,1.1,47.9,157.6,-1062.2,3.0,326.9,1017.3149,-3.9054219,2721.3,0.092964475,0.0715186,-0.07912094,0.188041085,-2.3067385,0.0092753925,61730.0,22778.0,29680.0,-142.0,-309.0,29.0,0,None
2023-01-03 04:47:51.650,261.5044,0.1120000000000004,100.0,1179.0,24098.0,4877.0,99.0,1189.4,139.2,4876.0,70.000092,1.9840184,0.1024692066666666,-0.0630432066666666,-2.36796,61.73,0.1094578,-0.0524212766666666,-2.29927,0.5142264799999999,0.8809639599999999,8.5068658,-18.2,-16.6,-238.8,3.8,25.2,174.6,-1053.8,7.2,321.6,1017.3058,-3.914328,2722.4,0.1094578,0.0377877833333333,-0.0524212766666666,-0.0104307866666666,-2.29927,0.006062623,61730.0,22818.0,29680.0,-126.0,-246.0,23.0,0,None
2023-01-03 04:47:52.200,262.0802,0.1159999999999967,100.0,1248.0,24108.0,4880.0,99.0,1200.4,141.2,4873.6,70.063428,2.0052783999999995,0.1305143,-0.0805621066666666,-2.3653953333333333,61.73333333333333,0.1388797666666666,-0.0708280433333333,-2.2922933333333333,0.42606188,1.04121658,9.2980756,-8.3,-25.9,-252.4,-10.0,70.2,157.4,-1064.0,26.5,302.3,1017.3099000000002,-3.9103205,2723.7,0.1388797666666666,0.045124054,-0.0708280433333333,-0.0169184633333333,-2.2922933333333333,0.0189498696666666,61730.0,22852.0,29680.0,-110.0,-183.0,23.0,0,None
2023-01-03 04:47:52.750,262.60400000000004,0.115000000000009,100.0,1181.0,24135.0,4880.0,99.0,1174.75,143.0,4873.0,70.12393,2.022686,0.14595785,-0.09098027,-2.3620530000000004,61.765,0.15571495,-0.08050394,-2.285854,0.52392125,0.967331625,7.66332025,3.5,3.0,-252.5,-1.125,46.0,166.625,-1040.25,17.75,314.75,1017.291625,-3.928603375,2724.25,0.15571495,0.02436807,-0.08050394,-0.008361785,-2.285854,0.01714609,61750.0,22892.0,29700.0,-89.0,-102.0,26.0,0,None
2023-01-03 04:47:53.300,263.1706666666667,0.1099999999999946,100.0,1101.0,24167.0,4871.0,99.0,1109.0,144.83333333333334,4873.666666666667,70.18688833333333,2.0451705,0.1239092,-0.0822937933333333,-2.3605706666666664,61.81,0.1356543333333333,-0.0729127033333333,-2.2821383333333336,0.5673737666666666,0.9512315999999998,7.360865666666666,17.166666666666668,26.5,-252.33333333333331,11.833333333333334,-56.16666666666666,161.0,-1047.5,4.5,309.6666666666667,1017.274,-3.94625,2725.5,0.1356543333333333,-0.0910415233333333,-0.0729127033333333,0.0224471386666666,-2.2821383333333336,0.0054912267999999,61800.0,22915.0,29750.0,-74.0,-24.0,24.0,0,None
2023-01-03 04:47:53.850,263.76800000000003,0.108000000000004,100.0,986.5,24206.5,4875.5,99.0,1003.0,146.6,4864.2,70.22635600000001,2.0686318,0.09241564,-0.04305811,-2.3504635,61.845,0.1064139,-0.036124895,-2.2705385,0.7646946800000001,1.0447864399999998,5.3846654,17.2,107.9,-243.2,16.7,-37.6,181.5,-1049.1,14.5,312.4,1017.2732,-3.9471639,2726.4,0.10601935,-0.031869555,-0.03772201,0.1433033,-2.270962,0.02983277,61830.0,22960.0,29780.0,-65.0,31.0,24.0,0,None
2023-01-03 04:47:54.400,264.288,0.108000000000004,100.0,1062.0,24173.0,4877.0,99.0,1060.8,148.2,4875.4,70.238866,2.0956714,0.0732592266666666,0.0049649966666666,-2.345534,61.85,0.0878950466666666,0.0103019326666666,-2.2642173333333333,0.80886104,1.2326028,9.927524600000002,33.8,29.6,-231.6,4.6,-30.4,197.0,-1112.0,-0.6,313.6,1017.2948,-3.9256876000000007,2727.0,0.0878950466666666,-0.0169307033333333,0.0103019326666666,0.0413290566666666,-2.2642173333333333,-0.0130933499999999,61860.0,23023.0,29810.0,-56.0,58.0,18.0,0,None
2023-01-03 04:47:54.950,264.832,0.1120000000000004,100.0,1023.0,24228.0,4871.0,99.0,1019.0,149.6,4869.0,70.21784600000001,2.1229862,0.0809749166666666,0.0133570366666666,-2.3535403333333336,61.830000000000005,0.0934562133333333,0.0161929933333333,-2.270341333333333,0.7857887399999999,1.3880203999999998,10.5190784,36.8,-0.4,-228.6,5.0,19.2,197.6,-991.4,1.6,297.4,1017.3176,-3.9027966,2728.4,0.0934562133333333,0.0131025743333333,0.0161929933333333,-0.0160901042333333,-2.270341333333333,-0.0318467933333333,61830.0,22993.5,29780.0,-23.5,65.0,18.5,0,None
2023-01-03 04:47:55.500,265.3962,0.1079999999999926,100.0,1029.0,24186.0,4879.0,99.0,1034.4,151.2,4876.8,70.16364999999999,2.1514278,0.07458935,0.0081135435,-2.3615085,61.82,0.0857950949999999,0.0108623735,-2.2772055,0.75632564,1.3094022000000003,9.8004504,34.0,-27.9,-231.8,3.0,-32.7,198.5,-1008.3,3.4,299.6,1017.2658,-3.9544842,2729.0,0.0857950949999999,-0.078615745,0.0108623735,-0.0286790899999999,-2.2772055,-0.009757287,61830.0,22944.0,29780.0,15.0,71.0,23.0,0,None
2023-01-03 04:47:56.050,265.9202,0.108000000000004,100.0,1113.0,24142.0,4861.0,99.0,1043.0,152.6,4874.8,70.09617799999998,2.1734206,0.0576659766666666,-0.0069869936666666,-2.3642036666666666,61.82,0.0683587466666666,-0.0039926097,-2.2780970000000003,0.70070698,1.2376918,10.9678318,46.8,-35.4,-229.2,14.8,-63.6,183.6,-1118.0,-1.0,321.2,1017.3066,-3.913703,2730.2,0.0683587466666666,-0.0279938076666666,-0.0039926097,-0.0319115,-2.2780970000000003,-0.0046267173333333,61820.0,22953.0,29770.0,27.0,71.0,18.0,0,None
2023-01-03 04:47:56.600,266.43600000000004,0.0999999999999999,100.0,1046.0,24185.0,4874.0,99.0,1002.0,154.2,4877.0,70.01441600000001,2.1963138,0.035005165,-0.018433045,-2.36288,61.82,0.04536357,-0.015231,-2.275761,0.7288990799999999,1.316937,11.446124,34.8,-29.6,-221.2,18.8,-55.6,188.6,-1152.6,1.4,319.4,1017.28,-3.940359200000001,2731.0,0.04536357,-0.0284343,-0.015231,-0.0181346265,-2.275761,0.0139981745,61830.0,22970.0,29780.0,30.0,67.0,19.0,0,None
2023-01-03 04:47:57.150,266.976,0.1120000000000004,100.0,1033.0,24150.0,4879.0,99.0,1044.2,155.6,4875.4,69.939498,2.2182984,0.0276810866666666,-0.02461218,-2.3599876666666666,61.836666666666666,0.03920855,-0.0213866833333333,-2.272072333333333,0.68044626,1.3749392,9.981391,31.8,-6.2,-214.8,-7.0,-19.6,178.7,-1036.2,6.4,321.7,1017.2776,-3.942828,2731.6,0.03920855,-0.0001464999999999,-0.0213866833333333,0.0284578,-2.272072333333333,-0.0049314566666666,61840.0,22990.0,29790.0,20.0,64.0,14.0,0,None
2023-01-03 04:47:57.700,267.5166,0.1039999999999963,100.0,1125.0,24165.0,4848.0,99.0,1043.8,157.4,4878.6,69.884812,2.2407284,0.025232905,-0.0100865565,-2.3663695,61.84,0.03653154,-0.0079310961,-2.2783835000000003,0.70279722,1.396429,8.324378800000002,34.6,55.2,-209.0,21.0,3.2,190.2,-1040.4,-23.4,332.4,1017.2616,-3.95875,2732.6,0.03653154,0.0005390899999999,-0.0079310961,0.081095025,-2.2783835000000003,-0.05044885,61840.0,22915.0,29790.0,12.0,55.0,18.0,0,None
2023-01-03 04:47:58.250,268.10133333333334,0.1068333333333365,100.0,998.0,24217.0,4875.0,99.0,997.8333333333334,158.83333333333334,4874.833333333333,69.85697666666665,2.2614403333333333,0.0190113199999999,0.0119888906666666,-2.375362,61.86333333333334,0.0299435866666666,0.0129039976666666,-2.287094666666667,0.7237388999999999,1.2522655,9.1260675,33.666666666666664,-10.0,-211.83333333333331,-20.0,-9.666666666666666,196.66666666666663,-992.1666666666666,13.166666666666666,318.8333333333333,1017.2656666666668,-3.9547526666666655,2733.5,0.0299435866666666,0.0140448053333333,0.0129039976666666,-0.0061195833333333,-2.287094666666667,-0.0199592933333333,61880.0,22915.0,29830.0,18.0,34.0,18.0,0,None
2023-01-03 04:47:58.800,268.673,0.1039999999999963,100.0,1132.0,24150.0,4882.0,99.0,1049.6,160.4,4873.8,69.83314200000001,2.2814488,0.0135836716666666,-0.00596495055,-2.371984666666666,61.870000000000005,0.02358947,-0.0051276209666666,-2.282256333333333,0.9456296,1.5332566,11.0675704,13.6,-26.3,-203.9,-1.6,42.4,192.6,-1029.6,12.5,325.5,1017.2923,-3.9281251,2734.4,0.0239239566666666,0.0430580686666666,-0.0048110329666666,-0.014006309,-2.282307333333333,0.0028499083333333,61860.0,22939.0,29810.0,12.0,12.0,12.0,0,None
2023-01-03 04:47:59.350,269.2208,0.1118000000000051,100.0,1041.0,24201.0,4879.0,98.4,1054.2,162.2,4871.2,69.813434,2.2958688,0.0558595,-0.0108326095,-2.3707035000000003,61.835,0.06507352,-0.009960633,-2.2795845000000003,0.74246864,1.5855602,9.973806,39.8,4.2,-219.6,-26.8,98.8,185.6,-1042.2,-17.2,310.4,1017.2436,-3.976578,2735.2,0.06507352,0.104818755,-0.009960633,0.0207643179999999,-2.2795845000000003,0.00483453,61830.0,22934.0,29780.0,13.0,4.0,14.0,0,None
2023-01-03 04:47:59.900,269.76879999999994,0.1041999999999915,100.0,1080.0,24181.0,4869.0,98.0,1045.0,163.8,4874.2,69.790222,2.3060008000000005,0.0667979633333333,-0.0139720733333333,-2.376215333333333,61.84333333333333,0.0750056966666666,-0.0125132199999999,-2.2843473333333333,0.7015640600000002,1.4700061999999998,9.8692626,28.6,-25.3,-234.2,18.5,-26.3,185.1,-1058.7,10.5,302.6,1017.2526,-3.9680232,2736.8,0.0750056966666666,-0.0238579206666666,-0.0125132199999999,-0.0093968133333333,-2.2843473333333333,-0.03210696,61850.0,22911.0,29800.0,24.0,8.0,18.0,0,None
2023-01-03 04:48:00.450,270.3086,0.1158000000000015,100.0,1043.0,24195.0,4871.0,98.0,1039.0,165.4,4866.6,69.73495,2.318419,0.04736947,-0.02896776,-2.3766105,61.865,0.055875565,-0.026335095,-2.2842335,0.64547946,1.5619664,11.561352,21.0,-24.4,-220.6,1.8,-35.4,184.4,-1045.4,13.6,328.0,1017.2596,-3.9609996,2737.0,0.0555568149999999,0.005239115,-0.026611975,-0.03336483,-2.2845,0.010800555,61860.0,22913.0,29810.0,30.0,10.0,18.0,0,None
2023-01-03 04:48:01.000,270.857,0.1002000000000065,100.0,1011.0,24156.0,4862.0,98.0,999.0,166.8,4871.0,69.667266,2.332379,0.0346975366666666,-0.0365765166666666,-2.3788,61.85333333333333,0.04415483,-0.0339587566666666,-2.2856883333333333,0.72913596,1.4439624,12.516522,33.8,-21.0,-221.2,-2.6,-4.8,175.8,-1032.2,-23.2,329.0,1017.2708,-3.9496094,2738.0,0.04415483,0.03482545,-0.0339587566666666,-0.0219063266666666,-2.2856883333333333,-0.0040072285833333,61860.0,22907.0,29810.0,25.0,11.0,22.0,0,None
2023-01-03 04:48:01.550,271.3928,0.1120000000000004,100.0,1035.0,24182.0,4864.0,98.0,1105.8,168.6,4873.2,69.633078,2.346617,0.046737505,-0.03806573,-2.3789675,61.845,0.05657329,-0.034853795,-2.285207,0.6966234800000001,1.3359194,8.6594814,31.0,4.1,-221.0,24.1,7.3,175.2,-1041.3,-15.5,321.1,1017.2519999999998,-3.96825,2739.0,0.05657329,0.01009973,-0.034853795,-0.0056030859999999,-2.285207,0.0220842549999999,61840.0,22905.0,29790.0,19.0,15.0,14.0,0,None
2023-01-03 04:48:02.100,271.9486,0.1079999999999926,100.0,1026.0,24157.0,4850.0,98.0,1049.6,170.0,4873.0,69.63566999999999,2.3631882,0.0393139266666666,-0.0421835566666666,-2.3800823333333336,61.85666666666666,0.0483915666666666,-0.03911746,-2.285918666666667,0.65548352,1.4105814,10.2640534,27.4,-12.6,-218.8,25.4,-6.4,177.2,-1125.4,-2.2,330.4,1017.231,-3.9894064,2739.6,0.0483915666666666,0.0005372246666666,-0.03911746,-0.0190619373333333,-2.285918666666667,-0.0118092613333333,61860.0,22904.0,29810.0,15.0,19.0,15.0,0,None
2023-01-03 04:48:02.650,272.5146666666667,0.1066666666666738,100.0,1055.0,24166.0,4875.5,98.0,1074.0,171.66666666666666,4874.0,69.68448666666667,2.381135666666667,0.0336595466666666,-0.03739136,-2.3833713333333333,61.88,0.0435825833333333,-0.03464038,-2.2885880000000003,0.6621140166666667,1.0970073333333332,9.436333666666666,39.91666666666666,6.166666666666667,-219.25,21.916666666666668,-7.25,177.25,-1002.25,0.5833333333333334,319.3333333333333,1017.22325,-3.9971418333333335,2740.5,0.0435825833333333,-0.0202776626666666,-0.03464038,0.0115915799999999,-2.2885880000000003,-0.0070084933333333,61880.0,22885.0,29830.0,7.0,21.0,16.0,0,None
2023-01-03 04:48:03.200,273.1288,0.1120000000000004,100.0,1123.0,24148.0,4866.0,98.0,1103.8,173.6,4876.4,69.790512,2.4017356000000003,0.0357749833333333,-0.0348419433333333,-2.383058333333333,61.88,0.0455832766666666,-0.0321491733333333,-2.2874770000000004,0.6224707,1.282938,10.319331599999998,27.2,15.4,-221.6,-6.0,24.2,176.4,-989.6,8.8,320.8,1017.24,-3.9803438,2741.6,0.0455832766666666,0.0353008566666666,-0.0321491733333333,0.0183193613333333,-2.2874770000000004,-0.009387869,61880.0,22900.0,29830.0,1.0,18.0,11.0,0,None
2023-01-03 04:48:03.750,273.6345,0.1197499999999962,100.0,1051.0,24126.0,4882.0,98.0,1054.0,175.25,4877.25,69.903075,2.41742725,0.036301175,-0.026792335,-2.384923,61.87,0.045885545,-0.024278295,-2.289051,0.72510405,1.22013775,6.205213499999999,31.125,14.75,-220.625,-19.625,3.5,179.0,-1032.125,-22.875,328.875,1017.235125,-3.9853125,2742.375,0.045885545,0.01497968,-0.024278295,0.0029846605,-2.289051,-0.0013456865,61870.0,22883.0,29820.0,-2.0,17.0,15.0,0,None
2023-01-03 04:48:04.300,274.1983333333333,0.1034999999999967,100.0,1101.0,24130.0,4877.0,98.0,1072.5,176.83333333333334,4874.166666666667,70.03923833333333,2.433704833333333,0.0443369233333333,-0.0261516266666666,-2.386444333333333,61.86666666666667,0.0536109266666666,-0.02368039,-2.2901393333333333,0.64748565,1.183795,9.901886500000002,28.0,-3.0,-223.16666666666663,16.333333333333332,33.5,179.33333333333334,-978.5,-10.0,320.8333333333333,1017.2548333333334,-3.9654555,2743.1666666666665,0.0536502466666666,0.03283045,-0.0236151066666666,-0.00255289,-2.2900136666666664,-0.0094328845333333,61870.0,22881.0,29820.0,-3.0,15.0,17.0,0,None
2023-01-03 04:48:04.850,274.7564,0.103800000000001,100.0,1068.0,24128.0,4877.0,98.0,1094.0,178.4,4871.6,70.173658,2.4495624,0.04499028,-0.0272856849999999,-2.387504,61.855,0.05396166,-0.0253504999999999,-2.290836,0.57748472,1.4926448,11.906074,38.6,1.6,-224.2,35.4,-6.4,182.2,-1154.2,4.4,320.2,1017.2452,-3.9749532,2744.0,0.05396166,-0.0203597749999999,-0.0253504999999999,-0.0066810459999999,-2.290836,0.008211868,61860.0,22866.0,29810.0,-2.0,15.0,16.0,0,None
2023-01-03 04:48:05.400,275.30466666666666,0.096666666666664,100.0,1062.0,24170.0,4879.0,98.0,1024.0,180.0,4873.833333333333,70.30765666666667,2.46625,0.0353655466666666,-0.0242075833333333,-2.3903506666666665,61.86000000000001,0.04451185,-0.02179484,-2.293527333333333,0.6919547,1.3216331666666667,9.4204065,29.5,-6.666666666666667,-227.5,26.0,-24.5,182.83333333333331,-1074.8333333333333,0.1666666666666666,321.1666666666667,1017.267,-3.953177,2745.0,0.04451185,-0.0399075333333333,-0.02179484,-0.00619059,-2.293527333333333,-0.0030973043333333,61865.0,22856.5,29815.0,-2.0,14.0,17.0,0,None
2023-01-03 04:48:05.950,275.8528,0.1002000000000065,100.0,1080.0,24145.0,4880.0,98.0,1051.4,181.6,4876.2,70.43654000000001,2.4826692,0.03834025,-0.0239911866666666,-2.392746666666666,61.85,0.0478114266666666,-0.02201823,-2.295345,0.7236438599999999,1.2540144000000002,10.3218268,41.4,-1.6,-220.2,30.8,17.4,178.6,-1112.2,0.0,321.2,1017.29,-3.930328,2745.8,0.0478114266666666,0.0361305,-0.02201823,-0.001512416,-2.295345,0.0015656633333333,61830.0,22856.0,29780.0,-3.0,10.0,19.0,0,None
2023-01-03 04:48:06.500,276.4015,0.0999999999999942,100.0,1058.0,24176.0,4851.0,98.0,1043.0,183.16666666666663,4868.166666666667,70.55303666666667,2.497865833333333,0.0524015633333333,-0.0233371366666666,-2.390068,61.806666666666665,0.0615281633333333,-0.0208077666666666,-2.2923146666666665,0.7393269333333333,1.3871671666666667,11.664223333333334,37.833333333333336,-6.166666666666667,-226.83333333333331,2.5,16.333333333333332,175.5,-981.5,22.0,317.0,1017.3115,-3.9088801666666666,2746.6666666666665,0.0615281633333333,0.0151470133333333,-0.0208077666666666,-0.0092534043333333,-2.2923146666666665,0.0224135003333333,61800.0,22873.0,29750.0,0.0,11.0,24.0,0,None
2023-01-03 04:48:07.050,276.949,0.1040000000000076,100.0,1052.0,24179.0,4882.0,98.0,1033.8,184.8,4872.6,70.65809199999998,2.5131402,0.04651077,-0.02735665,-2.38965,61.775000000000006,0.055230135,-0.0246419849999999,-2.2912220000000003,0.68863688,1.4835174,10.9361556,35.0,18.4,-225.0,-0.6,7.6,179.0,-1043.2,-21.2,319.6,1017.3142,-3.9062342,2747.6,0.055230135,0.03403181,-0.0246419849999999,0.0092737995,-2.2912220000000003,-0.02934525,61760.0,22853.0,29710.0,0.0,16.0,29.0,0,None
2023-01-03 04:48:07.600,277.46500000000003,0.0999999999999999,100.0,1064.0,24182.0,4879.0,98.0,1016.2,186.4,4874.2,70.745004,2.5279786,0.0506257466666666,-0.01404004,-2.394478666666666,61.75666666666666,0.06045754,-0.0114744913333333,-2.296046333333333,0.7500637400000001,1.4674892000000002,10.431047,40.8,0.4,-223.2,28.1,1.9,179.7,-1096.5,5.9,312.0,1017.2996,-3.920547,2748.4,0.06045754,0.0296335533333333,-0.0114744913333333,0.014774626,-2.296046333333333,0.0073047986666666,61760.0,22841.0,29710.0,3.0,15.0,25.0,0,None
2023-01-03 04:48:08.150,278.01500000000004,0.0999999999999942,100.0,1035.0,24167.0,4876.0,98.0,1023.6666666666666,187.83333333333331,4874.5,70.81321833333332,2.5435776666666663,0.0541053466666666,-0.0118163166666666,-2.398222,61.75666666666666,0.0632309099999999,-0.009452041,-2.2994936666666668,0.6987421166666666,1.5300460000000002,11.684995,39.66666666666666,-9.5,-233.0,10.666666666666666,2.0,183.33333333333331,-982.8333333333334,24.0,319.8333333333333,1017.3135,-3.906562166666667,2749.333333333333,0.0632309099999999,-0.0043110433333333,-0.009452041,-0.0078438773333333,-2.2994936666666668,0.0218232399999999,61760.0,22820.0,29710.0,9.0,15.0,28.0,0,None
2023-01-03 04:48:08.700,278.56499999999994,0.0999999999999999,100.0,1060.0,24162.0,4875.0,98.0,1067.8,189.4,4871.2,70.849838,2.5594306,0.0543942633333333,-0.0146683099999999,-2.3970113333333334,61.73333333333333,0.06463415,-0.0124960066666666,-2.2982626666666666,0.6803722,1.364809,10.2366848,31.6,0.6,-229.4,6.2,-0.8,181.8,-1042.0,-5.0,313.2,1017.2796,-3.940922,2750.2,0.06463415,0.0173384833333333,-0.0124960066666666,0.0009528956666666,-2.2982626666666666,-0.0053568166666666,61730.0,22837.0,29680.0,13.0,15.0,25.0,0,None
2023-01-03 04:48:09.250,279.11499999999995,0.1000000000000037,100.0,1086.0,24158.0,4864.0,98.0,1039.6666666666667,191.0,4870.666666666667,70.85365,2.5761133333333337,0.0505159133333333,-0.0153129166666666,-2.3990573333333334,61.74,0.0606950533333333,-0.0138539,-2.300469333333333,0.6804795499999999,1.3830025,9.257253,40.0,-4.166666666666667,-232.83333333333331,24.0,16.0,185.5,-1069.5,-6.833333333333333,313.3333333333333,1017.3125,-3.9079295,2751.0,0.0606950533333333,0.0216963966666666,-0.0138539,-0.001725685,-2.300469333333333,-0.005915078,61740.0,22822.0,29690.0,19.0,14.0,29.0,0,None
2023-01-03 04:48:09.800,279.665,0.0999999999999999,100.0,1041.0,24151.0,4851.0,98.0,1063.8,192.6,4872.0,70.82955799999999,2.5924998,0.0466443,-0.026577515,-2.400863,61.745000000000005,0.056882085,-0.02458148,-2.301893,0.68704164,1.5581484,10.6001754,49.2,-24.6,-234.0,33.6,-15.4,178.4,-1122.6,7.0,308.4,1017.2804,-3.9400154,2751.4,0.056882085,0.0027480904999999,-0.02458148,-0.025882315,-2.301893,0.0079614745,61740.0,22805.0,29690.0,23.0,12.0,26.0,0,None
2023-01-03 04:48:10.350,280.2183333333333,0.0999999999999942,100.0,1035.0,24130.0,4875.0,98.0,1060.6666666666667,194.16666666666663,4871.5,70.79385333333333,2.6080525,0.03834092,-0.0303129766666666,-2.400581666666667,61.76,0.0488499366666666,-0.0283356733333333,-2.301723,0.6614870666666667,1.2953661666666667,8.639155166666665,38.0,-1.0,-222.83333333333331,22.83333333333333,-22.33333333333333,176.66666666666666,-1027.3333333333333,18.33333333333333,328.8333333333333,1017.3123333333332,-3.9080988333333337,2752.5,0.0488499366666666,-0.0509177133333333,-0.0283356733333333,0.0030783435,-2.301723,0.0163370566666666,61760.0,22807.0,29710.0,22.0,12.0,27.0,0,None
2023-01-03 04:48:10.900,280.765,0.0999999999999999,100.0,1073.0,24152.0,4871.0,98.0,1061.6,195.8,4864.2,70.766774,2.6235952,0.0332712666666666,-0.02763523,-2.3973416666666663,61.75333333333333,0.0443638633333333,-0.0263234866666666,-2.298769,0.7020105600000001,1.3041894,10.1070908,22.8,3.8,-223.2,-24.2,25.8,178.2,-1046.6,3.8,325.4,1017.304,-3.916453,2753.6,0.0443638633333333,0.0387087266666666,-0.0263234866666666,0.0020756783333333,-2.298769,0.0054154396666666,61760.0,22821.0,29710.0,18.0,12.0,30.0,0,None
2023-01-03 04:48:11.450,281.3283333333334,0.103333333333334,100.0,1050.0,24146.0,4858.0,98.0,1042.6666666666667,197.66666666666663,4870.5,70.76105,2.639469666666667,0.0353051066666666,-0.0250661066666666,-2.3963370000000004,61.75,0.0466790233333333,-0.0244084666666666,-2.297525333333333,0.6534126,1.3561591666666668,8.947739,36.0,18.0,-219.5,23.666666666666668,20.83333333333333,173.66666666666666,-1033.0,-18.0,331.8333333333333,1017.3135,-3.907200333333333,2754.1666666666665,0.0466790233333333,-0.0085035693,-0.0244084666666666,0.0050188709999999,-2.297525333333333,-0.02568468,61740.0,22837.0,29690.0,11.5,8.5,27.5,0,None
2023-01-03 04:48:12.000,281.889,0.0999999999999999,100.0,942.0,24180.0,4880.0,98.0,993.8,199.4,4877.8,70.77625,2.6547938,0.036272075,-0.024296585,-2.3975920000000004,61.755,0.04700898,-0.02384478,-2.298669,0.7840904399999999,1.3595026,12.07488,50.0,9.8,-219.6,-25.2,45.2,179.4,-1025.0,-1.4,321.6,1017.2862,-3.9343438,2755.2,0.04700898,0.01076753,-0.02384478,-0.006362225,-2.298669,-0.015748856,61760.0,22835.0,29710.0,6.0,5.0,29.0,0,None
2023-01-03 04:48:12.550,282.389,0.0999999999999999,100.0,987.0,24167.0,4875.0,98.0,1021.0,200.6,4878.2,70.801334,2.6681606,0.0448851266666666,-0.0260953666666666,-2.396241333333333,61.76666666666667,0.0556746866666666,-0.02610261,-2.297230666666667,0.80522268,1.4252508,11.953532,20.6,-16.2,-220.6,32.2,56.0,177.6,-933.8,-0.2,325.0,1017.2916,-3.928547000000001,2755.6,0.0556746866666666,0.0011964159999999,-0.02610261,-0.0074743033333333,-2.297230666666667,-0.0286532433333333,61770.0,22846.0,29720.0,8.0,5.0,24.0,0,None
2023-01-03 04:48:13.100,282.94166666666666,0.103333333333334,100.0,1086.5,24124.5,4879.0,98.0,1017.0,202.33333333333331,4875.833333333333,70.83445333333333,2.6818231666666663,0.0494634866666666,-0.0335317033333333,-2.397665333333333,61.76666666666667,0.0597737666666666,-0.0331576133333333,-2.2977803333333333,0.7254528499999999,1.5074781666666668,11.433386833333332,31.0,-8.5,-227.66666666666663,43.66666666666666,25.166666666666668,172.5,-1054.0,-5.0,324.8333333333333,1017.285,-3.935195,2756.333333333333,0.0597737666666666,-0.01280347,-0.0331576133333333,-0.0172562633333333,-2.2977803333333333,-0.0314257066666666,61770.0,22842.0,29720.0,10.0,10.0,28.0,0,None
2023-01-03 04:48:13.650,283.505,0.0999999999999999,100.0,1039.0,24170.0,4877.0,98.0,1027.6,203.8,4876.2,70.876732,2.6971292,0.04112828,-0.03711529,-2.3988895,61.765,0.051542305,-0.03584804,-2.2986415,0.7493111,1.351532,9.927690000000002,21.2,0.8,-223.8,20.2,-11.2,174.8,-1091.0,-4.6,330.6,1017.292,-3.9285312,2757.2,0.051542305,-0.036275625,-0.03584804,0.022447645,-2.2986415,-0.021348835,61760.0,22830.0,29710.0,8.0,13.0,27.0,0,None
2023-01-03 04:48:14.200,284.06166666666667,0.103333333333334,100.0,1019.0,24144.0,4879.0,98.0,1021.3333333333334,205.5,4882.333333333333,70.92793,2.71146,0.0391296066666666,-0.03359212,-2.3969466666666666,61.77666666666667,0.0500224566666666,-0.0327773,-2.297214666666667,0.8178163,1.486212833333333,11.404674666666669,46.5,16.333333333333332,-225.33333333333331,16.666666666666668,21.83333333333333,175.83333333333334,-1128.0,6.0,322.8333333333333,1017.2743333333332,-3.946132500000001,2758.0,0.0500224566666666,0.0216459536666666,-0.0327773,0.0066481976666666,-2.297214666666667,-0.0056555606666666,61780.0,22836.0,29730.0,2.0,16.0,25.0,0,None
2023-01-03 04:48:14.750,284.62500000000006,0.0999999999999999,100.0,1025.0,24154.0,4877.0,98.0,1025.4,207.0,4876.0,70.993672,2.725501,0.0393479166666666,-0.0267595066666666,-2.394963,61.78666666666666,0.0508448,-0.0264696966666666,-2.2952003333333333,0.7843457800000001,1.4221844,10.746924000000002,34.0,11.4,-230.0,21.0,4.6,184.6,-1042.0,16.0,327.6,1017.2896,-3.9308752,2758.8,0.0508448,0.0233290466666666,-0.0264696966666666,0.0076307133333333,-2.2952003333333333,0.0066040273333333,61790.0,22848.0,29740.0,1.0,16.0,22.0,0,None
2023-01-03 04:48:15.300,285.185,0.103333333333334,100.0,979.0,24162.0,4879.0,98.0,1015.3333333333334,208.5,4875.0,71.06357333333334,2.7385394999999995,0.03819061,-0.01790731,-2.3994470000000003,61.78333333333333,0.0488949733333333,-0.0175652166666666,-2.300319,0.7444407833333334,1.5117683333333334,10.964407833333333,10.666666666666666,8.833333333333334,-225.33333333333331,-9.0,-10.833333333333334,183.0,-1090.0,-31.33333333333333,329.5,1017.3006666666668,-3.9198696666666666,2759.6666666666665,0.0497618966666666,-0.0026471823333333,-0.0173114066666666,0.0079992443333333,-2.30026,0.0048987693333333,61790.0,22835.0,29740.0,1.0,18.0,25.0,0,None
2023-01-03 04:48:15.850,285.745,0.0999999999999999,100.0,1043.0,24162.0,4883.0,98.0,1026.8,210.0,4872.2,71.12834,2.750766,0.03257362,-0.01777567,-2.404322,61.775000000000006,0.04346517,-0.01687198,-2.3053670000000004,0.75408836,1.443717,11.62656,30.0,12.0,-224.4,-6.2,5.2,181.6,-1011.2,-19.4,324.6,1017.3116000000002,-3.9090626,2760.8,0.04346517,0.0189542865,-0.01687198,0.0026341755,-2.3053670000000004,-0.0139823845,61780.0,22796.0,29730.0,0.0,19.0,23.0,0,None
2023-01-03 04:48:16.400,286.257,0.1039999999999963,100.0,1037.0,24149.0,4879.0,98.0,1047.4,211.6,4877.0,71.18296,2.7618272,0.0373539699999999,-0.009549987,-2.402438,61.75333333333333,0.0479054466666666,-0.010146609,-2.304162,0.7063024999999999,1.5424262,10.7644264,42.8,13.0,-227.7,-5.9,17.5,185.0,-1061.4,15.1,318.4,1017.3147,-3.9056952,2761.4,0.0479054466666666,-0.0132097133333333,-0.010146609,-0.0008238966666666,-2.304162,-0.0010910368666666,61760.0,22796.0,29710.0,-1.0,18.0,27.0,0,None
2023-01-03 04:48:16.950,286.8316666666667,0.103333333333334,100.0,1074.0,24136.0,4877.0,98.0,1058.8333333333333,213.33333333333331,4873.0,71.22443833333334,2.772368,0.0410058,-0.0050803819,-2.402160333333333,61.73,0.05183962,-0.0044745520333333,-2.303805666666667,0.7284205333333333,1.3879033333333333,9.447382333333334,17.666666666666668,4.666666666666667,-225.5,18.166666666666668,3.5,185.33333333333331,-1060.6666666666667,-2.833333333333333,324.6666666666667,1017.3148333333334,-3.905364500000001,2762.333333333333,0.05183962,0.0192631666666666,-0.0044745520333333,0.0046802766666666,-2.303805666666667,-0.0014841549999999,61730.0,22799.5,29680.0,4.5,11.5,29.0,0,None
2023-01-03 04:48:17.500,287.389,0.0999999999999999,100.0,1043.0,24151.0,4879.0,98.0,1027.6,215.0,4880.2,71.245944,2.7831848000000003,0.0424808049999999,-0.010936237,-2.4002045,61.72,0.052860405,-0.01101714,-2.3023475,0.74725456,1.6206232,11.037986,37.6,-26.2,-231.0,25.6,20.8,192.0,-1065.4,25.2,320.0,1017.3016,-3.9187656,2763.0,0.052860405,0.0260845449999999,-0.01101714,-0.0216548965,-2.3023475,-0.01707819,61730.0,22823.0,29680.0,9.0,6.0,29.0,0,None
2023-01-03 04:48:18.050,287.889,0.0999999999999999,100.0,1101.0,24130.0,4883.0,98.0,1073.8,216.4,4874.8,71.241194,2.7916438,0.04784088,-0.0170653333333333,-2.397675,61.73,0.0580416199999999,-0.0164180633333333,-2.3004436666666668,0.6679984200000001,1.4439734,9.727557,30.2,-0.4,-227.6,-2.8,-3.2,183.4,-1032.2,-18.2,321.6,1017.3094,-3.910890600000001,2764.0,0.0580416199999999,-0.0082665483333333,-0.0164180633333333,-0.009717677,-2.3004436666666668,0.0098953956666666,61730.0,22818.0,29680.0,14.0,7.0,27.0,0,None
2023-01-03 04:48:18.600,288.44166666666666,0.103333333333334,100.0,1046.5,24125.0,4873.0,98.0,1044.5,218.16666666666663,4879.5,71.22070500000001,2.801611166666667,0.04020164,-0.0203367899999999,-2.4000556666666664,61.74,0.0506072633333333,-0.0195144033333333,-2.302941,0.6726658333333334,1.401146,9.876454333333331,28.666666666666668,-14.833333333333334,-228.66666666666663,10.166666666666666,3.333333333333333,182.0,-1050.8333333333333,2.5,317.0,1017.3118333333332,-3.908606666666667,2764.6666666666665,0.0506072633333333,0.01045407,-0.0195144033333333,-0.0163363606666666,-2.302941,-0.010873382,61740.0,22804.0,29690.0,15.0,8.0,30.0,0,None
2023-01-03 04:48:19.150,289.03833333333336,0.0966666666666734,100.0,1023.0,24126.0,4875.0,98.0,1089.6666666666667,219.83333333333331,4879.833333333333,71.19222500000001,2.8118206666666663,0.04054828,-0.0192753566666666,-2.402608,61.73666666666667,0.05110205,-0.0184973066666666,-2.3055686666666664,0.6025027666666667,1.3426508333333331,8.4300005,28.666666666666668,11.166666666666666,-227.33333333333331,-9.833333333333334,-20.0,177.33333333333334,-1068.6666666666667,-23.666666666666668,328.5,1017.2935,-3.926953,2765.6666666666665,0.05110205,-0.036855998,-0.0184973066666666,0.0119361633333333,-2.3055686666666664,0.0045891666666666,61730.0,22789.0,29680.0,16.0,10.0,27.0,0,None
2023-01-03 04:48:19.700,289.593,0.1039999999999963,100.0,1046.0,24153.0,4869.0,98.0,1027.6,221.4,4877.0,71.16656,2.8209446,0.03130014,-0.01964598,-2.404122,61.755,0.041926865,-0.019498475,-2.307618,0.68520056,1.2520707999999998,9.3710948,34.0,-1.8,-225.8,7.2,29.2,180.4,-1013.6,4.0,322.2,1017.3164,-3.9038748,2766.2,0.041926865,0.0161260555,-0.019498475,0.0062538449999999,-2.307618,0.007328634,61750.0,22779.0,29700.0,15.0,7.0,27.0,0,None
2023-01-03 04:48:20.250,290.105,0.0999999999999999,100.0,1007.0,24132.0,4871.0,98.0,1062.4,223.0,4876.8,71.144308,2.8298993999999995,0.0290350999999999,-0.0257427766666666,-2.399943,61.75333333333333,0.0399842,-0.0247484866666666,-2.3035463333333333,0.6311742,1.4653372,9.8430636,33.2,5.0,-223.8,-2.8,5.4,184.0,-1066.2,22.0,326.4,1017.311,-3.909406,2767.0,0.0399842,0.0151154533333333,-0.0247484866666666,0.0084432833333333,-2.3035463333333333,-0.0020269233333333,61750.0,22802.0,29700.0,10.0,6.0,31.0,0,None
2023-01-03 04:48:20.800,290.65500000000003,0.0999999999999942,100.0,1081.0,24075.0,4871.0,98.0,1053.5,224.5,4862.5,71.13427333333334,2.838168666666667,0.0418608933333333,-0.0246530433333333,-2.3963813333333333,61.75666666666666,0.0523870833333333,-0.02397295,-2.300691,0.6879447333333334,1.3466630000000002,9.02711,23.5,1.1666666666666667,-223.0,5.666666666666667,20.83333333333333,182.5,-1031.5,-16.666666666666668,333.3333333333333,1017.3043333333331,-3.9160935,2767.833333333333,0.0523870833333333,0.0132333333333333,-0.02397295,-0.0158981796666666,-2.300691,0.0192005166666666,61750.0,22815.0,29700.0,7.0,6.0,29.0,0,None
2023-01-03 04:48:21.350,291.20500000000004,0.0999999999999999,100.0,1137.0,24104.0,4874.0,98.0,1101.2,226.4,4871.6,71.134964,2.8461312,0.04684552,-0.01898102,-2.3974375,61.745000000000005,0.0577387699999999,-0.018815825,-2.3017485,0.67073906,1.3291662,9.096247600000002,38.4,16.2,-228.6,-4.6,3.0,177.4,-1027.2,-2.2,320.6,1017.301,-3.919468600000001,2768.4,0.0577387699999999,-0.0183101299999999,-0.018815825,0.0118787946,-2.3017485,-0.0292490605,61750.0,22824.0,29700.0,5.0,10.0,24.0,0,None
2023-01-03 04:48:21.900,291.75500000000005,0.1000000000000037,100.0,1058.0,24126.0,4877.0,98.0,1068.3333333333333,227.83333333333331,4875.833333333333,71.13702833333333,2.853918833333333,0.03649378,-0.0146867733333333,-2.4058593333333333,61.74666666666667,0.0471851533333333,-0.01425217,-2.310019333333333,0.6461552166666666,1.2712641666666666,8.2497405,30.33333333333333,-3.6666666666666665,-220.66666666666663,-18.666666666666668,-5.166666666666667,176.5,-1079.3333333333333,-17.333333333333332,329.0,1017.2951666666668,-3.925273333333333,2769.5,0.0471851533333333,0.0133935233333333,-0.01425217,0.0046400333333333,-2.310019333333333,-0.0160481523333333,61740.0,22763.0,29690.0,6.0,10.0,26.0,0,None
2023-01-03 04:48:22.450,292.305,0.0999999999999999,100.0,1150.0,24074.0,4874.0,98.0,1118.4,229.6,4868.6,71.135474,2.8615882,0.0419978699999999,-0.0152482566666666,-2.4082353333333333,61.76,0.0526350433333333,-0.01538332,-2.311983,0.6425624000000001,1.2386398,7.3871548,37.8,-3.2,-226.4,9.8,19.8,168.2,-1038.2,-13.0,319.6,1017.3066,-3.91375,2770.0,0.0526350433333333,0.017904243,-0.01538332,-0.0001507899999999,-2.311983,0.0048729756666666,61760.0,22770.0,29710.0,6.0,8.0,25.0,0,None
2023-01-03 04:48:23.000,292.855,0.1000000000000037,100.0,1099.0,24088.0,4874.0,98.0,1102.1666666666667,231.16666666666663,4873.666666666667,71.12781,2.8693863333333334,0.0392852233333333,-0.0174214299999999,-2.413444333333333,61.76,0.0494880133333333,-0.01752678,-2.317960333333333,0.5746294666666666,1.1879732,7.336941,44.333333333333336,-4.0,-228.33333333333331,19.83333333333333,-9.833333333333334,180.66666666666663,-1055.8333333333333,10.833333333333334,312.0,1017.2901666666668,-3.930208333333333,2771.1666666666665,0.0494880133333333,0.004202151,-0.01752678,0.0071356113333333,-2.317960333333333,-0.0194817543333333,61760.0,22723.0,29710.0,6.5,6.5,27.0,0,None
2023-01-03 04:48:23.550,293.425,0.1039999999999963,100.0,1077.0,24104.0,4869.0,98.0,1040.0,232.8,4881.8,71.115112,2.8769152,0.03530734,-0.019498835,-2.4113995,61.775000000000006,0.04609863,-0.019191365,-2.316565,0.6763704199999999,1.2365432,8.320941399999999,48.6,-25.6,-221.0,8.0,-6.8,172.4,-1018.4,34.6,324.6,1017.302,-3.9183282,2771.8,0.04609863,0.086224865,-0.019191365,-0.016288415,-2.316565,0.02563472,61770.0,22764.0,29720.0,2.0,1.0,22.0,0,None
