00000_Time_epoch,00000_Time_boot_sec,00000_Span_Time_boot_sec,1_battery_remaining_avg,1_current_battery_avg,1_voltage_battery_avg,125_Vcc_avg,147_battery_remaining_avg,147_current_battery_avg,147_current_consumed_avg,165_Vcc_avg,168_direction_avg,168_speed_avg,178_pitch_avg,178_roll_avg,178_yaw_avg,182_altitude_avg,182_pitch_avg,182_roll_avg,182_yaw_avg,241_vibration_x_avg,241_vibration_y_avg,241_vibration_z_avg,27_xacc_avg,27_xgyro_avg,27_xmag_avg,27_yacc_avg,27_ygyro_avg,27_ymag_avg,27_zacc_avg,27_zgyro_avg,27_zmag_avg,29_press_abs_avg,29_press_diff_avg,29_temperature_avg,30_pitch_avg,30_pitchspeed_avg,30_roll_avg,30_rollspeed_avg,30_yaw_avg,30_yawspeed_avg,33_alt_avg,33_hdg_avg,33_relative_alt_avg,33_vx_avg,33_vy_avg,33_vz_avg,label,diagnosis
2022-12-29 12:42:15.250,310.136,0.1079999999999926,88.0,51.0,23528.0,4883.0,99.0,55.2,50.0,4889.4,-160.43674,0.18952942,0.0004379087,-0.01085688,-1.1209255,42.765,0.010761485,-0.002046753,-1.116252,0.027029484,0.025231548,0.037129886,-12.1,5.1,102.1,-1.5,8.1,245.5,-1064.6,-0.1,331.7,1022.0637,-0.11396092,3551.0,0.010761485,0.0081179345,-0.002046753,0.006165014,-1.116252,-3.09264e-05,42790.0,29605.0,-90.0,8.0,28.0,-40.0,0,None
2022-12-29 12:42:15.800,310.66400000000004,0.1040000000000077,88.0,54.0,23521.0,4885.0,99.0,53.8,50.0,4886.6,-160.88708000000003,0.16803152,0.000472762,-0.0122432033333333,-1.1210829999999998,42.70000000000001,0.0109557699999999,-0.002064985,-1.1163663333333331,0.024106146,0.025733664,0.04274699,-12.4,5.4,102.6,-2.0,7.8,244.6,-1064.4,0.0,330.0,1022.0614,-0.1162343599999999,3552.2,0.0109557699999999,0.0086002963333333,-0.002064985,0.0063748166666666,-1.1163663333333331,-0.0007693535033333,42730.0,29604.0,-150.0,8.0,29.0,-40.0,0,None
2022-12-29 12:42:16.350,311.20400000000006,0.1079999999999926,88.0,58.0,23518.0,4888.0,99.0,54.4,50.0,4886.6,-160.57718,0.16840142,0.0001265160999999,-0.0121702366666666,-1.1216053333333331,42.62,0.01105638,-0.002240311,-1.116678,0.024856832,0.0252455779999999,0.0350498979999999,-12.0,5.6,101.2,-1.4,7.8,245.8,-1064.2,-0.4,332.2,1022.0526,-0.12539062,3553.0,0.01105638,0.009385757,-0.002240311,0.0070128296666666,-1.116678,-0.0102871331,42660.0,29604.0,-220.0,7.0,29.0,-40.0,0,None
2022-12-29 12:42:16.900,311.76866666666666,0.103333333333334,88.0,226.0,23466.0,4888.0,99.0,152.16666666666666,50.0,4890.0,-160.43761666666668,0.18532455,0.0010244195333333,-0.0114791866666666,-1.1230669999999998,42.553333333333335,0.0110189333333333,-0.002570151,-1.1173523333333333,0.1984042333333333,0.2955370833333333,1.2452341833333334,-25.166666666666668,5.0,96.5,0.8333333333333334,5.5,241.5,-1087.1666666666667,37.16666666666666,333.0,1022.0623333333332,-0.1154947833333333,3554.1666666666665,0.0110189333333333,0.0081540091666666,-0.002570151,0.00468113596,-1.1173523333333333,-0.0210160946666666,42575.0,29601.0,-305.0,6.0,29.5,-41.5,0,None
2022-12-29 12:42:17.450,312.3124,0.0961999999999988,88.0,90.0,23493.0,4882.0,99.0,93.2,50.0,4893.0,-160.12161999999998,0.20557316,0.00066378305,-0.0117322,-1.1229455,42.510000000000005,0.010852995,-0.0024953745,-1.116823,0.2416495,0.31269192,1.969333,-22.2,9.8,98.8,-5.0,1.6,246.0,-1054.2,-3.2,330.8,1022.0536,-0.1244531,3555.4,0.010852995,0.0003667799999999,-0.0024953745,0.005961547,-1.116823,0.02468136,42510.0,29603.0,-370.0,6.0,30.0,-42.0,0,None
2022-12-29 12:42:18.000,312.86633333333333,0.1000000000000037,88.0,681.0,23324.0,4882.0,99.0,1264.5,51.16666666666666,4893.0,-159.87910000000002,0.2291214,0.0158586466666666,-0.0145160666666666,-1.1250013333333333,42.49,0.0266392433333333,-0.0041963366666666,-1.11753,0.5276710000000001,0.74486405,3.892707,-32.666666666666664,7.0,79.0,-15.5,70.66666666666667,229.16666666666663,-1137.1666666666667,4.166666666666667,305.3333333333333,1022.2465,0.0687369766666666,3556.6666666666665,0.0266392433333333,0.0118803866666666,-0.0041963366666666,-0.0114746513333333,-1.11753,-0.0025126849999999,42510.0,29594.0,-370.0,-1.0,36.0,-8.0,0,None
2022-12-29 12:42:18.550,313.413,0.0999999999999999,88.0,1385.0,23160.0,4895.0,99.0,1533.8,53.8,4888.6,-161.13057999999998,0.2630315,0.0169249955433333,0.0069786373333333,-1.1264923333333334,42.833333333333336,0.0265745566666666,0.017036561,-1.1169336666666665,0.37492026,1.092197,6.192993799999999,-30.4,60.6,68.2,-9.6,-67.4,234.4,-1213.0,7.6,295.8,1022.2236,0.0456875,3557.6,0.0265745566666666,-0.0350226733333333,0.017036561,0.0159450566666666,-1.1169336666666665,-0.0229903779999999,42910.0,29616.0,30.0,-4.0,61.0,80.0,0,None
2022-12-29 12:42:19.100,313.9696666666667,0.103333333333334,87.0,1792.5,23050.5,4879.5,99.0,1737.0,56.0,4889.666666666667,-162.63115000000002,0.30592935,-0.0649087366666666,-0.041479065,-1.147457333333333,43.98333333333333,-0.0543329866666666,-0.0342986323333333,-1.1356253333333333,0.3910852166666667,1.2729663333333334,5.701275833333334,-28.83333333333333,-137.16666666666666,88.83333333333333,-14.333333333333334,-106.16666666666669,237.16666666666663,-1202.6666666666667,-32.666666666666664,277.5,1021.9071666666669,-0.2706119833333333,3558.6666666666665,-0.0543329866666666,-0.0724466033333333,-0.0342986323333333,-0.0386692333333333,-1.1356253333333333,-0.03054036,43890.0,29504.0,1010.0,0.0,54.0,156.0,0,None
2022-12-29 12:42:19.650,314.533,0.0999999999999999,86.0,1567.0,23056.0,4888.0,99.0,1706.4,59.0,4884.6,-160.56972000000002,0.33664056,-0.052226185,-0.03092964,-1.1423175,45.5,-0.041214375,-0.0203119255,-1.1295134999999998,0.4688413,1.3369756000000002,5.2285372,-48.2,130.6,87.0,-38.0,47.8,201.8,-1137.6,64.0,288.4,1021.7266,-0.45131248,3559.8,-0.041214375,0.0274930799999999,-0.0203119255,0.09756114,-1.1295134999999998,0.050037915,45430.0,29533.0,2550.0,-15.0,19.0,234.0,0,None
2022-12-29 12:42:20.200,315.08700000000005,0.1001666666666664,86.0,1549.0,23079.0,4879.0,99.0,1688.6666666666667,61.5,4893.0,-154.33186666666668,0.3556967,-0.0512020033333333,-0.0052157039999999,-1.1134983333333333,47.26333333333333,-0.0402597033333333,0.0048579253333333,-1.158577,0.3950982,1.687650833333333,7.3129375,-44.833333333333336,-4.833333333333333,99.0,0.8333333333333334,0.6666666666666666,223.3333333333333,-1125.0,35.5,285.3333333333333,1021.4996666666666,-0.67822915,3561.0,-0.0402597033333333,0.00463441,0.0048579253333333,-0.0216628166666666,-1.158577,0.04184421,47140.0,29380.0,4260.0,-13.0,10.0,265.0,0,None
2022-12-29 12:42:20.750,315.63800000000003,0.1039999999999963,86.0,1368.0,23132.0,4890.0,99.0,1458.0,64.0,4890.8,-146.61604,0.37127464,-0.0565129233333333,-0.0130942226666666,-1.130545,49.70333333333334,-0.0455297166666666,-0.003208084,-1.174062,0.3874784,1.28597312,3.8870308,-31.4,24.6,107.2,-25.2,45.8,227.2,-1029.0,-65.8,287.6,1021.3266,-0.8514531,3562.0,-0.0455297166666666,0.0059400066666666,-0.003208084,0.0304274,-1.174062,-0.06407049,49300.0,29315.0,6420.0,-13.0,-8.0,278.0,0,None
2022-12-29 12:42:21.300,316.17,0.108000000000004,85.0,1002.0,23239.0,4883.0,99.0,1075.2,65.6,4887.8,-140.63888,0.37901752,-0.054330395,0.0268056,-1.1665495,51.49,-0.042875445,0.03730086,-1.208049,0.50689448,1.0600388,5.9072984,-38.9,79.6,99.4,-52.2,39.4,253.2,-865.5,-34.0,300.5,1021.1194,-1.05857016,3563.0,-0.042875445,0.160288115,0.03730086,0.12947015,-1.208049,-0.025467555,51070.0,29110.0,8190.0,-22.0,-24.0,227.0,0,None
2022-12-29 12:42:21.850,316.726,0.108000000000004,85.0,1225.0,23147.0,4883.0,99.0,1132.6,67.4,4888.2,-133.08586,0.3865312399999999,-0.006441747,0.0572486833333333,-1.1555263333333332,52.5,0.0039266859999999,0.0671436833333333,-1.1946176666666668,0.67600704,1.1479149999999998,6.8649646,-28.6,72.6,78.2,-57.0,69.6,263.8,-936.0,44.2,288.0,1021.011,-1.1669845999999997,3564.4,0.0039266859999999,0.0476012699999999,0.0671436833333333,0.0792049899999999,-1.1946176666666668,0.0463821909999999,52310.0,29115.0,9430.0,-27.0,-31.0,125.0,0,None
2022-12-29 12:42:22.400,317.28400000000005,0.0999999999999942,85.0,1189.0,23175.0,4875.0,99.0,1228.5,69.16666666666667,4891.333333333333,-125.18646666666666,0.3889702333333333,-0.0133887933333333,0.0921568733333333,-1.1317183333333334,53.13,-0.0041422076666666,0.1027764233333333,-1.167566,0.4913406500000001,1.2890296666666667,7.5825495,-22.83333333333333,69.83333333333333,81.33333333333333,-42.16666666666666,-14.5,257.8333333333333,-982.0,39.5,277.0,1020.9503333333332,-1.2276041666666666,3565.5,-0.0041422076666666,-0.0014825923333333,0.1027764233333333,0.0412478866666666,-1.167566,0.0142326546666666,52970.0,29288.0,10090.0,-22.0,-18.0,60.0,0,None
2022-12-29 12:42:22.950,317.834,0.0999999999999999,85.0,1401.0,23102.0,4888.0,99.0,1247.2,71.2,4891.6,-116.70346,0.38586368,-0.004172336,0.078227965,-1.130707,53.4,0.0061831084,0.088403025,-1.1633515,0.4451684999999999,1.2985656,7.0210378,-24.8,-57.2,87.8,-41.2,46.8,264.8,-1048.4,-7.4,279.6,1020.8982,-1.2797188,3567.0,0.0061831084,0.101937545,0.088403025,0.0165812,-1.1633515,-0.023840735,53310.0,29338.0,10430.0,3.0,-9.0,21.0,0,None
2022-12-29 12:42:23.500,318.384,0.1000000000000037,84.0,1281.0,23145.0,4887.0,99.0,1061.1666666666667,73.0,4890.333333333333,-107.34186666666666,0.3795928833333333,0.0228977466666666,0.06778707,-1.1261863333333333,53.56666666666666,0.0321678933333333,0.0793908933333333,-1.1570223333333334,0.4785633833333333,1.5517070000000002,9.915628,-21.5,4.166666666666667,88.66666666666667,-32.333333333333336,55.0,266.6666666666667,-1045.3333333333333,15.833333333333334,293.6666666666667,1020.8718333333333,-1.3059896666666666,3567.6666666666665,0.0321678933333333,0.076466301,0.0793908933333333,-0.0141864933333333,-1.1570223333333334,0.0082112366666666,53570.0,29370.5,10690.0,23.5,17.5,-2.0,0,None
2022-12-29 12:42:24.050,318.942,0.1079999999999926,84.0,1136.0,23177.0,4880.0,99.0,1054.4,74.4,4890.0,-96.972932,0.37266378,0.0008742850666666,0.0443411133333333,-1.1144166666666668,53.66,0.0094884043333333,0.0581384533333333,-1.1432833333333334,0.46021504,1.1793128000000002,8.984452000000001,-37.4,7.0,90.3,-43.5,-104.3,257.1,-1039.5,15.4,295.0,1020.875,-1.302836,3569.1,0.0094884043333333,-0.0633509766666666,0.0581384533333333,0.0494869766666666,-1.1432833333333334,0.026309812,53650.0,29461.0,10770.0,31.0,39.0,-26.0,0,None
2022-12-29 12:42:24.600,319.47400000000005,0.0999999999999999,84.0,1091.0,23165.0,4888.0,99.0,1260.0,76.6,4878.4,-86.01511,0.36631412,-0.005220145,0.061586235,-1.1248385,53.615,0.003833115,0.07473614,-1.1514245,0.51373292,1.23272848,9.833597,-31.8,-24.4,90.0,-48.0,113.6,247.0,-1093.2,-32.0,279.2,1020.8338,-1.3440624,3570.2,0.003833115,0.03960545,0.07473614,-0.1686506549999999,-1.1514245,-0.064999795,53610.0,29362.0,10730.0,38.0,45.0,-25.0,0,None
2022-12-29 12:42:25.150,320.02416666666664,0.1001666666666664,84.0,1182.0,23140.0,4872.0,99.0,1164.5,78.16666666666667,4883.666666666667,-74.66625666666665,0.3680221333333333,-0.0052361966666666,0.05114211,-1.1245683333333334,53.59,0.0030898463333333,0.0630127,-1.1488403333333337,0.5579817666666667,0.9933287666666668,6.594638666666666,-43.833333333333336,-34.5,93.0,-51.833333333333336,-63.5,253.5,-1029.5,15.166666666666666,298.8333333333333,1020.8353333333332,-1.342617333333333,3571.5,0.0030898463333333,-0.0354457533333333,0.0630127,0.056269827,-1.1488403333333337,0.026850791,53570.0,29428.0,10690.0,39.0,58.0,-31.0,0,None
2022-12-29 12:42:25.700,320.574,0.0998000000000046,84.0,1079.0,23172.0,4888.0,99.0,1159.2,80.0,4881.0,-65.019386,0.38427644,-0.0348438266666666,0.0225129433333333,-1.1360233333333334,53.556666666666665,-0.0263349366666666,0.0338368733333333,-1.157542,0.50983142,1.33461706,10.441835,-47.0,-31.8,99.2,-28.0,7.8,250.6,-1081.4,-42.8,295.4,1020.8436,-1.3343282,3572.4,-0.0263349366666666,-0.0171767166666666,0.0338368733333333,-0.0354753799999999,-1.157542,-0.0527057833333333,53560.0,29365.0,10680.0,34.0,59.0,-35.0,0,None
2022-12-29 12:42:26.250,321.134,0.103333333333334,83.0,1140.0,23156.0,4877.0,99.0,1169.0,81.83333333333333,4881.0,-56.54675333333333,0.4193693666666667,-0.0367068133333333,0.0226846166666666,-1.1478486666666663,53.49,-0.0275260933333333,0.0337272866666666,-1.167188,0.5217825333333334,1.4451213,9.717050666666667,-42.5,23.166666666666668,102.33333333333331,-41.66666666666666,3.8333333333333335,249.0,-1054.0,28.5,289.1666666666667,1020.8433333333334,-1.3348045,3573.6666666666665,-0.0275260933333333,-0.0048102233333333,0.0337272866666666,0.0063102273333333,-1.167188,-0.0084118713333333,53490.0,29309.0,10610.0,25.0,53.0,-35.0,0,None
2022-12-29 12:42:26.800,321.6982,0.0999999999999999,83.0,1177.0,23143.0,4882.0,99.0,1211.4,83.6,4876.6,-49.779302,0.46669428,-0.0392295,0.0321761166666666,-1.1365943333333333,53.39666666666667,-0.0306235933333333,0.0426835633333333,-1.154284,0.4977331400000001,1.5237253999999998,9.493146,-46.8,-9.4,101.4,-56.2,-2.0,249.6,-1079.2,8.4,290.4,1020.857,-1.320828,3575.0,-0.0306235933333333,0.0045072056666666,0.0426835633333333,-0.0277578466666666,-1.154284,0.0182644706666666,53430.0,29376.0,10550.0,24.0,48.0,-37.0,0,None
2022-12-29 12:42:27.350,322.206,0.1039999999999963,83.0,1187.0,23138.0,4877.0,99.0,1281.2,85.4,4889.2,-44.903712,0.518553,-0.042129495,0.02025864,-1.142302,53.3,-0.03364097,0.03128138,-1.1584020000000002,0.5367839999999999,1.1316018800000005,6.52266,-53.6,5.6,102.4,-56.4,4.4,241.8,-1057.8,-26.4,291.0,1020.8628,-1.3150624,3576.2,-0.03364097,0.0109711299999999,0.03128138,0.02415612,-1.1584020000000002,0.00547583,53320.0,29369.0,10440.0,22.0,44.0,-35.0,0,None
2022-12-29 12:42:27.900,322.7673333333333,0.103333333333334,83.0,1230.0,23086.0,4883.0,99.0,1212.8333333333333,87.16666666666667,4892.833333333333,-40.32964333333334,0.5870688666666667,-0.0415663166666666,0.0190382766666666,-1.1573139999999995,53.22,-0.0329911633333333,0.0296064733333333,-1.1716926666666667,0.5113042,1.4312893333333332,8.306118999999999,-46.333333333333336,12.333333333333334,98.33333333333331,-45.16666666666666,18.33333333333333,247.0,-1059.3333333333333,-13.333333333333334,302.8333333333333,1020.8721666666664,-1.3059375,3576.833333333333,-0.0329911633333333,-0.0036255386666666,0.0296064733333333,-0.0242298816666666,-1.1716926666666667,-0.0336800896666666,53250.0,29298.0,10370.0,16.0,35.0,-32.0,0,None
2022-12-29 12:42:28.450,323.334,0.0999999999999999,83.0,1305.0,23108.0,4882.0,99.0,1251.6,89.2,4895.0,-37.308318,0.65048798,-0.02842648,0.0274745099999999,-1.1629486666666666,53.120000000000005,-0.0205055033333333,0.03807424,-1.1747426666666667,0.5072382799999999,1.3270255199999998,7.6086068,-48.4,17.0,93.2,-51.8,30.0,258.8,-1051.6,-7.2,300.8,1020.8786,-1.2992344,3578.0,-0.0205055033333333,0.032386451,0.03807424,0.00174705,-1.1747426666666667,0.0045884366666666,53150.0,29277.0,10270.0,9.0,30.0,-31.0,0,None
2022-12-29 12:42:29.000,323.88733333333334,0.103333333333334,82.0,1219.0,23103.0,4888.0,99.0,1238.0,91.16666666666669,4887.0,-34.88234666666667,0.7175034666666668,-0.04419485,0.03103159,-1.1585,53.02,-0.0357950766666666,0.0416928666666666,-1.1685626666666666,0.4909364,1.3967526666666668,8.165190166666667,-45.16666666666666,5.083333333333333,96.66666666666669,-45.66666666666666,-24.666666666666668,252.5833333333333,-1060.0833333333333,16.583333333333332,284.5833333333333,1020.8546666666666,-1.3230925,3579.333333333333,-0.0357950766666666,-0.02395977,0.0416928666666666,0.0254686483333333,-1.1685626666666666,0.0100713873333333,53040.0,29292.5,10160.0,5.5,28.5,-30.5,0,None
2022-12-29 12:42:29.550,324.454,0.0999999999999999,82.0,1309.0,23047.0,4871.0,99.0,1257.6,93.2,4880.2,-32.992438,0.7848916600000001,-0.044882645,0.020363435,-1.159765,52.965,-0.036563115,0.030837495,-1.1685545,0.51079706,1.252659,8.040223000000001,-41.0,5.8,100.6,-39.6,47.2,237.2,-1069.0,-24.2,286.4,1020.8564,-1.3215309999999998,3580.8,-0.036563115,0.050718239,0.030837495,0.017681996,-1.1685545,0.0056091909999999,52960.0,29293.0,10080.0,5.0,13.0,-30.0,0,None
2022-12-29 12:42:30.100,325.004,0.1000000000000037,82.0,1211.5,23112.0,4881.0,99.0,1226.6666666666667,95.0,4893.833333333333,-31.71621833333333,0.8506235333333333,-0.0313807,0.02950553,-1.159651,52.91,-0.0233579266666666,0.04051349,-1.1673363333333333,0.4817210333333333,1.2121639,6.499576333333333,-38.833333333333336,-10.666666666666666,95.16666666666669,-52.5,27.5,244.8333333333333,-1067.6666666666667,-8.0,291.3333333333333,1020.847,-1.3310938333333333,3582.0,-0.0233579266666666,0.02170982,0.04051349,-0.011492772,-1.1673363333333333,-0.0010636383333333,52880.0,29320.0,10000.0,6.0,9.0,-36.0,0,None
2022-12-29 12:42:30.650,325.558,0.0999999999999999,82.0,1104.0,23082.0,4888.0,99.0,1124.0,96.8,4888.2,-30.816492,0.9153985,-0.0148076676666666,0.0221523833333333,-1.1737193333333331,52.81666666666666,-0.0066515308,0.0331886933333333,-1.1795883333333332,0.493664525,1.3112595,9.99750525,-38.4,14.8,87.6,-45.2,34.4,240.8,-1076.8,-3.0,301.2,1020.8462,-1.3317812,3583.2,-0.0066515308,0.0019036633333333,0.0331886933333333,0.0202086466666666,-1.1795883333333332,-0.0323304046666666,52820.0,29232.0,9940.0,5.0,8.0,-32.0,0,None
2022-12-29 12:42:31.200,326.058,0.0999999999999999,82.0,1144.0,23093.0,4882.0,99.0,1120.6,98.4,4896.0,-30.023626,0.97401918,0.0039348805,0.0273852299999999,-1.1680365,52.735,0.010863075,0.0392566649999999,-1.1723560000000002,0.48863358,1.5940098,10.7096796,-42.4,52.2,80.8,-43.2,22.0,249.6,-1050.2,36.6,299.4,1020.824,-1.3536562,3584.0,0.010863075,-0.0154467499999999,0.0392566649999999,0.0260124929999999,-1.1723560000000002,0.035551097,52730.0,29303.0,9850.0,0.0,17.0,-32.0,0,None
2022-12-29 12:42:31.750,326.6073333333333,0.0999999999999942,81.0,1270.0,23061.0,4891.0,99.0,1238.0,100.33333333333331,4891.5,-29.08412,1.0286331833333335,-0.0164977871666666,0.04141727,-1.156879,52.73,-0.0099215826666666,0.05365824,-1.1602290000000002,0.4812115833333333,1.3874073333333332,7.284888333333332,-51.66666666666666,-8.0,92.16666666666669,-36.66666666666666,-61.5,256.5,-1072.3333333333333,-9.833333333333334,293.5,1020.8725,-1.305546833333333,3585.333333333333,-0.0099215826666666,-0.0829206766666666,0.05365824,-0.0087520996666666,-1.1602290000000002,0.0036953849999999,52730.0,29355.0,9850.0,1.0,35.0,-39.0,0,None
2022-12-29 12:42:32.300,327.15400000000005,0.0999999999999999,81.0,1071.0,23119.0,4882.0,99.0,1184.2,102.0,4893.0,-28.068758000000003,1.0790061999999998,-0.0524104566666666,0.0234424966666666,-1.1757466666666667,52.70000000000001,-0.0440635133333333,0.0360996966666666,-1.177351,0.52600716,1.21900204,7.287822199999999,-44.6,-17.2,93.8,-42.2,-87.4,247.2,-1070.2,-28.6,288.6,1020.8638,-1.3139998000000002,3586.4,-0.0440635133333333,-0.0857141583333333,0.0360996966666666,-0.0513608433333333,-1.177351,-0.001871344,52700.0,29243.0,9820.0,6.0,36.0,-29.0,0,None
2022-12-29 12:42:32.850,327.7083333333333,0.1001666666666664,81.0,1440.0,22958.0,4891.0,99.0,1389.8333333333333,104.0,4892.333333333333,-27.1268,1.130558,-0.1339496,0.01701003,-1.1782676666666667,52.72,-0.1245222666666666,0.0296720666666666,-1.1794413333333331,0.5216056833333332,1.35522,8.268562,-50.333333333333336,2.833333333333333,115.0,-42.16666666666666,-85.0,232.0,-1107.6666666666667,4.0,267.8333333333333,1020.86,-1.3177083333333333,3587.333333333333,-0.1245222666666666,-0.0913085422666666,0.0296720666666666,0.0113744033333333,-1.1794413333333331,0.0237912799999999,52700.0,29233.0,9820.0,12.0,14.0,-30.0,0,None
2022-12-29 12:42:33.400,328.305,0.1000000000000037,81.0,1417.0,23014.0,4883.0,99.0,1435.5,106.16666666666669,4888.333333333333,-26.51143,1.184655,-0.1442353333333333,0.0234514366666666,-1.188655,52.99333333333333,-0.1353966333333333,0.0357057466666666,-1.1889176666666668,0.5572123333333333,1.2549446666666666,7.350650333333333,-57.0,22.166666666666668,121.0,-55.16666666666666,15.166666666666666,235.8333333333333,-1106.8333333333333,-27.166666666666668,257.6666666666667,1020.8226666666666,-1.3554296666666663,3588.6666666666665,-0.1353966333333333,-0.01842372,0.0357057466666666,0.0035285636666666,-1.1889176666666668,-0.0118005366666666,52830.0,29217.0,9950.0,28.0,-43.0,16.0,0,None
2022-12-29 12:42:33.950,328.855,0.0999999999999999,81.0,1150.0,23059.0,4890.0,99.0,1222.4,108.4,4892.0,-25.963041999999994,1.2335322,-0.1363359499999999,0.04267377,-1.1854435,53.4,-0.1277092,0.054081295,-1.1845655000000002,0.55751928,1.30692034,8.1649678,-68.8,75.0,125.4,-53.0,26.4,253.6,-1036.6,-2.4,281.8,1020.7862,-1.3917188,3589.8,-0.1277092,0.1037724,0.054081295,0.0009110699999999,-1.1845655000000002,-0.00782331,53200.0,29191.0,10320.0,42.0,-97.0,40.0,0,None
2022-12-29 12:42:34.500,329.40500000000003,0.0999999999999942,81.0,1291.0,23012.0,4882.0,99.0,1251.3333333333333,110.16666666666669,4888.333333333333,-25.481875,1.2826244999999998,-0.1211439999999999,0.0544956733333333,-1.1886163333333333,53.76,-0.1139418666666666,0.0660558333333333,-1.1870976666666666,0.60002755,1.282306333333333,7.873669666666667,-75.0,-45.833333333333336,122.0,-57.333333333333336,12.5,253.8333333333333,-1073.0,5.0,270.3333333333333,1020.7316666666666,-1.4462108333333334,3590.833333333333,-0.1139418666666666,-0.0185602333333333,0.0660558333333333,-0.0759742833333333,-1.1870976666666666,0.0094498413333333,53765.0,29198.0,10885.0,72.5,-147.0,37.5,0,None
2022-12-29 12:42:35.050,329.959,0.0999999999999999,80.0,1175.0,23059.0,4883.0,99.0,1105.2,112.0,4885.8,-25.082136,1.334536,-0.140016,0.03266223,-1.180715,54.19,-0.1337941333333333,0.0448473433333333,-1.1793403333333334,0.71214834,1.3588342,7.5065896,-82.4,38.4,124.8,-46.0,-34.2,242.8,-1051.4,22.6,265.2,1020.7063999999998,-1.4717344,3592.0,-0.1337941333333333,-0.1107319666666666,0.0448473433333333,0.0103283233333333,-1.1793403333333334,0.0341602976666666,54310.0,29265.0,11430.0,93.0,-191.0,34.0,0,None
2022-12-29 12:42:35.600,330.50500000000005,0.1000000000000037,80.0,1357.5,22981.5,4885.5,99.0,1322.1666666666667,113.83333333333331,4888.666666666667,-24.74438,1.389201666666667,-0.148466,0.0416243533333333,-1.174084,54.57666666666666,-0.1418693,0.0539782266666666,-1.172726333333333,0.6251024333333333,1.0537778333333332,5.687524499999999,-88.33333333333333,-18.0,136.5,-33.0,31.33333333333333,253.16666666666663,-1071.3333333333333,-3.333333333333333,267.1666666666667,1020.6991666666668,-1.4787238333333337,3593.0,-0.1418693,0.0195764603333333,0.0539782266666666,-0.0256226933333333,-1.172726333333333,-0.0082473446666666,54610.0,29286.0,11730.0,121.0,-222.0,34.0,0,None
2022-12-29 12:42:36.150,331.055,0.0999999999999999,80.0,1218.0,22998.0,4880.0,99.0,1312.0,116.0,4893.0,-24.529956,1.4445005999999998,-0.1322591,0.021023705,-1.181478,54.88,-0.1265937,0.033617535,-1.1796345,0.5888480599999999,1.2310892,7.258840399999999,-79.0,-46.6,122.2,-13.8,16.2,237.2,-1152.6,-17.6,271.0,1020.6704,-1.507625,3594.2,-0.1265937,0.019081835,0.033617535,-0.04848418,-1.1796345,-0.035841305,54920.0,29241.0,12040.0,147.0,-251.0,47.0,0,None
2022-12-29 12:42:36.700,331.605,0.1000000000000037,80.0,932.0,23060.0,4872.0,99.0,1073.1666666666667,117.66666666666669,4892.666666666667,-24.47217666666667,1.4954283333333331,-0.1283841333333333,-0.0148514066666666,-1.1845626666666669,55.24000000000001,-0.1232396333333333,-0.0017931596666666,-1.1827120000000002,0.7996245833333333,1.0759952,7.879370833333333,-79.83333333333333,-52.66666666666666,129.16666666666666,-21.0,-21.666666666666668,233.8333333333333,-1068.5,4.666666666666667,286.1666666666667,1020.689,-1.4888541666666668,3595.333333333333,-0.1232396333333333,0.016774302,-0.0017931596666666,-0.0454614466666666,-1.1827120000000002,0.0064244466666666,55290.0,29225.0,12410.0,160.0,-279.0,60.0,0,None
2022-12-29 12:42:37.250,332.159,0.0999999999999999,80.0,1069.0,23035.0,4880.0,99.0,1175.8,119.6,4891.4,-24.585172,1.5408866,-0.1417229333333333,-0.0384458133333333,-1.1861773333333332,55.63333333333333,-0.1362132,-0.0242626433333333,-1.1846986666666666,0.6973548199999999,0.92570608,8.738768199999999,-85.2,3.0,136.2,-11.0,35.6,239.0,-1064.8,-8.2,304.8,1020.6136,-1.5639688,3596.4,-0.1362132,-0.01818251,-0.0242626433333333,-0.02333053,-1.1846986666666666,-0.005404092,55600.0,29220.0,12720.0,163.0,-315.0,54.0,0,None
2022-12-29 12:42:37.800,332.705,0.0999999999999942,80.0,1297.0,23005.0,4890.0,99.0,1174.3333333333333,121.16666666666669,4887.333333333333,-24.852076666666665,1.5810936666666666,-0.1311804666666667,-0.03199057,-1.1884843333333333,56.04333333333333,-0.125415,-0.018747913,-1.1878963333333332,0.6678940500000001,1.15714105,6.9733160000000005,-81.33333333333333,52.16666666666666,125.66666666666669,-32.833333333333336,60.16666666666666,232.16666666666663,-1100.5,-5.5,303.5,1020.5165,-1.661354,3597.6666666666665,-0.125415,0.0951356633333333,-0.018747913,0.029447815,-1.1878963333333332,0.0037113224333333,55940.0,29203.0,13060.0,155.0,-356.0,54.0,0,None
2022-12-29 12:42:38.350,333.259,0.1040000000000076,80.0,922.0,23079.0,4883.0,99.0,1057.0,122.8,4893.2,-25.164588,1.6157001999999998,-0.1062754,0.001961696,-1.186509,56.455,-0.1005148,0.0142957049999999,-1.186156,0.8318661,1.03562022,8.485545400000001,-92.0,71.4,127.6,-47.4,25.8,251.2,-1024.0,28.0,313.4,1020.474,-1.703922,3598.8,-0.1005148,-0.05270107,0.0142957049999999,0.06613199,-1.186156,0.028703025,56320.0,29191.0,13440.0,144.0,-390.0,58.0,0,None
2022-12-29 12:42:38.900,333.767,0.0999999999999999,79.0,1176.0,23012.0,4896.0,99.0,1087.2,124.4,4890.0,-25.41454,1.6421526,-0.1112709666666666,0.0312741533333333,-1.1721659999999998,56.88,-0.1061994333333333,0.0429004966666666,-1.173014,0.83289382,1.2976578,8.4451696,-116.4,33.0,125.0,-50.0,-37.6,237.0,-1054.4,5.8,277.6,1020.4202,-1.7575626,3599.6,-0.1061994333333333,-0.0089649466666666,0.0429004966666666,0.02966236,-1.173014,0.01688538,56770.0,29267.0,13890.0,142.0,-398.0,53.0,0,None
2022-12-29 12:42:39.450,334.34166666666664,0.103333333333334,79.0,1122.0,23032.0,4888.0,99.0,1106.1666666666667,126.33333333333331,4883.333333333333,-25.636396666666663,1.671037,-0.1280324333333333,0.0362310333333333,-1.1751146666666668,57.35,-0.1225949666666666,0.04782917,-1.1764026666666665,0.7922587333333334,1.2552690000000002,6.122743333333333,-109.5,18.666666666666668,129.83333333333334,-38.5,-1.1666666666666667,243.66666666666663,-1058.6666666666667,-11.833333333333334,287.6666666666667,1020.362,-1.8159635,3600.833333333333,-0.1225949666666666,-0.0243516933333333,0.04782917,0.0150719699999999,-1.1764026666666665,-0.0108229211666666,57360.0,29261.5,14480.0,156.0,-412.0,52.0,0,None
2022-12-29 12:42:40.550,335.425,0.103333333333334,79.0,1072.0,23035.0,4869.0,99.0,1072.6666666666667,129.5,4891.166666666667,-25.803545000000003,1.7261703333333334,-0.1247600333333333,0.0495909766666666,-1.1743713333333334,58.21666666666667,-0.1192756,0.0620258733333333,-1.174669,0.78829,1.0535972166666667,10.000303166666669,-114.66666666666669,33.333333333333336,131.83333333333334,-44.333333333333336,28.83333333333333,257.1666666666667,-1080.3333333333333,1.1666666666666667,281.6666666666667,1020.232,-1.945573,3602.6666666666665,-0.1198389999999999,0.0144644666666666,0.0615076733333333,0.0401228966666666,-1.1746636666666666,-0.0002511724666666,58210.0,29267.5,15330.0,180.5,-443.5,48.0,0,None
2022-12-29 12:42:41.100,335.979,0.1039999999999963,79.0,893.5,23070.5,4896.5,99.0,1091.8,131.4,4890.0,-25.748312,1.7534832000000002,-0.1188123666666666,0.0585864233333333,-1.170170333333333,58.67666666666667,-0.1142875666666666,0.0725314866666666,-1.1711943333333332,0.86876006,1.185057,9.0662984,-126.2,28.6,129.4,-61.2,2.0,256.4,-1049.6,3.2,273.6,1020.134,-2.0437028,3604.0,-0.1142875666666666,0.0036956766666666,0.0725314866666666,0.0304085399999999,-1.1711943333333332,0.0012891226666666,58810.0,29287.0,15930.0,195.0,-451.0,46.0,0,None
2022-12-29 12:42:41.650,336.545,0.1000000000000037,79.0,1052.0,23039.0,4896.0,99.0,991.6666666666666,132.83333333333334,4889.333333333333,-25.593386666666664,1.7828573333333333,-0.1321161666666666,0.06505356,-1.1701106666666667,59.196666666666665,-0.1275596666666666,0.07829614,-1.170657,0.8151659166666666,1.221442,8.818527999999999,-124.5,16.166666666666668,134.0,-65.0,2.6666666666666665,253.66666666666663,-1022.8333333333334,10.5,274.1666666666667,1020.0663333333332,-2.1116796666666664,3604.6666666666665,-0.1275596666666666,0.0184452833333333,0.07829614,0.0475892573333333,-1.170657,0.0146709433333333,59250.0,29295.0,16370.0,202.0,-453.0,38.0,0,None
2022-12-29 12:42:42.200,337.103,0.1039999999999963,79.0,1101.0,23040.0,4888.0,99.0,991.8,134.4,4892.2,-25.368448,1.8147472,-0.13752755,0.0719809949999999,-1.1653065,59.615,-0.13281995,0.08289728,-1.1656445,0.8689664200000001,1.2293978,8.566656,-140.8,-36.4,137.2,-42.8,-19.4,262.0,-1120.0,-2.2,273.0,1020.0726,-2.1052498,3605.8,-0.13281995,0.041331675,0.08289728,-0.035368748,-1.1656445,0.0029416525,59660.0,29335.0,16780.0,224.0,-456.0,35.0,0,None
2022-12-29 12:42:42.750,337.615,0.0999999999999999,79.0,1075.0,23044.0,4901.0,99.0,1028.2,135.6,4891.2,-25.104918000000005,1.844776,-0.1324656666666666,0.0396403366666666,-1.1693363333333333,59.96666666666666,-0.1270150666666666,0.0530374366666666,-1.1688366666666667,0.8713020800000001,1.311038,10.143336800000002,-131.2,-41.2,137.8,-49.4,27.6,265.8,-1027.4,-17.0,295.0,1020.0192,-2.1587186000000003,3607.0,-0.1270150666666666,0.0247013476666666,0.0530374366666666,-0.0337423953333333,-1.1688366666666667,-0.0181878599233333,60000.0,29283.0,17120.0,237.0,-464.0,35.0,0,None
2022-12-29 12:42:43.300,338.1751666666667,0.1034999999999967,79.0,950.0,23058.0,4895.0,99.0,964.6666666666666,137.33333333333334,4893.666666666667,-24.82889333333333,1.8744401666666668,-0.1391127333333333,0.0250815633333333,-1.174211,60.41666666666666,-0.1354884,0.0394325833333333,-1.173237,0.8286297333333333,1.3041188333333331,9.449494166666668,-142.0,12.5,134.0,-78.0,-1.8333333333333333,253.66666666666663,-1085.8333333333333,-19.33333333333333,294.0,1019.9698333333332,-2.2079685,3607.6666666666665,-0.1354884,-0.00547691,0.0394325833333333,-0.0158779546666666,-1.173237,-0.0214932426666666,60390.0,29271.0,17510.0,233.0,-475.0,42.0,0,None
2022-12-29 12:42:43.850,338.764,0.108000000000004,79.0,1108.0,23014.0,4872.0,99.0,1144.0,138.8,4894.2,-24.563422000000003,1.9037734,-0.1158138666666666,0.0415087766666666,-1.1725223333333334,60.86666666666667,-0.1118587333333333,0.0550637466666666,-1.172058,0.8414121600000002,1.3185608,6.8265454000000005,-100.9,-22.1,136.1,-7.5,43.1,255.3,-1071.4,-10.6,273.6,1019.9288,-2.2489846,3609.0,-0.1118587333333333,0.0636110533333333,0.0550637466666666,0.030057537,-1.172058,-0.0007316013333333,60760.0,29262.0,17880.0,240.0,-486.0,37.0,0,None
2022-12-29 12:42:44.400,339.27200000000005,0.0999999999999999,79.0,937.0,23057.0,4891.0,99.0,948.6,140.4,4887.6,-24.316078,1.9299836,-0.11651475,0.0066948234,-1.1790435,61.275000000000006,-0.11282965,0.01940397,-1.1775265,1.12782836,1.5856202,7.709025599999999,-91.6,-97.6,127.8,-22.6,-69.0,258.2,-1070.8,-10.0,296.8,1019.928,-2.2498906,3609.8,-0.11282965,-0.00700469,0.01940397,-0.0613072749999999,-1.1775265,-0.026775365,61160.0,29275.0,18280.0,260.0,-485.0,49.0,0,None
2022-12-29 12:42:44.950,339.808,0.108000000000004,79.0,1539.0,22899.0,4859.0,99.0,1405.8,142.2,4883.4,-24.062396,1.9541048,-0.1292343666666666,-0.013751163,-1.1902266666666663,61.693333333333335,-0.1255709666666666,0.0011595983333333,-1.188756666666667,0.83309418,1.315379,8.2504022,-129.8,53.6,124.0,-56.0,49.6,233.4,-1036.6,-18.8,294.2,1019.7126,-2.4652342000000003,3610.6,-0.1255709666666666,0.0097385266666666,0.0011595983333333,0.03919507,-1.188756666666667,-0.0070824033333333,61540.0,29208.0,18660.0,253.0,-497.0,56.0,0,None
2022-12-29 12:42:45.500,340.366,0.0999999999999942,79.0,1074.0,23022.0,4888.0,99.0,1177.8333333333333,144.16666666666666,4888.5,-23.86799166666667,1.9742863333333327,-0.0988826366666666,0.0096868933333333,-1.1982913333333334,62.41,-0.09497856,0.0238988763333333,-1.1967506666666667,0.8266478333333334,1.4488311666666664,7.808782666666667,-131.33333333333334,40.66666666666666,122.66666666666669,-58.833333333333336,125.83333333333331,236.66666666666663,-1047.3333333333333,-15.666666666666666,289.3333333333333,1019.675,-2.502851333333333,3611.3333333333335,-0.09497856,0.1464945666666667,0.0238988763333333,0.1165493389999999,-1.1967506666666667,-0.004912,62100.0,29151.0,19220.0,232.0,-514.0,70.0,0,None
2022-12-29 12:42:46.050,340.93600000000004,0.1040000000000076,78.0,769.0,23073.0,4888.0,99.0,893.2,145.8,4893.0,-23.709072,1.9890726,0.0353379,0.037501925,-1.1870345,63.05,0.03839844,0.050912195,-1.1846785,1.0552802,1.2597268,8.300104600000001,-68.6,45.2,90.8,5.8,241.4,250.6,-1152.2,14.6,300.2,1019.7382,-2.4397186,3612.8,0.03839844,0.1885684,0.050912195,0.0537615,-1.1846785,0.023481005,62740.0,29166.0,19860.0,223.0,-514.0,80.0,0,None
2022-12-29 12:42:46.600,341.50600000000003,0.1033333333333246,78.0,1059.0,23018.0,4893.0,99.0,1002.3333333333334,147.33333333333334,4891.5,-23.377256666666668,1.9971843333333328,0.08953507,0.03734692,-1.174919,63.53,0.0896600433333333,0.0505860666666666,-1.1718296666666663,1.04460815,1.3462368333333334,8.344021666666668,-110.0,-7994.450666666664,63.833333333333336,-48.0,36.833333333333336,257.8333333333333,-1067.3333333333333,11.083333333333334,318.1666666666667,1019.6624166666666,-2.5153255,3613.8333333333335,0.0896600433333333,0.04695093,0.0505860666666666,-0.0016398666666666,-1.1718296666666663,0.0242837776666666,63535.0,29288.5,20655.0,193.0,-411.5,73.5,1,27_xgyro_avg_drift_-143.56519047619042
2022-12-29 12:42:47.150,342.064,0.1040000000000076,78.0,1135.0,22999.0,4895.0,99.0,1119.0,149.2,4893.4,-22.946588,2.0025802,0.0776997866666666,0.0237572733333333,-1.1625473333333334,64.15333333333332,0.0788104666666666,0.0383020466666666,-1.157736,0.789013375,1.09155625,9.33743625,-104.4,-8138.015857142855,67.8,-52.6,-50.4,248.8,-1128.2,30.0,308.8,1019.5400000000002,-2.6380468,3614.6,0.0788104666666666,-0.0611359882666666,0.0383020466666666,0.0356302653,-1.157736,0.012952586,64340.0,29403.0,21460.0,141.0,-291.0,101.0,1,27_xgyro_avg_drift_-143.56519047619042
2022-12-29 12:42:47.700,342.579,0.1005999999999971,78.0,956.0,23064.0,4888.0,99.0,1081.2,150.8,4884.8,-22.568516,2.0077438,0.052553835,0.026262355,-1.1605045,64.84,0.0561092299999999,0.040722935,-1.154091,0.6963518599999999,1.3433024,10.1032234,-97.6,-8281.581047619044,73.4,-37.8,-27.8,238.0,-1045.6,-11.2,309.6,1019.4062,-2.7715938,3615.6,0.0561092299999999,-0.09103966,0.040722935,0.047909335,-1.154091,-0.0327287,65100.0,29378.0,22220.0,110.0,-229.0,119.0,1,27_xgyro_avg_drift_-143.56519047619042
2022-12-29 12:42:48.250,343.1356666666666,0.103333333333334,78.0,961.0,23053.0,4869.0,99.0,994.3333333333334,152.33333333333334,4890.333333333333,-22.13265,2.014715666666667,0.0514084825,0.036057415,-1.1677475,65.8325,0.056341495,0.0505663475,-1.1594725,0.5552304,1.7358653333333336,14.539756666666667,-62.16666666666666,-8425.146238095234,81.5,-52.333333333333336,73.33333333333333,254.3333333333333,-1015.1666666666666,-7.5,318.5,1019.2818333333336,-2.8959635000000006,3616.3333333333335,0.056341495,0.0752318475,0.0505663475,0.067331140525,-1.1594725,-0.0096836075,65920.0,29351.0,23040.0,88.0,-187.0,115.0,1,27_xgyro_avg_drift_-143.56519047619042
2022-12-29 12:42:48.800,343.703,0.0999999999999999,78.0,1098.0,23037.0,4895.0,99.0,1054.2,153.8,4883.2,-21.695878,2.0228164,0.087233945,0.05505345,-1.1659825,66.78,0.093049885,0.06880017,-1.1561565,0.57492242,1.6021101999999998,14.298483999999998,-74.4,-8568.711428571425,66.2,-45.8,69.6,246.8,-1056.0,-6.6,306.0,1019.1794,-2.9986564,3617.0,0.093049885,0.1322284,0.06880017,0.015949155,-1.1561565,-0.015062562,66720.0,29377.0,23840.0,73.0,-135.0,103.0,1,27_xgyro_avg_drift_-143.56519047619042
2022-12-29 12:42:49.350,344.211,0.1039999999999963,78.0,1040.0,23049.0,4877.0,99.0,1072.4,155.4,4886.4,-21.257822,2.0321298,0.1052973266666666,0.0481230333333333,-1.1684363333333334,67.54666666666667,0.11091132,0.0616476533333333,-1.156954,0.50423136,1.6929206,13.129528,-54.4,-8712.276619047616,54.2,-29.6,-17.2,258.0,-1045.0,2.6,298.8,1019.0868,-3.0909842,3618.2,0.11091132,-0.0191804666666666,0.0616476533333333,0.0005481133333333,-1.156954,-0.0234415323333333,67480.0,29368.0,24600.0,54.0,-70.0,94.0,1,27_xgyro_avg_drift_-143.56519047619042
2022-12-29 12:42:49.900,344.76899999999995,0.1000000000000037,78.0,1110.0,23027.0,4885.0,99.0,1094.8333333333333,157.0,4880.0,-20.81705333333333,2.043207666666667,0.0580357066666666,0.0483757166666666,-1.1606253333333336,68.44666666666667,0.0649459433333333,0.0612033933333333,-1.1488823333333331,0.5012937833333333,1.835391,12.070946666666666,-42.16666666666666,-8855.841809523805,74.33333333333333,-36.333333333333336,-40.0,261.0,-1050.6666666666667,20.5,311.6666666666667,1018.9908333333334,-3.1869530000000004,3618.8333333333335,0.0649459433333333,-0.0223754866666666,0.0612033933333333,-0.0001451039853333,-1.1488823333333331,0.0302422203333333,68230.0,29393.0,25350.0,44.0,-12.0,98.0,1,27_xgyro_avg_drift_-143.56519047619042
2022-12-29 12:42:50.450,345.335,0.1039999999999963,78.0,1203.0,23027.0,4887.0,99.0,1235.8,158.6,4890.8,-20.427688,2.0541266,0.063352275,0.0261574649999999,-1.1567615,69.21000000000001,0.06893065,0.03932729,-1.1451275,0.45064066,0.93682926,7.141939600000001,-37.2,-8999.406999999996,79.4,-32.8,25.0,253.0,-1032.0,-6.0,298.8,1018.861,-3.3169686000000005,3620.0,0.06893065,0.03046621,0.03932729,-0.06694952,-1.1451275,-0.033378905,68990.0,29448.0,26110.0,41.0,27.0,94.0,1,27_xgyro_avg_drift_-143.56519047619042
2022-12-29 12:42:51.000,345.88899999999995,0.1000000000000037,78.0,1332.0,22971.0,4893.0,99.0,1338.5,160.83333333333334,4893.0,-20.03871,2.065055333333333,0.0836193733333333,-0.004151017,-1.1680026666666663,69.93999666666667,0.0889916733333333,0.0106304873333333,-1.1561393333333334,0.4095486499999999,1.1948753666666667,5.3648505,-28.33333333333333,-9142.972190476186,64.66666666666667,-18.5,88.33333333333333,224.66666666666663,-1068.0,-27.0,298.1666666666667,1018.7671666666666,-3.41069,3620.8333333333335,0.0889916733333333,0.0807888366666666,0.0106304873333333,-0.0081295433333333,-1.1561393333333334,-0.0306302336666666,69730.0,29387.0,26850.0,23.0,61.0,91.0,1,27_xgyro_avg_drift_-143.56519047619042
2022-12-29 12:42:51.550,346.459,0.1039999999999963,78.0,1170.0,22984.0,4888.0,98.0,1247.8,162.6,4893.6,-19.746678,2.0731032,0.11185314,-0.0043123636666666,-1.1794883333333337,70.85000000000001,0.1176551,0.0087347406666666,-1.1692323333333332,0.40874962,0.93174654,3.55668,-27.1,-9286.537380952377,51.8,-31.2,-49.7,236.2,-1070.3,-23.1,306.1,1018.7024,-3.4755233000000003,3621.9,0.1176551,-0.0253358933333333,0.0087347406666666,-0.00496392,-1.1692323333333332,-0.0211733233333333,70855.0,29302.5,27975.0,-22.5,130.0,96.5,1,27_xgyro_avg_drift_-143.56519047619042
2022-12-29 12:42:52.100,346.959,0.0999999999999999,78.0,1263.0,22960.0,4893.0,98.0,1277.4,164.6,4886.8,-19.609574,2.0790428,0.06696341,-0.0105927695,-1.1852095,71.575,0.07309318,0.0020241115,-1.17659,0.37236332,1.1448408,4.155621399999999,-17.8,-9430.102571428568,57.8,-15.2,-229.2,228.4,-1054.2,-3.8,318.6,1018.647,-3.530953,3622.6,0.07309318,-0.125919805,0.0020241115,0.029364005,-1.17659,-0.011210905,71940.0,29242.0,29060.0,-55.0,179.0,92.0,1,27_xgyro_avg_drift_-143.56519047619042
2022-12-29 12:42:52.650,347.529,0.103333333333334,78.0,1097.5,23025.5,4881.0,98.0,1094.3333333333333,166.66666666666666,4887.666666666667,-19.514486666666667,2.0839553333333334,-0.1081916633333333,0.017059411,-1.1959536666666668,72.24333333333333,-0.0996280866666666,0.0297359299999999,-1.190607,0.5327911000000001,0.93309205,3.190610833333334,-22.0,-9573.667761904757,116.5,-2.333333333333333,-225.0,251.0,-957.3333333333334,-18.83333333333333,294.0,1018.5665,-3.611171666666667,3623.3333333333335,-0.0996280866666666,-0.3404485666666667,0.0297359299999999,0.0445618936999999,-1.190607,-0.02997859,72510.0,29113.0,29630.0,-34.0,137.0,50.0,1,27_xgyro_avg_drift_-143.56519047619042
2022-12-29 12:42:53.200,348.083,0.1039999999999963,78.0,1034.0,23054.0,4890.0,98.0,991.6,168.2,4889.6,-19.43847,2.0866088,-0.14157618,0.0079907983333333,-1.2052543333333332,72.68666666666667,-0.1301034566666666,0.019531539,-1.2018643333333332,0.57586062,1.09787082,3.3892566000000004,-15.6,-9717.232952380948,128.2,-20.8,221.2,243.2,-928.8,25.6,296.6,1018.512,-3.6658748,3624.2,-0.1301034566666666,0.1830911533333333,0.019531539,-0.0447903166666666,-1.2018643333333332,-0.01039041,72730.0,29126.0,29850.0,-9.0,77.0,-21.0,1,27_xgyro_avg_drift_-143.56519047619042
2022-12-29 12:42:53.750,348.6523333333334,0.1000000000000037,78.0,1036.0,23025.0,4896.0,98.0,1028.6666666666667,169.66666666666666,4888.166666666667,-19.432783333333333,2.0891394999999995,-0.0245159986666666,-0.0180009266666666,-1.190409,72.64666666666666,-0.0169928966666666,-0.0074169583333333,-1.187855,0.6466035333333333,1.1383547833333334,6.758755166666667,-24.166666666666668,-9860.798142857138,96.66666666666669,-15.833333333333334,181.16666666666663,240.66666666666663,-1011.0,25.666666666666668,307.5,1018.511,-3.666927,3625.1666666666665,-0.0169928966666666,0.1762838,-0.0074169583333333,-0.0250527393333333,-1.187855,0.0232762166666666,72630.0,29206.0,29750.0,-7.0,51.0,-69.0,1,27_xgyro_avg_drift_-143.56519047619042
2022-12-29 12:42:54.300,349.211,0.1039999999999963,78.0,1267.0,22993.0,4883.0,98.0,1217.2,171.6,4888.6,-19.522824,2.0919114,0.02871129,-0.0204733416666666,-1.166851,72.37333333333333,0.0329708833333333,-0.0084354586666666,-1.1659413333333335,0.54906242,1.2866814,9.2976108,-27.4,-10004.36333333333,75.2,-27.8,-31.4,227.4,-1090.0,47.0,320.6,1018.4996,-3.678328,3626.2,0.0329708833333333,-0.0223286266666666,-0.0084354586666666,0.0930921466666666,-1.1659413333333335,0.0717650766666666,72380.0,29298.0,29500.0,-27.0,56.0,-54.0,1,27_xgyro_avg_drift_-143.56519047619042
2022-12-29 12:42:54.850,349.71899999999994,0.0999999999999999,78.0,1265.0,22971.0,4887.0,98.0,1184.2,173.2,4891.0,-19.63737,2.0938030000000003,-0.027327535,0.018636285,-1.1352205,72.205,-0.0227109,0.03083388,-1.1374595,0.58181168,1.2296614199999998,7.155502200000001,-26.0,-10147.92852380952,98.4,-39.6,-105.8,246.2,-992.0,52.8,310.6,1018.5128,-3.665047,3626.8,-0.0227109,-0.132051395,0.03083388,0.03928075,-1.1374595,0.053647575,72220.0,29482.0,29340.0,-38.0,65.0,-61.0,1,27_xgyro_avg_drift_-143.56519047619042
2022-12-29 12:42:55.400,350.2823333333333,0.103333333333334,78.0,1134.0,22996.0,4891.0,98.0,1174.0,174.83333333333334,4893.333333333333,-19.766103333333334,2.0950433333333334,-0.0499228799999999,0.0297045,-1.1308663333333333,72.04666666666667,-0.0437579066666666,0.04066524,-1.1342356666666666,0.5538507500000001,1.0972960333333333,6.311141500000001,-23.5,-10291.493714285709,108.5,-30.5,0.3333333333333333,245.5,-1021.8333333333334,-6.5,280.8333333333333,1018.5463333333332,-3.6315493333333335,3627.8333333333335,-0.0437579066666666,-0.0246601386666666,0.04066524,-0.01876508,-1.1342356666666666,-0.0232336833333333,72060.0,29509.0,29180.0,-25.0,58.0,-62.0,1,27_xgyro_avg_drift_-143.56519047619042
2022-12-29 12:42:55.950,350.855,0.1040000000000076,78.0,1140.0,22978.0,4896.0,98.0,1226.0,176.6,4888.8,-19.90063,2.0965044,-0.0487022133333333,0.0124463993333333,-1.1375413333333333,71.91999666666666,-0.0427214533333333,0.0242424566666666,-1.142175333333333,0.5970975,1.2182546200000002,6.316134400000001,-43.4,-10435.0589047619,112.9,-27.8,-6.4,240.6,-1138.9,2.3,280.5,1018.5881000000002,-3.5898516000000003,3628.7,-0.0427214533333333,0.0075766093333333,0.0242424566666666,-0.0169948866666666,-1.142175333333333,0.0023351266666666,71920.0,29444.0,29040.0,-9.0,46.0,-53.0,1,27_xgyro_avg_drift_-143.56519047619042
2022-12-29 12:42:56.500,351.375,0.1039999999999963,78.0,1033.0,23028.0,4883.0,98.0,1095.2,178.6,4885.0,-20.021694,2.0983016,-0.066942885,0.076457335,-1.1382785,71.945,-0.060988965,0.08995447,-1.145667,0.5878045199999999,1.1187068,7.877681,-44.8,-10578.62409523809,121.6,-18.2,-12.0,261.2,-1039.2,-15.8,296.2,1018.5914,-3.5868126,3629.4,-0.060988965,-0.0085623,0.08995447,0.45239905,-1.145667,-0.00402869,71920.0,29465.0,29040.0,0.0,35.0,-25.0,1,27_xgyro_avg_drift_-143.56519047619042
2022-12-29 12:42:57.050,351.92900000000003,0.0999999999999942,78.0,1106.0,23008.0,4887.0,98.0,1050.3333333333333,180.3333333333333,4884.5,-20.214693333333333,2.100931,-0.0769544466666666,0.2206802666666666,-1.1364023333333333,72.02,-0.0705841366666666,0.2306954666666666,-1.1458193333333333,0.6341895166666667,1.0709762333333332,10.420035166666665,-51.5,-10722.189285714281,117.66666666666669,-36.66666666666666,22.666666666666668,292.0,-1056.6666666666667,-3.1666666666666665,237.5,1018.5861666666668,-3.5917704999999995,3630.1666666666665,-0.0705841366666666,-0.0013601493333333,0.2306954666666666,0.12781354,-1.1458193333333333,0.0126830723333333,72035.0,29435.0,29155.0,107.5,51.5,-39.0,1,27_xgyro_avg_drift_-143.56519047619042
2022-12-29 12:42:57.600,352.50300000000004,0.108000000000004,78.0,977.0,23026.0,4875.5,98.0,993.8,181.8,4887.4,-20.46672,2.1038334,-0.0630776033333333,0.2066747333333333,-1.1387283333333336,72.08,-0.0585994266666666,0.21701,-1.1476373333333332,0.49181752,1.18564416,11.911798,-51.0,-10865.754476190472,115.8,-38.0,23.8,293.0,-1025.2,-1.8,211.8,1018.5952,-3.5826872,3631.2,-0.0585994266666666,0.0230591866666666,0.21701,-0.2149860809999999,-1.1476373333333332,-0.0134662556666666,72080.0,29424.0,29200.0,253.0,94.0,-43.0,1,27_xgyro_avg_drift_-143.56519047619042
2022-12-29 12:42:58.150,353.0032,0.1002000000000065,78.0,1062.0,23026.0,4877.0,98.0,935.8,183.2,4884.6,-20.701246000000005,2.1085518,-0.034356418,-0.07394897,-1.1406866666666666,72.06333333333333,-0.0295381376666666,-0.0583122533333333,-1.146523,0.49196668,1.153505,11.5326678,-41.0,-11009.319666666663,119.0,-37.8,101.8,264.8,-1056.6,17.4,311.6,1018.6266,-3.5510466000000003,3631.8,-0.0295381376666666,0.08639894,-0.0583122533333333,-0.4879832666666666,-1.146523,0.0159665856666666,72050.0,29445.0,29170.0,238.0,83.0,-41.0,1,27_xgyro_avg_drift_-143.56519047619042
2022-12-29 12:42:58.700,353.569,0.0998333333333315,78.0,1123.0,22983.0,4895.0,98.0,1115.0,184.8333333333333,4890.0,-20.945418333333333,2.116159333333333,0.0050503893333333,-0.1960189,-1.130674,71.99333333333334,0.0098684023333333,-0.1748279333333333,-1.1375823333333337,0.4993002833333334,1.31728135,9.812494166666667,-45.5,-11152.884857142852,104.16666666666669,-23.166666666666668,36.333333333333336,186.0,-1092.8333333333333,10.0,360.1666666666667,1018.6045,-3.5733071666666665,3632.6666666666665,0.0098684023333333,0.01316748,-0.1748279333333333,-0.03952318,-1.1375823333333337,-0.0212313226666666,71990.0,29499.0,29110.0,144.0,57.0,-43.0,1,27_xgyro_avg_drift_-143.56519047619042
2022-12-29 12:42:59.250,354.127,0.1039999999999963,77.0,1210.0,22954.0,4890.0,98.0,1070.2,186.4,4890.2,-21.103578,2.1227522,-0.02118371,-0.2096001,-1.131176,71.985,-0.0157845309999999,-0.1891264,-1.141241,0.50927374,1.12835424,10.6566146,-53.0,-11296.450047619042,102.4,-38.6,-56.6,161.6,-1027.4,-12.6,361.2,1018.599,-3.578922,3633.4,-0.0157845309999999,-0.03348512,-0.1891264,0.078765715,-1.141241,-0.03242414,71990.0,29477.0,29110.0,27.0,20.0,-41.0,1,27_xgyro_avg_drift_-143.56519047619042
2022-12-29 12:42:59.800,354.699,0.103333333333334,77.0,1093.0,22975.0,4890.0,98.0,1146.1666666666667,188.16666666666663,4879.666666666667,-21.2419,2.126996,-0.03374151,-0.1566655666666666,-1.142415,71.97666666666667,-0.0264399033333333,-0.1403914,-1.1542666666666666,0.5356280666666666,1.11828245,7.235920166666666,-47.083333333333336,-11440.015238095233,104.66666666666669,-14.666666666666666,25.166666666666668,173.75,-1040.75,-36.91666666666666,326.6666666666667,1018.6185,-3.559199,3634.4166666666665,-0.0264399033333333,-0.01337544,-0.1403914,0.1447518666666666,-1.1542666666666666,-0.04242828,71980.0,29366.0,29100.0,-64.0,-15.0,-41.0,1,27_xgyro_avg_drift_-143.56519047619042
2022-12-29 12:43:00.350,355.259,0.0999999999999999,77.0,1151.0,22960.0,4885.0,98.0,1165.2,190.0,4891.4,-21.349826,2.129807,-0.0225549166666666,-0.0421984566666666,-1.157865666666667,71.94999666666666,-0.0149829476666666,-0.0309836716666666,-1.1700373333333334,0.4895229800000001,1.12145216,6.5899778,-41.6,-11583.580428571424,96.0,-7.6,25.4,225.8,-1070.4,-42.0,331.2,1018.5984,-3.5794842,3635.4,-0.0149829476666666,0.0395669823333333,-0.0309836716666666,0.1739036233333333,-1.1700373333333334,-0.0412771423333333,71950.0,29325.0,29070.0,-114.0,-34.0,-36.0,1,27_xgyro_avg_drift_-143.56519047619042
2022-12-29 12:43:00.900,355.809,0.1000000000000037,77.0,1129.0,22984.0,4893.0,98.0,1180.5,191.8333333333333,4889.0,-21.470866666666662,2.1321521666666667,-0.0148309806666666,0.0205442845666666,-1.1819666666666666,71.95,-0.0069310933333333,0.02964831,-1.1940836666666663,0.4931603166666667,1.0365477333333333,6.636315666666666,-46.16666666666666,-11727.145619047615,91.33333333333331,-6.666666666666667,93.83333333333331,235.16666666666663,-1070.5,-27.166666666666668,308.0,1018.5885,-3.5893750000000004,3635.8333333333335,-0.0069310933333333,0.1055270666666666,0.02964831,0.0432245266666666,-1.1940836666666663,-0.0267157266666666,71950.0,29173.0,29070.0,-118.0,-32.0,-38.0,1,27_xgyro_avg_drift_-143.56519047619042
2022-12-29 12:43:01.450,356.35900000000004,0.0999999999999999,77.0,1095.0,23003.0,4890.0,98.0,1110.4,193.6,4888.0,-21.608542,2.1339284,0.081092775,0.031394635,-1.169957,71.975,0.0885675599999999,0.039489475,-1.1811865,0.46517008,0.9242372600000002,7.6890184,-40.4,-11870.710809523804,57.4,6.6,174.4,243.8,-1044.2,23.2,318.0,1018.5830000000002,-3.5948278,3636.8,0.0885675599999999,0.2017393499999999,0.039489475,0.03469188,-1.1811865,0.03637314,71960.0,29184.0,29080.0,-112.0,-15.0,-36.0,1,27_xgyro_avg_drift_-143.56519047619042
2022-12-29 12:43:02.000,356.90900000000005,0.0999999999999942,77.0,1260.0,22965.0,4862.0,98.0,1185.1666666666667,195.16666666666663,4889.666666666667,-21.752063333333336,2.1362176666666666,0.1108460966666666,-0.0045045633333333,-1.169679666666667,71.98666666666666,0.1163987,0.0056033844666666,-1.1797846666666665,0.5063238333333333,1.0222399166666667,5.665532333333332,-29.166666666666668,-53.333333333333336,47.5,-16.666666666666668,-76.33333333333333,235.8333333333333,-1060.3333333333333,-11.333333333333334,320.3333333333333,1018.5626666666666,-3.615013,3637.6666666666665,0.1163987,-0.05304817,0.0056033844666666,-0.0643818366666666,-1.1797846666666665,-0.0020037543333333,71980.0,29265.0,29100.0,-120.0,47.0,-37.0,0,None
2022-12-29 12:43:02.550,357.4716,0.1081999999999993,77.0,1180.0,22959.0,4890.0,98.0,1176.6,197.2,4893.4,-21.88952,2.1400092,0.0208355133333333,-0.0103980933333333,-1.1764856666666668,72.00333333333333,0.0279445933333333,0.0007646573333333,-1.1864806666666663,0.45584534,1.07103976,5.1283876,-24.0,115.6,65.0,-14.2,-261.0,241.0,-1081.4,-2.6,321.4,1018.5454,-3.6325624,3638.2,0.0279445933333333,-0.2392478666666666,0.0007646573333333,0.1129757216666666,-1.1864806666666663,-0.0094553533333333,72005.0,29210.0,29125.0,-152.0,107.5,-40.0,0,None
2022-12-29 12:43:03.100,357.98,0.0960000000000036,77.0,1114.0,22951.0,4895.0,98.0,1098.0,199.0,4889.8,-22.014156,2.1431128,-0.1171288499999999,0.0792263,-1.16705,72.035,-0.106222035,0.089653085,-1.178268,0.5163937399999999,0.97144584,4.8010042,-34.2,110.0,119.0,-8.4,-75.6,258.8,-1065.6,34.8,272.0,1018.5742,-3.6037184,3639.0,-0.106222035,-0.089049805,0.089653085,0.170872195,-1.178268,0.0498884,72050.0,29291.0,29170.0,-107.0,86.0,-40.0,0,None
2022-12-29 12:43:03.650,358.504,0.108000000000004,77.0,1052.5,22950.5,4891.5,98.0,1075.2,200.4,4884.6,-22.162986,2.1455734000000004,-0.1123422333333333,0.0525433066666666,-1.161447,72.04666666666667,-0.1002005333333333,0.06188242,-1.1727086666666666,0.58119074,1.1411756,6.764962800000001,-39.6,-130.8,119.2,-19.2,20.0,256.0,-1061.6,1.0,279.8,1018.5902,-3.5877656,3640.0,-0.1002005333333333,0.0222825233333333,0.06188242,-0.12890316,-1.1727086666666666,-0.01198141,72040.0,29273.0,29160.0,-67.0,55.0,-42.0,0,None
2022-12-29 12:43:04.200,359.08,0.1066666666666643,77.0,1123.0,22927.0,4888.0,98.0,1113.1666666666667,202.16666666666663,4892.833333333333,-22.374106666666663,2.149553333333333,-0.1395460666666666,-0.0018727713333333,-1.1524720000000002,72.01,-0.1301103666666666,0.0102218873333333,-1.165497,0.75727265,1.260399066666667,7.826168166666666,-58.333333333333336,-23.416666666666668,125.16666666666669,-25.0,-96.5,240.0833333333333,-1082.5,30.5,285.6666666666667,1018.64525,-3.53264975,3640.3333333333335,-0.1301103666666666,-0.0898718586666666,0.0102218873333333,0.0133951783333333,-1.165497,0.0221624349999999,71990.0,29362.0,29110.0,-49.0,9.0,-43.0,0,None
2022-12-29 12:43:04.750,359.645,0.1149999999999948,77.0,1089.0,22987.0,4883.0,98.0,1112.0,204.0,4892.0,-22.5841725,2.15537825,-0.1830753,0.0038093889,-1.1401750000000002,71.949995,-0.1729669999999999,0.018021255,-1.1563,0.5547192750000001,1.140456,7.763019249999999,-62.75,58.25,158.75,-34.0,86.5,224.25,-1099.75,0.5,272.75,1018.64675,-3.5310545,3641.25,-0.1729669999999999,0.105821325,0.018021255,0.0578032,-1.1563,-0.0089617249999999,71940.0,29369.0,29060.0,-27.0,-64.0,-29.0,0,None
2022-12-29 12:43:05.300,360.18666666666667,0.1066666666666643,77.0,1161.0,22914.0,4883.0,98.0,1057.5,205.5,4888.5,-22.813378333333333,2.16354,-0.0322493099999999,0.07437124,-1.138339,71.92,-0.02471241,0.0861311,-1.1568379999999998,0.7100589333333334,1.2116021666666663,8.054785,-72.0,115.33333333333331,120.0,-44.333333333333336,374.9166666666667,262.0833333333333,-1060.75,-66.25,292.3333333333333,1018.6640833333336,-3.51375,3642.25,-0.02471241,0.2991686666666667,0.0861311,0.12017262,-1.1568379999999998,-0.0506270899999999,71910.0,29365.0,29030.0,4.0,-59.0,-29.0,0,None
2022-12-29 12:43:05.850,360.7720000000001,0.1040000000000076,77.0,1118.0,22941.0,4880.0,98.0,1130.4,207.4,4881.0,-23.069874,2.1725844000000003,0.0869471133333333,0.0440882633333333,-1.1443,71.88,0.0893469133333333,0.05501997,-1.162443,0.96731212,1.736516,9.7765034,-49.0,-126.0,59.6,-0.4,-74.8,264.0,-1041.4,141.4,302.4,1018.6554,-3.5226408000000005,3643.0,0.0893469133333333,0.0175114399999999,0.05501997,-0.1752722333333333,-1.162443,0.1311402666666666,71880.0,29315.0,29000.0,15.0,15.0,-29.0,0,None
2022-12-29 12:43:06.400,361.288,0.1039999999999963,77.0,1241.0,22915.0,4891.0,98.0,1210.2,209.0,4889.6,-23.298678,2.1810912,-0.037030639,0.021300615,-1.0295785,71.85,-0.0348204255,0.03471779,-1.048687,0.99556372,1.5476978,8.2695258,-66.4,31.8,113.4,13.4,-334.2,237.0,-1077.6,241.2,318.2,1018.6154,-3.5625468,3643.6,-0.0348204255,-0.3892131,0.03471779,0.0272334999999999,-1.048687,0.2278393,71850.0,30073.0,28970.0,10.0,54.0,-26.0,0,None
2022-12-29 12:43:06.950,361.808,0.1039999999999963,77.0,1080.0,22986.0,4893.0,98.0,1076.6,210.6,4889.6,-23.472542,2.1894726,-0.1314714333333333,0.0024755033333333,-0.9621604333333336,71.90333333333332,-0.1257136,0.016470842,-0.9823131666666668,0.54675164,1.2952584,7.938262799999999,-57.6,-66.0,174.2,-27.4,24.2,220.4,-1039.6,3.4,284.2,1018.5688,-3.6091874000000006,3644.2,-0.1257136,0.0228055666666666,0.016470842,-0.05233548,-0.9823131666666668,0.0306064366666666,71920.0,30404.0,29040.0,37.0,27.0,-25.0,0,None
2022-12-29 12:43:07.500,362.39,0.1066666666666738,77.0,952.0,22978.0,4890.0,98.0,1048.1666666666667,212.3333333333333,4893.666666666667,-23.749291666666664,2.2003988333333337,-0.0600148499999999,-0.0291784866666666,-1.1565256666666668,71.98666666666666,-0.0517535366666666,-0.0164578666666666,-1.1770326666666666,0.6367125166666666,1.0457846333333334,8.460116833333332,-49.41666666666666,-36.5,137.83333333333334,-45.91666666666666,130.58333333333334,229.8333333333333,-1006.9166666666666,-527.75,304.6666666666667,1018.6365833333332,-3.5413343333333334,3645.0,-0.0517535366666666,0.04435786,-0.0164578666666666,-0.0922988266666666,-1.1770326666666666,-0.5486373333333333,71990.0,29341.0,29110.0,37.0,-5.0,-39.0,0,None
2022-12-29 12:43:08.050,362.984,0.1039999999999963,77.0,1126.0,22925.0,4901.0,98.0,1012.0,214.2,4890.6,-24.033824,2.209537,-0.0381414566666666,-0.0099795999666666,-1.4212786666666666,71.98,-0.0285535333333333,0.0010612266666666,-1.4437449999999998,0.6770288600000001,1.2163311799999998,12.778263999999998,-78.4,57.4,40.6,-29.0,29.0,248.4,-1111.8,-193.6,324.6,1018.5902,-3.5875158,3646.0,-0.0285535333333333,0.0348048433333333,0.0010612266666666,0.0415664733333333,-1.4437449999999998,-0.1882496523333333,71980.0,27778.0,29100.0,16.0,-14.0,-39.0,0,None
2022-12-29 12:43:08.600,363.48,0.1149999999999948,77.0,967.0,22983.0,4903.0,98.0,982.5,215.5,4894.0,-24.3274275,2.2180825,-0.02608329,0.01981429,-1.391547,72.005,-0.0161838799999999,0.0307418449999999,-1.4139585,0.78613395,1.6141687500000002,12.9819925,-41.5,45.75,18.25,-12.0,40.0,247.25,-969.75,163.75,304.25,1018.5525,-3.625742,3646.5,-0.0161838799999999,0.0112018049999999,0.0307418449999999,0.082784,-1.4139585,0.20357255,72000.0,27723.0,29120.0,5.0,-9.0,-38.0,0,None
2022-12-29 12:43:09.150,364.0133333333333,0.103333333333334,76.5,1132.0,22919.5,4887.5,98.0,1111.5,217.0,4891.833333333333,-24.575008333333333,2.224869,-0.02566149,0.04448293,-1.3459316666666667,72.02,-0.016288486,0.0555313633333333,-1.36862,0.54461285,1.1490584333333331,11.46687,-59.0,38.0,36.333333333333336,-46.75,34.083333333333336,252.0833333333333,-1021.8333333333334,28.166666666666668,312.4166666666667,1018.5114166666668,-3.66645175,3647.5,-0.016288486,0.061206917,0.0555313633333333,0.0260090219999999,-1.36862,0.0093242083333333,72020.0,28165.0,29140.0,1.0,1.0,-40.0,0,None
2022-12-29 12:43:09.700,364.58,0.108000000000004,76.0,754.0,22996.0,4869.0,98.0,881.6,218.8,4888.4,-24.817726,2.2320134,-0.0341133599999999,0.047387675,-1.3552719999999998,71.925,-0.02416348,0.05732419,-1.379747,0.6208488400000001,1.2054694,7.9414362,-58.8,4.6,47.4,-45.6,-64.2,259.8,-1009.2,-34.4,310.2,1018.4988,-3.6790468,3648.0,-0.02416348,-0.06038565,0.05732419,0.0007950149999999,-1.379747,-0.04117911,71980.0,28126.0,29100.0,3.0,13.0,-53.0,0,None
2022-12-29 12:43:10.250,365.104,0.1039999999999963,77.0,720.0,23025.0,4901.0,98.0,729.4,219.8,4899.8,-25.011334,2.2392948,-0.0404350033333333,0.0411781466666666,-1.362113,71.57333333333334,-0.0294981266666666,0.0515788,-1.3865283333333334,0.8077018,1.4019774000000005,8.6969652,-26.8,-6.2,47.8,-0.8,46.8,276.0,-885.4,13.0,319.4,1018.586,-3.5917654,3648.8,-0.0294981266666666,0.0082871533333333,0.0515788,-0.0045633303333333,-1.3865283333333334,0.00815353,71740.0,28046.0,28860.0,7.0,15.0,-108.0,0,None
2022-12-29 12:43:10.800,365.69666666666666,0.1066666666666643,77.0,640.0,23049.0,4882.0,98.0,825.5,221.0,4894.166666666667,-25.201266666666665,2.249332666666667,-0.0043382553333333,0.0481603966666666,-1.339573,70.85000000000001,0.0056474736666666,0.0585407533333333,-1.3629006666666668,0.7935015833333333,1.5046496666666669,10.441399,-43.41666666666666,-1.4166666666666667,38.91666666666666,-19.5,68.16666666666667,266.6666666666667,-1092.3333333333333,27.58333333333333,308.25,1018.7196666666669,-3.45824875,3649.3333333333335,0.0056474736666666,0.0945992299999999,0.0585407533333333,0.0224157233333333,-1.3629006666666668,0.04015439,70865.0,28198.5,27985.0,23.0,18.5,-163.5,0,None
2022-12-29 12:43:11.350,366.2720000000001,0.1040000000000076,77.0,772.0,22993.0,4901.0,98.0,753.8,222.4,4895.0,-25.317962,2.2575268,0.002552001,0.0265714599999999,-1.333707,70.16499999999999,0.011850685,0.036896995,-1.3569755,0.81316914,1.3305518,7.233219,-24.0,-89.2,40.6,-21.4,-1.8,264.8,-1067.2,-51.6,308.8,1018.8578,-3.320047,3650.4,0.011850685,-0.0198802815,0.036896995,-0.0825473,-1.3569755,-0.035545194,69810.0,28137.0,26930.0,44.0,40.0,-169.0,0,None
2022-12-29 12:43:11.900,366.804,0.1079999999999927,77.0,686.0,23039.0,4882.0,98.0,739.6,223.4,4895.2,-25.403376,2.263148,-0.004652714,-0.0029808489333333,-1.356079,69.44333333333334,0.0049782786666666,0.0084264296666666,-1.3791479999999998,0.7798029599999999,1.507736,11.2029728,-18.0,18.4,34.2,23.6,-12.6,252.4,-1112.2,-3.6,311.0,1018.9278,-3.2501872000000005,3651.0,0.0049782786666666,-0.02011922,0.0084264296666666,0.0101549743333333,-1.3791479999999998,-0.0211057,69130.0,28091.0,26250.0,42.0,47.0,-163.0,0,None
