00000_Time_epoch,00000_Time_boot_sec,00000_Span_Time_boot_sec,1_battery_remaining_avg,1_current_battery_avg,1_voltage_battery_avg,125_Vcc_avg,147_battery_remaining_avg,147_current_battery_avg,147_current_consumed_avg,165_Vcc_avg,168_direction_avg,168_speed_avg,178_pitch_avg,178_roll_avg,178_yaw_avg,182_altitude_avg,182_pitch_avg,182_roll_avg,182_yaw_avg,241_vibration_x_avg,241_vibration_y_avg,241_vibration_z_avg,27_xacc_avg,27_xgyro_avg,27_xmag_avg,27_yacc_avg,27_ygyro_avg,27_ymag_avg,27_zacc_avg,27_zgyro_avg,27_zmag_avg,29_press_abs_avg,29_press_diff_avg,29_temperature_avg,30_pitch_avg,30_pitchspeed_avg,30_roll_avg,30_rollspeed_avg,30_yaw_avg,30_yawspeed_avg,33_alt_avg,33_hdg_avg,33_relative_alt_avg,33_vx_avg,33_vy_avg,33_vz_avg,label,diagnosis
2023-01-03 09:26:04.700,207.303,0.1079999999999983,84.0,86.0,23339.0,4888.0,99.0,88.2,49.0,4886.0,-154.66134,0.1799127599999999,-0.0021678593333333,-0.0151922766666666,-1.2439736666666663,27.40333333333333,0.0055568216666666,-0.0083284406666666,-1.2550283333333334,0.0256111719999999,0.025023816,0.0358417979999999,-16.4,3.6,71.7,0.4,6.1,252.2,-1056.2,0.0,335.2,1020.3828,-0.13775778,3584.3,0.0055568216666666,0.0067710266666666,-0.0083284406666666,0.0044814723333333,-1.2550283333333334,5.4243166666666656e-05,27420.0,28809.0,-140.0,8.0,25.0,-37.0,0,None
2023-01-03 09:26:05.250,207.8855,0.103333333333334,84.0,85.0,23332.0,4890.0,99.0,88.33333333333333,49.0,4888.666666666667,-155.7469,0.1838247333333333,-0.0020508253333333,-0.0151493566666666,-1.243113,27.340000000000003,0.0057096106666666,-0.008415431,-1.2547603333333333,0.0249198966666666,0.0240271116666666,0.03622934,-16.0,4.0,73.66666666666667,0.3333333333333333,6.333333333333333,252.5,-1055.6666666666667,0.0,334.8333333333333,1020.3805,-0.1399479166666666,3585.5,0.0057096106666666,0.0065180856666666,-0.008415431,0.0049006733333333,-1.2547603333333333,-0.0004927345,27370.0,28811.0,-190.0,8.0,26.0,-38.0,0,None
2023-01-03 09:26:05.800,208.439,0.0999999999999999,84.0,221.0,23319.0,4896.0,99.0,177.8,49.0,4890.6,-155.96926000000002,0.2022913,-0.002458603,-0.01507576,-1.24264,27.305,0.005777656,-0.0084102535,-1.2547415,0.091930274,0.163059198,0.925325372,-10.2,4.0,69.6,7.2,7.4,248.6,-1058.2,6.4,336.2,1020.3922,-0.12843748,3587.2,0.005777656,0.0053410344999999,-0.0084102535,0.00325471,-1.2547415,-0.0134040673,27320.0,28812.0,-240.0,7.0,27.0,-39.0,0,None
2023-01-03 09:26:06.350,208.98866666666663,0.0999999999999989,84.0,128.0,23335.0,4880.0,99.0,134.5,50.0,4895.333333333333,-155.87615000000002,0.2277448,-0.0022277663333333,-0.01451786,-1.2418306666666667,27.27333333333333,0.00582483,-0.0083829129999999,-1.2542363333333335,0.06292996,0.1590256333333333,0.6750904666666666,-16.166666666666668,4.333333333333333,70.66666666666667,-5.833333333333333,7.166666666666667,250.3333333333333,-1051.6666666666667,-6.833333333333333,333.1666666666667,1020.4035,-0.11683592,3588.6666666666665,0.00582483,0.0067574593333333,-0.0083829129999999,0.003896446,-1.2542363333333335,0.0094858673333333,27275.0,28814.5,-285.0,7.5,27.5,-40.0,0,None
2023-01-03 09:26:06.900,209.555,0.1079999999999983,84.0,132.0,23332.0,4896.0,99.0,129.8,50.0,4894.0,-155.63416,0.2611584799999999,-0.0025237339999999,-0.0146153333333333,-1.2412366666666663,27.21,0.0057332176666666,-0.0083322033333333,-1.2540923333333334,0.0570146879999999,0.15832244,0.49500858,-18.2,4.0,71.2,7.0,5.8,250.0,-1048.0,3.6,334.0,1020.4156,-0.104843758,3590.0,0.0057332176666666,0.0075208533333333,-0.0083322033333333,0.0045660693333333,-1.2540923333333334,-0.001151103,27200.0,28816.0,-360.0,7.0,27.0,-41.0,0,None
2023-01-03 09:26:07.450,210.079,0.0999999999999999,84.0,985.0,23091.0,4887.0,99.0,907.0,50.4,4898.2,-155.44866,0.29146304,-0.0015672435666666,-0.0162628333333333,-1.240706,27.16,0.0060415366666666,-0.0100360476666666,-1.2535256666666668,0.209683142,0.60535608,2.20537766,-10.0,8.8,57.4,-5.6,3.8,245.4,-1071.8,-1.0,305.2,1020.5028,-0.017531256,3591.4,0.0060415366666666,0.0112280603333333,-0.0100360476666666,-0.0214923596666666,-1.2535256666666668,-0.0094985686666666,27160.0,28821.0,-400.0,7.0,27.0,-38.0,0,None
2023-01-03 09:26:08.000,210.599,0.1079999999999983,83.0,1334.0,23010.0,4893.0,99.0,1700.0,52.8,4889.4,-155.2697,0.32250754,0.0028718715,-0.024569065,-1.234553,27.275,0.0105206,-0.017584845,-1.2465739999999998,0.44726762,1.02991466,4.012981000000001,-12.2,10.9,59.4,-13.8,19.6,231.5,-1239.0,29.9,296.4,1020.7202,0.1996171839999999,3593.0,0.0105206,-0.0187063499999999,-0.017584845,0.032597245,-1.2465739999999998,0.03850491,27360.0,28872.0,-200.0,-5.0,22.0,47.0,0,None
2023-01-03 09:26:08.550,211.169,0.1000000000000037,83.0,1761.0,22889.0,4896.0,99.0,1836.3333333333333,55.5,4889.166666666667,-155.82713333333334,0.3642207999999999,-0.0072959916,-0.0083726126666666,-1.2246643333333334,27.926666666666662,0.0015777463333333,-0.0021749666666666,-1.235996,0.3443873833333333,1.2120218166666668,2.6129116666666667,-12.666666666666666,23.33333333333333,58.5,-16.666666666666668,-29.83333333333333,252.8333333333333,-1237.1666666666667,8.5,305.1666666666667,1020.3313333333334,-0.1890234499999999,3594.5,0.0015777463333333,-0.04504402,-0.0021749666666666,0.0047565703333333,-1.235996,-0.0030916083333333,28080.0,28939.0,520.0,-11.0,16.0,139.0,0,None
2023-01-03 09:26:09.100,211.75100000000003,0.1079999999999983,83.0,1749.0,22883.0,4895.0,99.0,1774.8,58.2,4896.4,-156.506,0.4147320399999999,-0.0183274666666666,0.0083256476666666,-1.2306763333333333,29.44333333333333,-0.0113556156666666,0.0143906583333333,-1.241210666666667,0.315333,1.1323918599999998,2.0414952000000004,-11.4,51.6,62.2,-13.0,3.6,237.8,-1176.2,-14.0,284.4,1020.1468,-0.3735,3596.0,-0.011406759,0.0231219853333333,0.013938775,0.0438094833333333,-1.2412516666666666,0.0042193033333333,29400.0,28886.0,1840.0,-10.0,5.0,219.0,0,None
2023-01-03 09:26:09.650,212.259,0.0999999999999999,82.0,1710.0,22841.0,4900.0,99.0,1806.0,60.8,4895.6,-156.6023,0.45459728,-0.008978391,0.021191285,-1.234908,31.020000000000003,-0.00142731235,0.02636941,-1.2626815,0.36739052,1.42398914,3.911521000000001,-10.4,-14.4,56.2,-15.6,37.4,235.8,-1110.8,-4.8,270.6,1019.9892,-0.5311406000000001,3597.4,-0.00142731235,0.05139457,0.02636941,-0.008263255,-1.2626815,-0.0145574285,31020.0,28671.0,3460.0,4.0,-3.0,261.0,0,None
2023-01-03 09:26:10.200,212.795,0.1120000000000004,81.5,1650.0,22878.0,4895.0,99.0,1748.6,63.4,4893.4,-155.91964000000002,0.48093938,0.0018002416666666,-0.0009929593333333,-1.2320053333333332,32.74333333333333,0.0073691516666666,0.0044681,-1.277035666666667,0.41876526,1.35927838,2.4603016,-11.9,-48.1,61.3,-20.3,2.0,241.5,-1069.2,-0.3,292.9,1019.7917,-0.72875778,3598.6,0.0077308183333333,-0.0046142113333333,0.004311287,-0.0640961766666666,-1.2770963333333334,0.0024224733333333,32720.0,28692.0,5160.0,11.0,-3.0,292.0,0,None
2023-01-03 09:26:10.750,213.339,0.1079999999999983,81.0,1306.0,22920.0,4888.0,99.0,1499.4,65.8,4893.8,-155.31086,0.50220928,-0.029069209,-0.0024526826666666,-1.2405096666666668,34.75333333333334,-0.0210767790666666,0.0054996693333333,-1.2842396666666664,0.3210144,1.21033194,4.7104524,5.2,68.0,60.8,-30.8,-120.4,237.4,-908.8,-10.6,299.8,1019.5508,-0.96960928,3600.2,-0.0210479080666666,-0.1228997199999999,0.0050960996666666,0.06564703,-1.284155333333333,0.0058065719999999,34420.0,28652.0,6860.0,4.0,-10.0,277.0,0,None
2023-01-03 09:26:11.300,213.90916666666664,0.099999999999999,81.0,1273.0,22941.0,4900.0,99.0,1281.0,67.83333333333333,4892.666666666667,-155.64873333333333,0.5195248666666666,-0.1849770666666666,0.0297064233333333,-1.228705333333333,36.26,-0.1739556999999999,0.0386171633333333,-1.2722086666666663,0.6425373166666667,0.8592814833333334,6.757659666666666,-9.5,68.83333333333333,111.0,-21.666666666666668,-222.16666666666663,250.66666666666663,-925.0,30.5,279.3333333333333,1019.4108333333334,-1.1095833333333334,3601.6666666666665,-0.1739556999999999,-0.180901214,0.0386171633333333,0.0896041833333333,-1.2722086666666663,0.0226613766666666,35860.0,28678.0,8300.0,8.0,-41.0,189.0,0,None
2023-01-03 09:26:11.850,214.459,0.0999999999999999,80.0,1531.0,22878.0,4896.0,99.0,1505.0,70.0,4892.4,-157.37388,0.5133302399999999,-0.2124178,0.069633035,-1.209837,37.11,-0.2002971499999999,0.07694149,-1.251792,0.5255113,0.87014212,6.0231624,-9.0,61.6,125.8,-40.4,34.4,274.6,-1048.2,137.0,281.4,1019.289,-1.231219,3603.2,-0.2002971499999999,0.02029915,0.07694149,0.051777805,-1.251792,0.146209795,36800.0,28744.0,9240.0,40.0,-127.0,134.0,0,None
2023-01-03 09:26:12.400,215.03,0.1035000000000015,80.0,1515.0,22852.0,4890.0,99.0,1552.5,72.5,4895.666666666667,-159.39586666666665,0.4950615666666667,-0.1807127666666666,0.0456973333333333,-1.0427051333333333,37.84666666666666,-0.1710385333333333,0.0536326966666666,-1.0827902333333332,0.4929695333333333,1.225979,5.868025833333333,-27.0,-25.83333333333333,165.83333333333334,-51.833333333333336,117.5,255.16666666666663,-1054.0,382.6666666666667,262.6666666666667,1019.1746666666668,-1.3457681666666668,3605.1666666666665,-0.1710385333333333,0.1383001666666666,0.0536326966666666,-0.0524607299999999,-1.0827902333333332,0.3904924333333333,37925.0,29908.5,10365.0,120.5,-256.0,116.5,0,None
2023-01-03 09:26:12.950,215.5808,0.1002000000000009,80.0,1785.0,22753.0,4891.0,99.0,1615.0,75.2,4892.2,-161.20772000000002,0.46943816,-0.1710959333333333,-0.0193257506666666,-0.8978638333333334,38.81333333333333,-0.1671109333333333,-0.0091289546666666,-0.9372006333333333,0.41995514,1.5178818,6.4268322,-45.4,-43.0,204.4,-61.8,-81.8,218.0,-1103.8,15.0,277.0,1019.027,-1.4933124,3606.6,-0.1671109333333333,-0.0531483233333333,-0.0091289546666666,-0.0254033749999999,-0.9372006333333333,0.0167946666666666,39180.0,30577.0,11620.0,163.0,-370.0,144.0,0,None
2023-01-03 09:26:13.500,216.131,0.099999999999999,79.0,1636.0,22811.0,4890.0,99.0,1688.1666666666667,77.66666666666667,4890.5,-163.32385,0.4372265166666667,-0.1970128333333333,0.0087936226666666,-0.9436988,40.03,-0.1931962333333333,0.020447687,-0.9858940666666666,0.48428115,1.431055,6.210288000000001,-52.333333333333336,92.5,207.16666666666663,-54.333333333333336,29.166666666666668,226.0,-1135.0,-87.16666666666667,267.1666666666667,1018.9095,-1.6109245,3608.1666666666665,-0.1931962333333333,0.0382063766666666,0.020447687,0.0942984733333333,-0.9858940666666666,-0.0885464933333333,40250.0,30306.0,12690.0,197.0,-461.0,180.0,0,None
2023-01-03 09:26:14.050,216.689,0.104000000000002,79.0,1862.0,22727.0,4883.0,99.0,1835.4,80.2,4888.6,-165.82817999999995,0.3985197,-0.1626787,0.060847175,-0.9782887,41.23,-0.16100715,0.07120094,-1.022568,0.50333344,1.431442,6.1220972,-61.2,63.2,192.8,-70.1,53.3,232.9,-1087.2,-51.2,257.0,1018.7554,-1.7650779,3609.8,-0.16100715,0.055327395,0.07120094,0.13274897,-1.022568,-0.0661246349999999,41480.0,30103.0,13920.0,243.0,-518.0,207.0,0,None
2023-01-03 09:26:14.600,217.20460000000003,0.0999999999999999,79.0,1683.0,22785.0,4871.0,99.0,1770.8,82.8,4885.6,-169.0733,0.3569961,-0.1385351,0.0803815633333333,-0.9865489666666668,42.57,-0.1365968666666666,0.0912760233333333,-1.032676333333333,0.47742584,1.304793,6.2004998,-55.4,-42.0,181.0,-46.0,46.2,240.4,-1101.8,-13.0,262.8,1018.597,-1.923328,3611.4,-0.1365968666666666,0.0631401599999999,0.0912760233333333,-0.0021528599999999,-1.032676333333333,-0.0033752213333333,42850.0,30077.0,15290.0,296.0,-549.0,232.0,0,None
2023-01-03 09:26:15.150,217.76433333333333,0.1033333333333293,78.0,1497.5,22793.5,4893.0,99.0,1519.1666666666667,85.33333333333333,4889.833333333333,-174.06795,0.3100600333333334,-0.1161832,0.05235039,-1.0001268,44.29,-0.1152832333333333,0.0658393033333333,-1.045963,0.5476818833333333,1.2001742999999998,7.400485666666666,-79.0,-65.16666666666667,171.33333333333334,-50.833333333333336,8.166666666666666,253.8333333333333,-1099.6666666666667,-69.5,280.5,1018.4291666666668,-2.0910545000000003,3612.8333333333335,-0.1152832333333333,0.0683232066666666,0.0658393033333333,-0.0657866966666666,-1.045963,-0.06206974,44290.0,30017.0,16730.0,331.0,-569.0,247.0,0,None
2023-01-03 09:26:15.700,218.321,0.0999999999999999,78.0,1349.0,22819.0,4890.0,99.0,1323.0,87.6,4883.0,106.29836,0.26434302,-0.0953980266666666,0.0183882399999999,-1.0310933333333334,45.98333333333334,-0.09245646,0.03186228,-1.077691,0.59673636,1.1480585,7.980168399999999,-68.0,-18.4,158.8,-77.0,71.4,238.4,-992.2,-40.2,296.2,1018.2474,-2.2729218,3614.6,-0.09245646,0.0485731833333333,0.03186228,-0.0140632823333333,-1.077691,-0.0163230182,45720.0,29845.0,18160.0,346.0,-590.0,239.0,0,None
2023-01-03 09:26:16.250,218.88766666666663,0.103333333333334,78.0,1234.0,22884.0,4895.0,99.0,1341.5,89.66666666666667,4884.166666666667,166.08613333333332,0.2249426,-0.0586821266666666,0.02507502,-1.0461723333333333,47.53,-0.0553408133333333,0.03992446,-1.0937286666666666,0.57713555,1.0962941666666668,7.890156833333333,-70.83333333333333,32.833333333333336,140.66666666666666,-50.333333333333336,71.33333333333333,229.66666666666663,-1000.3333333333334,-21.666666666666668,287.1666666666667,1018.0891666666664,-2.431237,3616.0,-0.0553408133333333,0.0375603636666666,0.03992446,0.0159858733333333,-1.0937286666666666,-0.02460919,47030.0,29764.0,19470.0,338.0,-604.0,213.0,0,None
2023-01-03 09:26:16.800,219.44100000000003,0.0999999999999999,78.0,1407.0,22815.0,4896.0,99.0,1210.0,91.4,4890.8,148.34449999999998,0.20180814,-0.0625231099999999,0.03411391,-1.0562385,48.735,-0.05988364,0.048968235,-1.105305,0.6277372999999999,1.04531822,7.928643000000001,-79.8,2.2,141.6,-48.4,-28.6,239.0,-1015.6,-17.0,279.2,1018.0092,-2.5113434000000003,3617.6,-0.05988364,-0.04353129,0.048968235,0.0255587704999999,-1.105305,-0.036498655,48270.0,29694.0,20710.0,334.0,-604.0,207.0,0,None
2023-01-03 09:26:17.350,219.991,0.1000000000000037,77.0,1535.0,22804.0,4896.0,99.0,1355.3333333333333,93.5,4886.166666666667,128.3331,0.2094211833333333,-0.0714335566666666,0.0215984443333333,-1.0634063333333332,49.833333333333336,-0.0660449833333333,0.0358942166666666,-1.113398,0.6707043666666667,1.1356108333333332,7.403198499999999,-76.33333333333333,-35.166666666666664,140.5,-45.16666666666666,-31.666666666666668,237.66666666666663,-1071.6666666666667,-15.5,296.3333333333333,1017.8546666666664,-2.6659503333333334,3619.3333333333335,-0.0660449833333333,-0.0188218699999999,0.0358942166666666,-0.064373825,-1.113398,-0.0327417733333333,49945.0,29624.0,22385.0,332.0,-599.5,198.5,0,None
2023-01-03 09:26:17.900,220.545,0.1039999999999963,77.0,1377.0,22785.0,4898.0,99.0,1313.2,95.6,4889.4,110.3685,0.25083104,-0.0849602666666666,0.0200872766666666,-1.0588856666666666,51.17666666666667,-0.0768990533333333,0.03415144,-1.1096233333333334,0.63383064,1.0726007,7.8902174,-66.0,39.0,149.2,-45.8,5.0,246.6,-1055.0,14.0,296.6,1017.6976,-2.8228594000000005,3620.8,-0.0768990533333333,0.0037873186666666,0.03415144,0.0235058033333333,-1.1096233333333334,0.0060566233333333,51640.0,29654.0,24080.0,328.0,-617.0,201.0,0,None
2023-01-03 09:26:18.450,221.0736,0.1042000000000029,77.0,1411.0,22820.0,4900.0,99.0,1351.2,97.6,4899.8,98.92748,0.31029026,-0.07683042,0.02944633,-1.0614975,52.370000000000005,-0.069762145,0.0419351949999999,-1.1123415,0.57708608,0.9527574600000002,7.437992800000001,-55.0,19.6,143.6,-54.4,-2.6,256.4,-1056.0,-14.8,301.6,1017.5438,-2.9765466,3622.0,-0.069762145,0.0282733649999999,0.0419351949999999,0.04045237,-1.1123415,-0.040481955,52870.0,29602.0,25310.0,332.0,-631.0,201.0,0,None
2023-01-03 09:26:19.000,221.5972,0.1077999999999974,77.0,1519.0,22801.0,4890.0,99.0,1569.0,99.8,4897.2,92.068574,0.3751708799999999,-0.08290709,0.0221146266666666,-1.072291,53.61333333333334,-0.0757296533333333,0.0357761599999999,-1.122133,0.46993516,1.09453946,6.471337,-58.8,-37.7,137.6,-62.8,19.6,244.7,-1116.2,-31.6,300.2,1017.3603,-3.1600858,3623.8,-0.0757296533333333,0.0054497696666666,0.0357761599999999,-0.0537937363333333,-1.122133,0.003783977,54110.0,29553.0,26550.0,336.0,-654.0,207.0,0,None
2023-01-03 09:26:19.550,222.17116666666664,0.099999999999999,77.0,1392.0,22818.0,4893.0,99.0,1311.5,102.16666666666669,4893.166666666667,87.55161666666667,0.4507922666666666,-0.0376943126,0.0350443466666666,-1.0605073333333332,55.16666666666666,-0.0290131093333333,0.0476990633333333,-1.1108033333333334,0.5582445666666667,1.2505096666666666,6.8370445,-66.16666666666667,122.5,129.33333333333334,-61.0,126.83333333333331,236.16666666666663,-993.0,25.166666666666668,294.0,1017.1635,-3.3568878333333334,3625.0,-0.0290131093333333,0.096051497,0.0476990633333333,0.1414816033333333,-1.1108033333333334,0.0366749626666666,55430.0,29653.0,27870.0,328.0,-665.0,204.0,0,None
2023-01-03 09:26:20.100,222.72960000000003,0.1042000000000029,76.0,999.0,22925.0,4883.0,99.0,978.2,103.6,4895.2,84.59351000000001,0.5336172800000001,-0.03491088,0.12800175,-1.0095128,56.265,-0.029937935,0.14074195,-1.061031,0.78971934,1.1641678,7.054034799999999,-58.0,157.2,135.6,-47.4,-67.6,263.6,-891.8,182.4,287.0,1017.063,-3.4572968000000004,3626.6,-0.029937935,-0.0620182122,0.14074195,0.1877483,-1.061031,0.1764089999999999,56440.0,30014.0,28880.0,339.0,-645.0,120.0,0,None
2023-01-03 09:26:20.650,223.29166666666663,0.0999999999999989,76.0,1031.0,22917.0,4889.0,99.0,1061.3333333333333,105.33333333333331,4891.5,83.04911999999999,0.6337989333333334,-0.06365093,0.1543959,-0.9188732666666668,56.89666666666667,-0.0586884833333333,0.1650664666666667,-0.9707925666666668,0.64478845,1.0758540833333334,9.743163999999998,-68.33333333333333,-11.666666666666666,170.83333333333334,-51.5,13.666666666666666,264.3333333333333,-940.3333333333334,160.5,262.8333333333333,1016.9985,-3.5220831666666665,3628.5,-0.0586884833333333,0.0160167833333333,0.1650664666666667,0.0019332224999999,-0.9707925666666668,0.1716667999999999,57000.0,30543.0,29440.0,381.0,-619.0,56.0,0,None
2023-01-03 09:26:21.200,223.854,0.104000000000002,76.0,1000.0,22915.0,4896.0,99.0,1026.0,106.8,4897.0,81.91351,0.74957988,-0.0726598433333333,0.11681359,-0.8386622,57.31999999999999,-0.0683145466666666,0.1285819999999999,-0.8913881666666666,0.56697318,0.99908416,12.89534,-71.8,-85.6,199.2,-58.0,3.4,243.6,-1019.2,92.0,274.4,1016.9512,-3.5693436,3629.6,-0.0683145466666666,0.0162685833333333,0.1285819999999999,-0.09147219,-0.8913881666666666,0.0790818133333333,57330.0,30908.0,29770.0,423.0,-595.0,21.0,0,None
2023-01-03 09:26:21.750,224.362,0.0999999999999999,76.0,947.0,22924.0,4874.0,99.0,947.4,108.4,4885.4,80.939838,0.8592779800000001,-0.082743825,0.079681875,-0.8122312,57.545,-0.07944375,0.094331095,-0.86656045,0.6739165199999999,1.2846334,10.267342800000002,-58.4,-32.2,203.6,-14.0,-6.0,213.6,-980.0,17.4,275.6,1016.9494,-3.571078,3631.0,-0.07944375,-0.0089049635,0.094331095,-0.020199505,-0.86656045,0.044815955,57550.0,31037.0,29990.0,454.0,-584.0,4.0,0,None
2023-01-03 09:26:22.300,224.92533333333333,0.1033333333333293,76.0,975.0,22924.0,4896.0,99.0,975.3333333333334,109.83333333333331,4896.333333333333,80.14711333333332,0.9639261166666668,-0.0898894124999999,0.06402588,-0.7998962000000001,57.68,-0.086206295,0.0785065899999999,-0.855465975,0.6940238666666666,1.2715339999999995,12.280065333333331,-68.16666666666667,-6.833333333333333,206.66666666666663,-58.833333333333336,-13.5,221.5,-1045.1666666666667,19.666666666666668,296.5,1016.9331666666668,-3.5872265,3632.5,-0.086206295,-0.0074915749999999,0.0785065899999999,0.00833508725,-0.855465975,0.02021239,57670.0,31091.0,30110.0,476.0,-583.0,-13.0,0,None
2023-01-03 09:26:22.850,225.4836,0.1004000000000018,76.0,1002.0,22919.0,4888.0,99.0,1044.2,111.6,4899.2,79.49127800000001,1.0650596,-0.09510648,0.05925616,-0.78644495,57.735,-0.091346475,0.07192865,-0.8425938,0.6179758399999999,1.2484288,10.8565892,-77.8,8.4,203.8,-49.0,6.0,209.4,-1032.2,33.0,281.4,1016.8752,-3.645062400000001,3634.0,-0.091346475,-0.0031652065,0.07192865,0.019786795,-0.8425938,0.02384402,57730.0,31145.0,30170.0,492.0,-588.0,-26.0,0,None
2023-01-03 09:26:23.400,226.0373333333333,0.099999999999999,76.0,1069.0,22905.0,4890.0,99.0,1041.6666666666667,113.16666666666669,4898.333333333333,78.94662333333333,1.1664739999999998,-0.0979360266666666,0.0530382033333333,-0.7735346666666666,57.77666666666666,-0.0932918866666666,0.0666046133333333,-0.832072,0.55874675,1.2329614999999998,12.173649,-77.33333333333333,-4.833333333333333,223.8333333333333,-64.16666666666667,-1.1666666666666667,211.5,-1057.0,7.333333333333333,267.8333333333333,1016.8721666666664,-3.648450333333333,3635.6666666666665,-0.0932918866666666,-0.01330964,0.0666046133333333,-0.0084015373333333,-0.832072,6.678766666666676e-05,57785.0,31222.5,30225.0,512.0,-598.5,-27.5,0,None
2023-01-03 09:26:23.950,226.588,0.104000000000002,76.0,1084.0,22882.0,4883.0,99.0,1044.2,114.6,4892.0,78.540038,1.2650616,-0.0989913233333333,0.04635985,-0.7803650666666666,57.81999999999999,-0.0936501933333333,0.0595814966666666,-0.8405291333333333,0.61834586,1.1451158,12.888622000000002,-66.6,5.2,221.4,-56.0,15.2,216.8,-1068.6,-23.8,290.8,1016.8514,-3.6689218,3637.2,-0.0936501933333333,0.02081862,0.0595814966666666,-0.0156930733333333,-0.8405291333333333,-0.0327728533333333,57830.0,31165.0,30270.0,532.0,-615.0,-34.0,0,None
2023-01-03 09:26:24.500,227.134,0.096666666666664,76.0,1042.0,22898.0,4896.0,99.0,1068.6666666666667,116.33333333333331,4897.833333333333,78.21988333333333,1.3562255,-0.0888048266666666,0.0449437666666666,-0.7793474333333333,57.86000000000001,-0.0846203899999999,0.05821258,-0.8426011999999999,0.6081228166666667,1.018127783333333,11.319655833333334,-86.33333333333333,4.0,211.66666666666663,-54.5,23.83333333333333,209.8333333333333,-1069.1666666666667,5.5,273.6666666666667,1016.856,-3.664335833333333,3638.1666666666665,-0.0846203899999999,0.0185200363,0.05821258,0.0235387506666666,-0.8426011999999999,0.0020247243333333,57870.0,31179.0,30310.0,541.0,-624.0,-38.0,0,None
2023-01-03 09:26:25.050,227.688,0.0999999999999999,76.0,1049.0,22904.0,4883.0,99.0,1054.4,118.0,4898.0,77.990178,1.4439762,-0.083126055,0.046957115,-0.7760012000000001,57.87,-0.0777662899999999,0.058698665,-0.8398403999999999,0.56303788,1.0961372,11.7197344,-70.6,1.4,206.2,-57.8,16.2,214.2,-1070.4,-0.8,270.4,1016.8564,-3.6640311999999993,3639.6,-0.0777662899999999,0.03190929,0.058698665,0.005598062,-0.8398403999999999,0.0069705075,57870.0,31190.0,30310.0,550.0,-628.0,-34.0,0,None
2023-01-03 09:26:25.600,228.23399999999995,0.1000000000000037,76.0,994.0,22902.0,4890.0,99.0,986.5,119.5,4895.0,77.83882,1.5308776666666668,-0.0377029866666666,-0.0863889166666666,-0.8206451333333332,57.88333333333333,-0.0340469433333333,-0.074319223,-0.8842488,0.54942365,1.0538647833333334,10.984109666666669,-59.833333333333336,-329.1666666666667,195.3333333333333,-29.33333333333333,115.33333333333331,187.0,-1043.5,-165.83333333333334,313.3333333333333,1016.9168333333332,-3.603541333333333,3641.1666666666665,-0.0340469433333333,0.1054914833333333,-0.074319223,-0.3457457,-0.8842488,-0.1773685966666666,57890.0,30837.0,30330.0,519.0,-648.0,-37.0,0,None
2023-01-03 09:26:26.150,228.82,0.1120000000000004,76.0,1077.5,22872.5,4890.5,99.0,1086.6,121.0,4892.2,77.792822,1.6178602000000002,-0.0299237066666666,-0.1702621333333333,-0.9852024333333332,57.84333333333333,-0.0247603099999999,-0.1555038666666666,-1.0504586,0.5707386999999999,0.95963486,13.24573,-58.3,4.1,157.5,-35.0,20.1,171.0,-1061.0,-263.8,359.2,1016.912,-3.608703100000001,3643.1,-0.0245985499999999,0.0172818573333333,-0.1556887333333333,0.0093475623333333,-1.0485016,-0.2380245666666667,57840.0,29983.0,30280.0,431.0,-692.0,-35.0,0,None
2023-01-03 09:26:26.700,229.324,0.0959999999999979,76.0,1151.0,22874.0,4869.0,99.0,1138.0,122.6,4885.6,77.941146,1.6953766,-0.04981856,-0.1398262,-1.0975635,57.81,-0.0423167849999999,-0.12802885,-1.165461,0.5919671799999999,1.1049626,9.7095142,-46.8,89.2,129.0,-47.6,-0.6,191.2,-1040.2,-196.0,336.2,1016.866,-3.6542186,3644.0,-0.0423167849999999,-0.0099848215,-0.12802885,0.08199354,-1.165461,-0.1799924,57810.0,29318.0,30250.0,344.0,-733.0,-35.0,0,None
2023-01-03 09:26:27.250,229.8873333333333,0.103333333333334,76.0,1157.0,22844.0,4903.0,99.0,1163.8333333333333,124.5,4893.333333333333,78.23986333333335,1.7870046666666666,-0.0608637099999999,-0.0909267733333333,-1.1758206666666666,57.82666666666668,-0.0533279766666666,-0.0817113299999999,-1.2439966666666669,0.5311787833333333,0.9416504,10.359415,-55.5,69.5,102.66666666666669,-41.0,14.833333333333334,222.66666666666663,-1051.8333333333333,-122.5,333.6666666666667,1016.8728333333332,-3.647643166666666,3645.3333333333335,-0.0529841833333333,0.0047303673333333,-0.08208514,0.0723471266666666,-1.243219,-0.1322726666666666,57830.0,28867.0,30270.0,283.0,-768.0,-39.0,0,None
2023-01-03 09:26:27.800,230.46,0.1039999999999963,75.0,1116.0,22868.0,4880.0,99.0,1131.2,126.2,4898.0,78.619688,1.8879632,-0.0518836866666666,-0.0570934533333333,-1.236778,57.833333333333336,-0.04512993,-0.05073157,-1.303424666666667,0.5441822599999999,0.7391599799999999,11.526312,-59.2,32.2,82.4,-43.4,37.6,229.4,-1023.6,-80.6,333.6,1016.8876,-3.632875,3646.8,-0.04512993,0.03712628,-0.05073157,0.0469265266666666,-1.303424666666667,-0.0953434133333333,57840.0,28577.0,30280.0,240.0,-795.0,-30.0,0,None
2023-01-03 09:26:28.350,230.98,0.104000000000002,75.0,1109.0,22849.0,4898.0,99.0,1101.4,127.8,4896.0,78.91101,1.9670662,-0.044965805,-0.04136154,-1.2711955,57.815,-0.037507505,-0.035158705,-1.3359545000000002,0.5686080600000001,0.93034434,10.4219554,-63.6,10.2,64.6,-36.4,24.6,243.6,-1045.4,-55.0,323.0,1016.8886,-3.6319688,3648.2,-0.037507505,0.0082418205,-0.035158705,-0.000541515,-1.3359545000000002,-0.074283715,57820.0,28389.0,30260.0,208.0,-810.0,-30.0,0,None
2023-01-03 09:26:28.900,231.534,0.099999999999999,75.0,1039.0,22875.0,4890.0,99.0,1040.5,129.66666666666666,4894.833333333333,79.17815833333334,2.046645333333333,-0.0368964566666666,-0.03834163,-1.3063813333333334,57.79333333333333,-0.03046355,-0.0320126433333333,-1.369769,0.5920355,1.0065563,14.217605,-56.16666666666666,30.166666666666668,56.16666666666666,-34.166666666666664,11.333333333333334,245.0,-1006.3333333333334,-52.16666666666666,330.6666666666667,1016.8976666666669,-3.6230856666666655,3649.1666666666665,-0.03046355,0.0126426186666666,-0.0320126433333333,0.0331582033333333,-1.369769,-0.0542611433333333,57800.0,28179.0,30240.0,180.0,-821.0,-33.0,0,None
2023-01-03 09:26:29.450,232.10800000000003,0.108000000000004,75.0,1049.0,22870.0,4893.0,99.0,1040.6,131.4,4895.8,79.428324,2.1243482,-0.018733566,-0.02729365,-1.3228383333333331,57.76,-0.0132429636666666,-0.0205398766666666,-1.3848546666666666,0.7716876600000001,1.04451722,10.70395,-51.3,-166.8,48.5,-17.0,128.9,248.5,-1049.1,-48.0,329.1,1016.9472,-3.5735312,3651.1,-0.0132429636666666,0.1090935033333333,-0.0205398766666666,-0.1060800533333333,-1.3848546666666666,-0.03320096,57760.0,28039.0,30200.0,147.0,-824.5,-32.0,0,None
2023-01-03 09:26:30.000,232.60800000000003,0.0999999999999999,75.0,1101.0,22838.0,4888.0,99.0,1094.2,132.6,4895.6,79.65535799999999,2.1980759999999995,0.0517944866666666,-0.1838264,-1.4217203333333333,57.69333333333333,0.0578849766666666,-0.1756432,-1.4816753333333337,0.6996057199999999,1.03091466,9.5402098,-59.2,-232.2,5.8,-9.0,125.8,199.4,-1211.4,-310.6,356.8,1016.9638,-3.5567188,3652.4,0.0580939299999999,0.1151763433333333,-0.1745994333333333,-0.2425107333333333,-1.4793200000000002,-0.3105463333333333,57670.0,27156.0,30110.0,44.0,-788.0,-26.0,0,None
2023-01-03 09:26:30.550,233.18066666666667,0.1033333333333293,75.0,1214.0,22833.0,4888.0,99.0,1218.1666666666667,134.5,4893.833333333333,79.81422166666668,2.2730218333333334,0.0126690266666666,-0.2508124333333333,-1.6277343333333334,57.623333333333335,0.0188745866666666,-0.2414683,-1.6867493333333332,0.7002027333333333,1.0833380833333333,8.216857833333334,-53.333333333333336,7.0,-44.16666666666666,-29.5,-66.5,168.0,-1120.5,-366.0,374.6666666666667,1016.9258333333332,-3.5946743333333333,3653.5,0.0188745866666666,-0.0859326899999999,-0.2414683,0.04670227,-1.6867493333333332,-0.3788259,57620.0,26153.0,30060.0,-85.0,-745.0,-23.0,0,None
2023-01-03 09:26:31.100,233.734,0.1150000000000019,75.0,1186.0,22799.0,4887.0,99.0,1198.0,136.5,4899.75,79.932495,2.3529835,-0.078432535,-0.1913822,-1.7904735,57.620000000000005,-0.06917081,-0.1848627,-1.8477965,0.55400615,0.98046105,7.468792,-60.125,129.5,-55.25,-15.125,-61.625,167.625,-1057.25,-298.0,371.0,1016.88475,-3.635693375,3655.0,-0.06917081,-0.029149065,-0.1848627,0.1454534,-1.8477965,-0.2732955999999999,57620.0,25302.0,30060.0,-202.0,-729.0,-26.0,0,None
2023-01-03 09:26:31.650,234.264,0.099999999999999,75.0,1103.0,22851.0,4893.0,99.0,1139.0,138.16666666666666,4884.166666666667,80.02001999999999,2.417326,-0.1047361666666666,-0.1278536333333333,-1.901533333333333,57.656666666666666,-0.0947149933333333,-0.1261631666666667,-1.954743,0.6738315666666667,1.2864808333333333,5.5998133333333335,-71.0,56.0,-80.16666666666667,-19.33333333333333,20.0,174.0,-1057.1666666666667,-191.16666666666663,347.6666666666667,1016.8901666666668,-3.630442333333333,3656.5,-0.0947149933333333,0.0160700016666666,-0.1261631666666667,0.0536711639999999,-1.954743,-0.1791988666666666,57670.0,24714.0,30110.0,-277.0,-738.0,-29.0,0,None
2023-01-03 09:26:32.200,234.836,0.1120000000000004,75.0,1135.0,22829.5,4888.0,99.0,1164.0,140.0,4893.0,80.15993999999999,2.485779,-0.08896736,-0.11044845,-1.98843,57.67,-0.080117155,-0.1102262,-2.0385600000000004,0.7854420799999999,0.91837922,6.5615732,-61.8,3.6,-108.4,-13.6,64.8,183.4,-1044.2,-112.4,362.2,1016.8936,-3.626625,3657.4,-0.080117155,0.06894607,-0.1102262,0.01447797604,-2.0385600000000004,-0.1074038849999999,57670.0,24272.0,30110.0,-336.0,-746.0,-31.0,0,None
2023-01-03 09:26:32.750,235.372,0.104000000000002,75.0,1115.0,22841.0,4887.0,99.0,1122.6,141.6,4897.6,80.32460799999998,2.5543606000000003,-0.0700416166666666,-0.0978169199999999,-2.0411006666666665,57.66,-0.0617291833333333,-0.09656228,-2.089099,0.7896629199999999,0.9813930999999998,7.585559999999999,-71.4,17.0,-126.2,-16.4,52.4,177.0,-1075.4,-87.0,353.8,1016.9052,-3.6153122,3659.0,-0.0617291833333333,0.0466179166666666,-0.09656228,0.0115916226666666,-2.089099,-0.0920665233333333,57660.0,23989.0,30100.0,-383.0,-742.0,-28.0,0,None
2023-01-03 09:26:33.300,235.9473333333333,0.103333333333334,75.0,1102.0,22849.0,4890.0,99.0,1115.3333333333333,143.5,4895.0,80.473405,2.6124460000000003,-0.0395349593333333,-0.0967887066666666,-2.095177,57.63666666666666,-0.0319775933333333,-0.0943676833333333,-2.139437,0.8150177833333334,1.2118218333333333,6.150542833333333,-66.41666666666667,-142.91666666666666,-151.25,2.6666666666666665,169.66666666666666,179.41666666666666,-1055.1666666666667,-84.91666666666667,362.0833333333333,1016.8821666666666,-3.63826825,3660.25,-0.0319775933333333,0.1605617766666666,-0.0943676833333333,-0.13476333,-2.139437,-0.08082574,57640.0,23757.0,30080.0,-418.0,-734.0,-26.0,0,None
2023-01-03 09:26:33.850,236.52400000000003,0.1039999999999963,75.0,1157.0,22830.0,4888.0,99.0,1151.6,145.4,4887.2,80.59891400000001,2.6675186,0.0703895833333333,-0.2586556333333333,-2.2252826666666667,57.64333333333334,0.07588214,-0.2535748,-2.266544333333333,0.66891286,1.0679633,10.9675292,-66.4,-220.2,-212.0,-6.2,156.6,97.6,-1074.6,-307.2,360.8,1016.8475999999998,-3.673000000000001,3661.4,0.07588214,0.1498160533333333,-0.2535748,-0.2268739333333333,-2.266544333333333,-0.297439,57640.0,23273.0,30080.0,-457.0,-680.0,-24.0,0,None
2023-01-03 09:26:34.400,237.052,0.108000000000004,75.0,1252.0,22815.0,4887.0,99.0,1251.2,147.0,4890.6,80.689054,2.7209166,0.0213658125,-0.3370621,-2.422341,57.665,0.02760856,-0.33004205,-2.4597745,0.63293524,0.9103991,11.245402000000002,-61.0,-40.6,-236.8,-5.8,-56.6,38.0,-1098.6,-415.4,362.2,1016.7668,-3.7537186,3662.4,0.02760856,-0.06508196,-0.33004205,-0.024281015,-2.4597745,-0.4069442,57660.0,22198.0,30100.0,-520.0,-543.0,-28.0,0,None
2023-01-03 09:26:34.950,237.576,0.1039999999999963,74.0,1188.0,22813.0,4883.0,99.0,1193.2,148.8,4889.2,80.779074,2.775081,-0.06422181,-0.3038206333333333,-2.612611,57.74,-0.05403412,-0.2999634666666667,-2.643626333333333,0.59941274,0.92492116,10.828542,-61.8,84.4,-236.6,20.6,-9.8,0.4,-1084.8,-391.6,374.8,1016.7064,-3.814078,3663.6,-0.05403412,0.00446185,-0.2999634666666667,0.0985548033333333,-2.643626333333333,-0.3920609,57710.0,21126.0,30150.0,-600.0,-406.0,-35.0,0,None
2023-01-03 09:26:35.500,238.112,0.108000000000004,74.0,1149.0,22818.0,4893.0,99.0,1146.4,150.6,4886.6,80.851382,2.825321400000001,-0.1121095,-0.2394486499999999,-2.800557,57.845,-0.0993704649999999,-0.2406643,-2.8227685,0.6835576400000001,0.96480106,11.295702,-85.7,82.9,-7848.810666666664,15.3,40.4,-24.6,-1062.7,-324.6,383.8,1016.7063,-3.8144141,3664.9,-0.0993704649999999,0.044186755,-0.2406643,0.0879930999999999,-2.8227685,-0.3243441999999999,57820.0,20084.0,30260.0,-671.0,-300.0,-47.0,1,27_xmag_avg_drift_-135.93233333333328
2023-01-03 09:26:36.050,238.69066666666663,0.1033333333333293,74.0,1014.0,22850.0,4887.0,99.0,1013.1666666666666,152.33333333333334,4890.666666666667,80.91341666666666,2.8855206666666664,-0.1212703,-0.1902756666666666,-2.928306333333333,57.90333333333333,-0.1081397333333333,-0.1953438666666666,-2.941974333333333,0.96883065,1.3310830000000002,11.18633,-98.66666666666669,39.66666666666666,-7984.742999999997,20.5,20.666666666666668,-50.833333333333336,-1063.1666666666667,-186.8333333333333,362.0,1016.7533333333334,-3.7669791666666654,3666.3333333333335,-0.1081397333333333,0.0393789866666666,-0.1953438666666666,0.0411107266666666,-2.941974333333333,-0.1798269,57900.0,19278.0,30340.0,-725.0,-224.0,-51.0,1,27_xmag_avg_drift_-135.93233333333328
2023-01-03 09:26:36.600,239.284,0.108000000000004,74.0,994.0,22845.0,4895.0,99.0,973.2,154.0,4893.6,80.94658,2.9525166,-0.1132157666666666,-0.1568118666666666,-3.0202403333333336,57.89333333333334,-0.1016319366666666,-0.1630207,-3.026855333333333,0.90662846,1.3555574,14.246484,-107.2,31.0,-8120.67533333333,24.6,47.0,-67.4,-1060.0,-102.8,364.4,1016.837,-3.683281,3667.6,-0.1016319366666666,0.0715005066666666,-0.1630207,0.0407300833333333,-3.026855333333333,-0.1066093,57920.0,18798.0,30360.0,-766.0,-167.0,-57.0,1,27_xmag_avg_drift_-135.93233333333328
2023-01-03 09:26:37.150,239.82800000000003,0.1120000000000004,74.0,952.0,22867.0,4891.0,99.0,974.8,155.4,4893.8,80.93838799999999,3.0060794,-0.09778339,-0.1303533499999999,-3.0646195,57.825,-0.085375915,-0.1361746999999999,-3.0673005,0.97307778,1.4319308,14.132466,-94.9,30.5,-8256.607666666663,19.6,34.7,-62.1,-991.5,-50.6,361.0,1016.8522,-3.6679843,3668.8,-0.085375915,0.04241047,-0.1361746999999999,0.053197045,-3.0673005,-0.065620965,57820.0,18431.5,30260.0,-804.0,-101.5,-47.5,1,27_xmag_avg_drift_-135.93233333333328
2023-01-03 09:26:37.700,240.348,0.1039999999999963,74.0,895.0,22891.0,4890.0,99.0,943.8,156.6,4894.0,80.87257600000001,3.0587402,-0.0853071533333333,-0.1114085,-3.0898586666666663,57.75,-0.07350663,-0.1164482,-3.091233666666667,0.96576176,1.470414,13.99477,-76.2,30.8,-8392.539999999997,36.2,53.8,-72.0,-1052.2,-30.6,363.4,1016.8752,-3.6451558,3669.6,-0.07350663,0.0190153093333333,-0.1164482,0.018360864,-3.091233666666667,-0.0272741266666666,57710.0,18241.0,30150.0,-822.0,-58.0,-38.0,1,27_xmag_avg_drift_-135.93233333333328
2023-01-03 09:26:38.250,240.868,0.104000000000002,74.0,933.0,22875.0,4896.0,99.0,955.4,158.2,4897.8,80.731678,3.1142982,-0.071411245,-0.089846005,-3.103813,57.685,-0.059829275,-0.09458472,-3.104149,1.01756516,1.48762,13.731368,-110.0,52.0,-8528.47233333333,29.6,40.4,-66.6,-1032.0,4.0,349.8,1016.8782,-3.6420934,3670.6,-0.059829275,0.029477695,-0.09458472,0.04204476,-3.104149,-0.0140670175999999,57650.0,18220.0,30090.0,-825.0,-45.0,-37.0,1,27_xmag_avg_drift_-135.93233333333328
2023-01-03 09:26:38.800,241.416,0.1079999999999983,74.0,929.0,22871.0,4888.0,99.0,942.2,159.6,4887.0,80.52727800000001,3.1640120000000005,-0.0474119066666666,-0.11696091,-3.108283,57.63333333333333,-0.0372649466666666,-0.1201987166666666,-3.1092516666666667,0.9372916799999998,1.4888512000000005,13.52841,-101.1,-285.7,-8664.404666666664,9.7,117.7,-70.5,-1050.3,-61.3,342.8,1016.8699,-3.6506641,3671.9,-0.0372649466666666,0.1151297266666666,-0.1201987166666666,-0.20558358,-3.1092516666666667,-0.034911813,57620.0,18033.0,30060.0,-816.0,-11.0,-31.0,1,27_xmag_avg_drift_-135.93233333333328
2023-01-03 09:26:39.350,241.9673333333333,0.099999999999999,74.0,773.0,22932.0,4896.0,99.0,817.6666666666666,160.83333333333334,4891.333333333333,80.1961,3.212051833333333,-0.03481969,-0.2636223333333333,3.0646096666666662,57.60999999999999,-0.0249597716666666,-0.2626171666666666,3.0646143333333336,1.163355,2.039960166666667,15.196665,-97.0,-77.16666666666667,-8800.336999999996,67.83333333333333,39.16666666666666,-139.5,-1070.5,-276.5,320.5,1016.9311666666669,-3.589153666666667,3673.0,-0.0249597716666666,0.0359064533333333,-0.2626171666666666,-0.091210287,3.0646143333333336,-0.2665083,57600.0,17268.0,30040.0,-786.0,86.0,-32.0,1,27_xmag_avg_drift_-135.93233333333328
2023-01-03 09:26:39.900,242.548,0.108000000000004,74.0,1102.0,22832.0,4890.0,98.4,990.2,162.4,4888.6,79.576,3.2644682000000005,-0.0693372466666666,-0.2317084,2.909073333333333,57.53666666666666,-0.0590410433333333,-0.230692,2.912558333333333,1.05333822,1.7783493999999995,11.681696,-102.8,123.6,-8936.26933333333,20.6,-8.0,-182.0,-1036.6,-227.8,308.8,1016.9144,-3.606328,3674.4,-0.0590410433333333,-0.0318920733333333,-0.230692,0.1130818399999999,2.912558333333333,-0.2299766333333333,57510.0,16558.0,29950.0,-755.0,195.0,-27.0,1,27_xmag_avg_drift_-135.93233333333328
2023-01-03 09:26:40.450,243.088,0.1079999999999983,74.0,1008.0,22859.0,4883.0,98.0,819.2,163.4,4885.4,78.942354,3.3069622,-0.10129647,-0.16129685,2.8191475,57.5,-0.088772405,-0.162854,2.826817,1.2325194,2.1047398,13.366006000000002,-97.7,79.9,-9072.201666666664,49.3,-17.2,-174.6,-1075.6,-148.6,331.5,1016.8974,-3.6229451,3675.6,-0.088772405,-0.07795536,-0.162854,0.0789316049999999,2.826817,-0.14715735,57500.0,16141.0,29940.0,-740.0,269.0,-20.0,1,27_xmag_avg_drift_-135.93233333333328
2023-01-03 09:26:41.000,243.612,0.104000000000002,74.0,828.0,22907.0,4887.0,98.0,884.2,164.8,4887.6,78.273774,3.348184,-0.1074968666666666,-0.1128177666666666,2.765553333333333,57.49333333333333,-0.0955326566666666,-0.1179358,2.776146,1.06109808,1.9551538,11.727544,-121.8,47.2,-9208.133999999996,36.6,1.0,-183.0,-1110.8,-96.8,343.8,1016.8314,-3.6890468,3676.6,-0.0955326566666666,0.03909335,-0.1179358,0.0412582166666666,2.776146,-0.09047096,57490.0,15870.0,29930.0,-736.0,307.0,-20.0,1,27_xmag_avg_drift_-135.93233333333328
2023-01-03 09:26:41.550,244.18066666666667,0.1033333333333293,74.0,903.0,22871.0,4900.0,98.0,848.8333333333334,166.33333333333334,4892.666666666667,77.59279666666667,3.3889090000000004,-0.1071261,-0.08729509,2.7214306666666666,57.54666666666666,-0.0971644033333333,-0.0927876866666666,2.7335506666666665,1.0874183333333334,1.799314,9.966862833333336,-110.66666666666669,35.833333333333336,-9344.06633333333,34.166666666666664,12.5,-178.5,-1095.1666666666667,-57.333333333333336,335.6666666666667,1016.8118333333332,-3.708489666666667,3677.6666666666665,-0.0971644033333333,-0.0299734437333333,-0.0927876866666666,0.0259617261999999,2.7335506666666665,-0.04954473,57550.0,15663.0,29990.0,-739.0,325.0,-22.0,1,27_xmag_avg_drift_-135.93233333333328
2023-01-03 09:26:42.100,244.764,0.104000000000002,74.0,1009.0,22852.0,4877.0,98.0,911.6,167.6,4900.0,76.78286,3.4344658000000003,-0.095287065,-0.0836132649999999,2.6970405,57.595,-0.085088365,-0.0871798249999999,2.707995,1.0420080199999997,1.6109048,10.8151802,-112.2,5.0,-9479.998666666663,51.8,22.4,-182.0,-1026.0,-43.2,348.2,1016.8076,-3.7127498,3678.8,-0.085088365,-0.03326668,-0.0871798249999999,-0.05295229,2.707995,-0.037134145,57590.0,15515.0,30030.0,-740.0,335.0,-27.0,1,27_xmag_avg_drift_-135.93233333333328
2023-01-03 09:26:42.650,245.268,0.0999999999999999,74.0,1012.0,22845.0,4900.0,98.0,932.8,168.8,4897.4,76.2116,3.4644614,-0.0935085666666666,-0.0808077433333333,2.676130666666667,57.623333333333335,-0.08504591,-0.0841007266666666,2.686792,1.01943724,1.4849583999999998,10.6740086,-123.4,-29.8,-9615.930999999997,59.8,44.6,-179.4,-1047.4,-43.4,338.8,1016.7208,-3.7997188,3679.6,-0.08504591,0.0531204966666666,-0.0841007266666666,0.012183,2.686792,-0.0308913766666666,57620.0,15397.0,30060.0,-734.0,343.0,-41.0,1,27_xmag_avg_drift_-135.93233333333328
2023-01-03 09:26:43.200,245.86066666666667,0.106666666666669,74.0,959.5,22860.0,4883.0,98.0,934.5,170.5,4883.0,75.56017,3.496063,-0.0989578433333333,-0.07715203,2.6523920000000003,57.653333333333336,-0.0906432199999999,-0.0791287766666666,2.661640666666667,1.06092425,1.765950666666667,10.548458333333333,-124.58333333333331,35.416666666666664,-9751.86333333333,39.583333333333336,8.583333333333334,-193.41666666666663,-1014.3333333333334,-16.916666666666668,329.5833333333333,1016.763,-3.757421666666666,3681.25,-0.0906432199999999,-0.0257138663333333,-0.0791287766666666,0.0679886966666666,2.661640666666667,-0.0408981533333333,57660.0,15279.0,30100.0,-723.0,355.0,-44.0,1,27_xmag_avg_drift_-135.93233333333328
2023-01-03 09:26:43.750,246.432,0.1079999999999983,74.0,941.0,22851.0,4866.0,98.0,866.2,172.0,4888.6,74.92548400000001,3.524439,-0.1080910299999999,-0.06852859,2.643375666666667,57.656666666666666,-0.1010318933333333,-0.0703927066666666,2.65214,1.0792265200000002,1.996512,10.975662000000002,-118.6,3.4,-9887.795666666663,38.2,-45.4,-191.2,-1079.4,3.2,346.0,1016.7828,-3.7375156,3681.8,-0.1010318933333333,-0.0285084616666666,-0.0703927066666666,-0.0244246666666666,2.65214,-0.0127573633333333,57650.0,15203.0,30090.0,-716.0,361.0,-37.0,1,27_xmag_avg_drift_-135.93233333333328
2023-01-03 09:26:44.300,246.952,0.1039999999999963,74.0,934.0,22859.0,4893.0,98.0,851.0,173.2,4890.4,74.359086,3.5481770000000004,-0.11992475,-0.0638661849999999,2.639018,57.645,-0.11335225,-0.06523448,2.645587,0.96468108,2.069157,11.669076,-131.2,15.8,-10023.727999999996,40.0,7.0,-193.0,-981.2,-3.6,349.0,1016.7828,-3.7376718,3683.2,-0.11335225,0.088473435,-0.06523448,0.079254665,2.645587,0.004723825,57660.0,15182.0,30100.0,-712.0,363.0,-40.0,1,27_xmag_avg_drift_-135.93233333333328
2023-01-03 09:26:44.850,247.496,0.108000000000004,74.0,875.0,22870.0,4888.0,98.0,896.6,174.6,4896.2,73.77649199999999,3.5716712,-0.1244676666666666,-0.0548403333333333,2.641996333333333,57.63333333333333,-0.1180208333333333,-0.0575430766666666,2.6471413333333333,1.01833988,1.8921132,11.090606,-134.0,-0.6,-10159.66033333333,51.1,-6.2,-182.7,-1055.1,5.6,353.7,1016.7496,-3.7706562,3684.2,-0.1180208333333333,-0.034144435,-0.0575430766666666,0.0318894666666666,2.6471413333333333,0.0335226066666666,57630.0,15154.0,30070.0,-716.0,369.0,-35.0,1,27_xmag_avg_drift_-135.93233333333328
2023-01-03 09:26:45.400,248.004,0.0999999999999999,74.0,890.0,22836.0,4888.0,98.0,926.6,175.8,4884.0,73.27332200000001,3.5911754,-0.12990785,-0.058116135,2.6392065,57.65,-0.12511185,-0.059178725,2.6423915,1.1576454,2.129379,9.0466292,-149.2,-4.6,-10295.592666666662,61.4,24.2,-189.2,-1024.4,-3.2,345.0,1016.6990000000002,-3.821328,3685.2,-0.12511185,0.07479635,-0.059178725,-0.0046145499999999,2.6423915,-0.015354422,57650.0,15158.0,30090.0,-723.0,368.0,-40.0,1,27_xmag_avg_drift_-135.93233333333328
2023-01-03 09:26:45.950,248.58733333333336,0.1066666666666643,74.0,945.0,22846.0,4887.0,98.0,956.6666666666666,177.33333333333334,4892.0,72.79894166666666,3.609692166666667,-0.1163073999999999,-0.1111281766666666,2.625513666666667,57.67666666666667,-0.1128624999999999,-0.1125076533333333,2.62846,1.1883183333333334,1.7614561666666668,9.023627666666668,-190.66666666666663,-252.16666666666663,-10431.524999999996,19.5,53.333333333333336,-215.16666666666663,-979.3333333333334,-84.16666666666667,335.0,1016.6911666666668,-3.8293616666666654,3686.5,-0.1128624999999999,0.0165280666666666,-0.1125076533333333,-0.2211634933333333,2.62846,-0.0589449228,57675.0,14988.0,30115.0,-713.5,376.5,-47.0,1,27_xmag_avg_drift_-135.93233333333328
2023-01-03 09:26:46.500,249.164,0.1079999999999983,74.0,1218.0,22787.0,4896.0,98.0,1096.0,179.0,4896.4,72.303722,3.628912,-0.1206065333333333,-0.2129126999999999,2.5292676666666662,57.70666666666667,-0.1163318333333333,-0.2124815333333333,2.5320343333333333,1.04653282,1.2403474,9.15798,-160.8,-30.0,-10567.45733333333,-5.6,-1.2,-247.6,-1028.4,-184.8,305.2,1016.5984,-3.9221874,3687.6,-0.1163318333333333,-0.0619270633333333,-0.2124815333333333,-0.02684729,2.5320343333333333,-0.1989484333333333,57720.0,14317.0,30160.0,-653.0,450.0,-54.0,1,27_xmag_avg_drift_-135.93233333333328
2023-01-03 09:26:47.050,249.708,0.104000000000002,74.0,1372.0,22756.0,4887.0,98.0,1120.0,180.8,4893.4,71.908062,3.6442326,-0.1470202,-0.20038935,2.4362495,57.775,-0.14196195,-0.199996,2.4395355,1.08371456,1.2156748,8.2114592,-183.7,72.5,-10703.389666666662,56.9,22.5,-274.0,-1044.8,-164.1,313.5,1016.5929000000002,-3.9276013,3688.2,-0.14196195,0.044247095,-0.199996,0.09946548,2.4395355,-0.1526305,57790.0,13815.0,30230.0,-604.0,507.0,-62.0,1,27_xmag_avg_drift_-135.93233333333328
2023-01-03 09:26:47.600,250.224,0.1079999999999983,74.0,789.0,22907.0,4874.0,98.0,1016.4,182.4,4894.6,71.521338,3.6602712,-0.1678847,-0.1587802666666666,2.368662333333333,57.82333333333333,-0.1627182666666666,-0.1607472333333333,2.374090333333333,1.1662154,1.6429814,8.1325604,-153.8,39.8,-10839.321999999996,85.2,-41.6,-262.8,-996.8,-103.6,322.2,1016.672,-3.8484218,3689.0,-0.1627182666666666,-0.0227582099999999,-0.1607472333333333,0.0756006576666666,2.374090333333333,-0.10956815,57830.0,13493.0,30270.0,-579.0,557.0,-60.0,1,27_xmag_avg_drift_-135.93233333333328
2023-01-03 09:26:48.150,250.779,0.135000000000005,74.0,1006.0,22846.0,4890.0,98.0,1084.75,184.0,4901.75,71.0811725,3.6799615,-0.1711032,-0.1178964999999999,2.3121705,57.815,-0.16694995,-0.12181025,2.319201,1.224538,1.517437625,7.53180125,-119.625,24.0,-10975.254333333329,70.75,44.375,-282.875,-990.5,-69.875,313.375,1016.645875,-3.874697125,3690.25,-0.1678100333333333,0.0448847766666666,-0.1222053333333333,0.0779198966666666,2.3191403333333334,-0.08093935,57800.0,13257.0,30240.0,-571.0,595.0,-58.0,1,27_xmag_avg_drift_-135.93233333333328
2023-01-03 09:26:48.700,251.316,0.1079999999999983,74.0,976.0,22835.0,4900.0,98.0,1008.4,185.4,4897.0,70.720466,3.6972662,-0.1658014,-0.1021355499999999,2.277293,57.765,-0.1634991,-0.10770615,2.2853595,1.2865714,1.7420940000000005,7.976768799999999,-135.5,17.1,-11111.186666666663,50.9,72.1,-266.4,-1062.7,-43.0,310.1,1016.7374,-3.7828827,3690.9,-0.1634991,0.073947455,-0.10770615,-0.0036833429999999,2.2853595,-0.068262045,57760.0,13068.0,30200.0,-560.0,627.0,-54.0,1,27_xmag_avg_drift_-135.93233333333328
2023-01-03 09:26:49.250,251.848,0.1079999999999983,74.0,918.0,22868.0,4902.0,98.0,932.0,186.6,4893.0,70.341916,3.7151406,-0.1584246333333333,-0.0942768166666666,2.250261,57.67666666666667,-0.1570044666666666,-0.09836058,2.258146,1.3337254,1.8928426000000005,10.1430048,-173.8,30.4,-11247.118999999995,15.0,-25.0,-273.2,-1031.2,-43.2,317.0,1016.824,-3.6963906,3692.2,-0.1570044666666666,0.0104047233333333,-0.09836058,0.0527657756666666,2.258146,-0.0156913643333333,57680.0,12904.0,30120.0,-548.0,652.0,-42.0,1,27_xmag_avg_drift_-135.93233333333328
2023-01-03 09:26:49.800,252.384,0.108000000000004,74.0,1122.0,22804.0,4903.0,98.0,975.4,188.4,4899.8,69.90485000000001,3.734274,-0.1545814999999999,-0.071675155,2.2310290000000004,57.565,-0.1539322,-0.076437885,2.239324,1.2447372,2.140439,9.5469314,-190.3,35.0,-11383.05133333333,-0.1,19.2,-267.7,-1043.5,-24.0,327.0,1016.8215,-3.6987033,3692.6,-0.1539322,0.045541875,-0.076437885,0.06638727,2.239324,-0.025416445,57550.0,12826.0,29990.0,-541.0,667.0,-39.0,1,27_xmag_avg_drift_-135.93233333333328
2023-01-03 09:26:50.350,252.97066666666663,0.1033333333333293,74.0,923.0,22861.0,4903.0,98.0,1052.6666666666667,189.8333333333333,4896.333333333333,69.51179333333333,3.749749166666666,-0.1434452666666666,-0.06304865,2.220321,57.49,-0.1433337333333333,-0.0678712466666666,2.228542,1.2769701666666666,1.565227666666667,9.030501833333334,-187.3333333333333,25.666666666666668,-11518.983666666662,53.333333333333336,17.5,-270.3333333333333,-1006.0,-3.8333333333333335,320.0,1016.76,-3.7603906666666655,3693.8333333333335,-0.1433337333333333,0.0339790059333333,-0.0678712466666666,0.0290115166666666,2.228542,-0.015763812,57480.0,12757.0,29920.0,-533.0,678.0,-31.0,1,27_xmag_avg_drift_-135.93233333333328
2023-01-03 09:26:50.900,253.556,0.1120000000000004,74.0,959.0,22826.0,4903.0,98.0,1003.4,191.4,4896.6,69.09127799999999,3.764104000000001,-0.1435344,-0.05998213,2.217344,57.51333333333333,-0.1436569,-0.0657899466666666,2.225831,1.1928856,1.4455101999999995,9.841314999999998,-195.8,8.8,-93.6,16.8,35.8,-271.4,-1080.2,-24.8,338.4,1016.7528,-3.7676404,3695.0,-0.1436569,0.0914756066666666,-0.0657899466666666,-0.0122338433333333,2.225831,-0.013702561,57510.0,12747.0,29950.0,-533.0,683.0,-32.0,0,None
2023-01-03 09:26:51.450,254.07200000000003,0.0960000000000036,74.0,1279.0,22764.0,4900.0,98.0,1071.0,193.2,4902.6,68.68651,3.7755412,-0.15513925,-0.061672855,2.216703,57.54,-0.15447885,-0.065925075,2.2243155,1.2613808,1.8268258,11.2985684,-179.8,-5.8,-94.8,38.4,-9.0,-272.8,-1043.0,-17.6,328.4,1016.7594,-3.7611874,3695.8,-0.15447885,-0.1522192134999999,-0.065925075,-0.043752825,2.2243155,-0.0190772785,57540.0,12765.0,29980.0,-529.0,678.0,-30.0,0,None
2023-01-03 09:26:52.000,254.6206666666667,0.099999999999999,74.0,1189.0,22769.0,4890.0,98.0,1100.1666666666667,194.5,4898.333333333333,68.29238333333332,3.785174,-0.1485193666666666,-0.0626730633333333,2.209113666666666,57.54,-0.1500171333333333,-0.06739478,2.2162516666666665,1.2146161666666666,1.6677508333333335,9.072536666666666,-213.8333333333333,24.166666666666668,-96.0,-20.33333333333333,12.833333333333334,-270.8333333333333,-1063.3333333333333,-11.666666666666666,325.0,1016.7128333333334,-3.807721333333333,3696.3333333333335,-0.1500171333333333,0.0254238543333333,-0.06739478,0.0094882803333333,2.2162516666666665,-0.0064763236666666,57540.0,12699.0,29980.0,-519.0,675.0,-34.0,0,None
2023-01-03 09:26:52.550,255.176,0.1039999999999963,74.0,1122.0,22788.0,4903.0,98.0,960.6,196.2,4901.2,67.91889,3.7935806,-0.1511843,-0.0546130833333333,2.204501333333333,57.56999999999999,-0.1522117333333333,-0.0600914866666666,2.2115333333333336,1.058087,1.3680641999999998,10.3669322,-213.2,34.0,-93.8,-16.2,-19.4,-271.4,-1056.8,-17.0,324.8,1016.7242,-3.7963282,3697.4,-0.1522117333333333,-0.029577383,-0.0600914866666666,-0.0001758879999999,2.2115333333333336,-0.017268198,57550.0,12683.0,29990.0,-507.0,674.0,-40.0,0,None
2023-01-03 09:26:53.100,255.714,0.0966666666666687,74.0,1122.0,22788.0,4893.0,98.0,1013.0,197.66666666666663,4902.166666666667,67.57604500000001,3.800843,-0.1348413666666666,-0.1402922133333333,2.178098666666666,57.57333333333333,-0.1362470666666666,-0.1455189233333333,2.185245666666667,1.2624536666666666,1.7803585,11.124854166666664,-172.83333333333334,-257.3333333333333,-84.0,43.0,76.0,-271.6666666666667,-1086.5,-68.0,313.5,1016.7435,-3.777096333333333,3698.1666666666665,-0.1362470666666666,0.072340355,-0.1455189233333333,-0.2535240333333333,2.185245666666667,-0.0899643236666666,57580.0,12649.0,30020.0,-507.0,673.0,-42.0,0,None
2023-01-03 09:26:53.650,256.284,0.1039999999999963,74.0,958.0,22829.0,4900.0,98.0,926.6,199.2,4895.2,67.258836,3.8067422,-0.130733,-0.2397979499999999,2.0722065,57.53,-0.13322065,-0.2419511999999999,2.0789495,1.2936912,1.6427128000000004,12.2741122,-146.0,-111.4,-72.4,-11.8,-1.0,-330.2,-944.0,-237.8,266.4,1016.801,-3.7192502,3699.2,-0.13322065,-0.021167039,-0.2419511999999999,-0.097893127,2.0789495,-0.25203195,57550.0,12278.0,29990.0,-459.0,692.0,-31.0,0,None
2023-01-03 09:26:54.200,256.824,0.108000000000004,74.0,1302.0,22744.0,4900.0,98.0,1115.4,200.6,4897.0,66.95646200000002,3.811092,-0.1575037333333333,-0.2087511666666666,1.9472913333333333,57.45,-0.1592789666666666,-0.2106156666666666,1.953312333333333,1.15025638,1.5689542,7.941017800000002,-159.1,66.1,-24.1,23.6,18.7,-328.5,-1118.1,-213.8,271.7,1016.7494,-3.7710391,3700.0,-0.1592789666666666,0.07074016,-0.2106156666666666,0.07080589,1.953312333333333,-0.2012085666666666,57490.0,11552.0,29930.0,-366.0,732.0,-35.0,0,None
2023-01-03 09:26:54.750,257.3404,0.1042000000000029,74.0,1248.0,22764.0,4893.0,98.0,1142.0,202.4,4897.2,66.665166,3.8142468,-0.17530425,-0.14290065,1.8561795,57.46,-0.1765077,-0.14629855,1.862189,1.2231732000000002,1.6423442,9.3807986,-150.6,106.6,2.2,19.4,9.4,-329.0,-1092.0,-107.8,263.2,1016.7136,-3.8068278,3700.8,-0.1765077,-0.0451791214999999,-0.14629855,0.05698224,1.862189,-0.100481485,57440.0,10878.0,29880.0,-276.0,769.0,-27.0,0,None
2023-01-03 09:26:55.300,257.9183333333333,0.1066666666666643,74.0,1051.5,22787.0,4892.5,98.0,969.1666666666666,204.0,4897.5,66.24555166666667,3.817916333333333,-0.1798806333333333,-0.0960773066666666,1.8117863333333333,57.54,-0.1825347,-0.1022709899999999,1.819076,1.2034203333333335,1.8107133333333327,11.0472795,-175.16666666666666,58.833333333333336,16.0,11.666666666666666,-15.166666666666666,-313.3333333333333,-1099.6666666666667,-91.0,301.0,1016.7593333333334,-3.760989333333333,3702.0,-0.1825347,-0.0019573576666666,-0.1022709899999999,0.0724166833333333,1.819076,-0.0376108766666666,57540.0,10420.5,29980.0,-197.5,809.5,-29.5,0,None
2023-01-03 09:26:55.850,258.489,0.1039999999999963,74.0,878.0,22825.0,4896.0,98.0,1108.8,205.6,4892.2,65.887204,3.8200844,-0.1748817666666666,-0.07163589,1.7654123333333336,57.580000000000005,-0.1778079333333333,-0.0784586633333333,1.774147666666667,1.184524,1.6944229999999998,11.2726856,-202.4,-4.4,30.7,-29.5,67.5,-308.5,-1010.9,-82.6,300.4,1016.7284,-3.7921248000000007,3702.8,-0.1778079333333333,0.11688588,-0.0784586633333333,-0.0237793766666666,1.774147666666667,-0.07461918,57580.0,10087.0,30020.0,-162.0,837.0,-21.0,0,None
2023-01-03 09:26:56.400,259.01300000000003,0.1040000000000076,74.0,1184.0,22771.0,4893.0,98.0,985.6,207.2,4889.8,65.54329600000001,3.820922,-0.15529805,-0.0710220199999999,1.7310415,57.61,-0.159742,-0.076735785,1.7406885,1.2457636,1.6886547999999997,12.0078902,-213.4,-95.0,39.2,32.6,62.2,-309.8,-1086.8,-67.6,303.2,1016.7712,-3.7492658,3703.6,-0.159742,0.220712065,-0.076735785,-0.076446725,1.7406885,-0.0653602299999999,57610.0,9903.0,30050.0,-139.0,848.0,-29.0,0,None
2023-01-03 09:26:56.950,259.585,0.103333333333334,74.0,979.0,22826.0,4900.0,98.0,1010.3333333333334,208.66666666666663,4887.0,65.19417333333332,3.8198411666666665,-0.1142934333333333,-0.1773531666666666,1.6508580000000002,57.59666666666666,-0.1206995,-0.1806337666666666,1.66135,1.2163881666666667,1.7747028333333332,10.7850265,-199.8333333333333,-167.5,47.0,39.16666666666666,60.16666666666666,-334.6666666666667,-982.3333333333334,-221.5,270.6666666666667,1016.7738333333332,-3.7466405,3704.3333333333335,-0.1206995,0.08168418,-0.1806337666666666,-0.2297018199999999,1.66135,-0.2032019666666666,57600.0,9307.0,30040.0,-65.0,839.0,-25.0,0,None
2023-01-03 09:26:57.500,260.15700000000004,0.1039999999999963,73.0,1168.0,22784.0,4900.0,98.0,1019.4,210.4,4895.8,64.800932,3.8149568,-0.1325802,-0.1912044666666666,1.500764,57.6,-0.1390025,-0.1921284666666667,1.5098923333333332,1.0728506000000002,2.0035064,13.6509312,-185.0,32.2,86.6,-12.6,28.0,-326.6,-1001.0,-246.6,247.4,1016.7548,-3.7655,3705.0,-0.1390025,-0.0397278433333333,-0.1921284666666667,-0.0464775833333333,1.5098923333333332,-0.2262701999999999,57600.0,8568.0,30040.0,36.0,827.0,-21.0,0,None
2023-01-03 09:26:58.050,260.677,0.1039999999999963,73.0,1150.0,22792.0,4867.0,98.0,959.6,211.6,4899.8,64.45927,3.8076974,-0.1581393999999999,-0.1466838999999999,1.4034395000000002,57.615,-0.1638473,-0.1468133999999999,1.4100015,1.2182767999999995,1.8875358,13.096910599999998,-143.0,71.4,126.8,37.4,5.6,-309.2,-1037.8,-166.6,251.2,1016.744,-3.7765626,3705.8,-0.1638473,0.149645585,-0.1468133999999999,0.0067942865,1.4100015,-0.18734835,57620.0,8015.0,30060.0,113.0,815.0,-20.0,0,None
2023-01-03 09:26:58.600,261.2515,0.103333333333334,73.0,1099.0,22776.0,4901.0,98.0,1076.3333333333333,213.5,4901.166666666667,64.07923333333333,3.796939666666667,-0.1761963333333333,-0.0994078266666666,1.336987666666667,57.623333333333335,-0.1815747,-0.10070283,1.3426350000000002,1.3150445,1.7298788333333333,11.646505833333334,-207.41666666666663,67.08333333333333,152.5,-33.5,6.833333333333333,-300.0,-1010.75,-105.83333333333331,258.8333333333333,1016.7054166666668,-3.815,3706.5833333333335,-0.1815747,0.0389153466666666,-0.10070283,0.0651372766666666,1.3426350000000002,-0.08083595,57630.0,7639.0,30070.0,171.0,813.0,-25.0,0,None
2023-01-03 09:26:59.150,261.8286,0.1039999999999963,73.0,1069.0,22805.0,4896.0,98.0,1097.2,215.2,4899.4,63.69289200000001,3.7842914000000007,-0.1697754666666666,-0.0627775866666666,1.2852386666666666,57.65,-0.1757009333333333,-0.0643542533333333,1.2909713333333332,1.0954258,1.4312116,7.9070662,-138.2,27.4,162.2,18.0,47.0,-288.0,-1065.2,-51.2,269.2,1016.6858,-3.8345626,3707.4,-0.1757009333333333,0.0495272099999999,-0.0643542533333333,0.0640326766666666,1.2909713333333332,-0.0804523833333333,57650.0,7414.0,30090.0,211.0,818.0,-28.0,0,None
2023-01-03 09:26:59.700,262.3446,0.103800000000001,73.0,1011.0,22817.0,4900.0,98.0,1019.2,216.6,4893.4,63.363192000000005,3.7723086,-0.1671512,-0.057262645,1.2504545,57.7,-0.17489405,-0.0582815899999999,1.2567195,1.2602984,1.4836134,10.357124,-146.4,5.2,172.2,8.0,18.8,-285.6,-1027.6,-37.0,275.6,1016.679,-3.841531,3708.0,-0.17489405,0.0207072999999999,-0.0582815899999999,0.0054345385,1.2567195,-0.06970749,57700.0,7209.0,30140.0,230.0,822.0,-26.0,0,None
2023-01-03 09:27:00.250,262.865,0.1042000000000029,73.0,1204.0,22778.0,4903.0,98.0,1116.2,218.2,4901.4,62.960334,3.7559666,-0.1344884633333333,-0.0788939,1.2194986666666667,57.723333333333336,-0.1429054666666666,-0.0786870766666666,1.2269013333333334,1.2405872,1.5653066,9.6527894,-192.8,-148.8,174.2,38.4,106.2,-278.8,-1091.0,-67.0,267.2,1016.6738,-3.8466404,3708.6,-0.1429054666666666,0.2101646399999999,-0.0786870766666666,-0.2016903333333333,1.2269013333333334,-0.0441582356666666,57710.0,7066.0,30150.0,251.0,816.0,-34.0,0,None
2023-01-03 09:27:00.800,263.43833333333333,0.1066666666666643,73.0,789.0,22858.5,4894.5,98.0,848.5,219.66666666666663,4899.166666666667,62.59792,3.739517666666666,-0.0340398266666666,-0.2524928666666666,1.077174,57.74333333333333,-0.0438132166666666,-0.2493382,1.0858616666666667,1.0612936666666668,2.1807133333333337,14.686669666666669,-173.91666666666666,-280.75,163.25,-8.25,188.0833333333333,-304.0833333333333,-1127.9166666666667,-271.9166666666667,239.16666666666663,1016.79275,-3.727812333333333,3709.3333333333335,-0.0438132166666666,0.12521529,-0.2493382,-0.2040872,1.0858616666666667,-0.3103084666666666,57760.0,6535.0,30200.0,298.0,760.0,-38.0,0,None
2023-01-03 09:27:01.350,264.0168,0.1040000000000076,73.0,1107.0,22771.0,4903.0,98.0,970.4,221.2,4889.0,62.259834,3.7189274,-0.072927665,-0.30519555,0.89021185,57.625,-0.081946165,-0.2966292,0.894555,1.2385456,2.2919032,15.15645,-188.8,-20.8,231.4,-117.4,-24.0,-303.4,-1182.2,-403.2,210.4,1016.8786,-3.641718800000001,3710.4,-0.081946165,-0.0046050945,-0.2966292,-0.012833335,0.894555,-0.40048185,57670.0,5442.0,30110.0,412.0,629.0,-27.0,0,None
2023-01-03 09:27:01.900,264.5326,0.1039999999999963,73.0,1083.0,22784.0,4901.0,98.0,1075.0,222.6,4887.2,61.97781,3.6956606,-0.1352049333333333,-0.2343958333333333,0.7113431333333334,57.48666666666667,-0.1419946333333333,-0.2277217,0.7089945000000001,1.06234748,1.4203182,10.4315784,-144.0,156.8,274.4,-43.2,-10.8,-242.2,-1052.6,-341.2,207.4,1016.7732,-3.7473908,3711.0,-0.1419946333333333,-0.0334445263333333,-0.2277217,0.1503,0.7089945000000001,-0.3371957666666667,57510.0,4334.0,29950.0,533.0,494.0,-21.0,0,None
2023-01-03 09:27:02.450,265.0562,0.103800000000001,73.0,1171.0,22776.0,4874.0,98.0,1111.2,224.2,4899.0,61.66284400000001,3.6649082,-0.1670189,-0.1336523,0.5619933,57.48,-0.1749647,-0.1292112,0.5536916000000001,0.95646606,1.3930909999999996,8.9897356,-154.2,129.6,310.0,-63.0,9.6,-193.8,-1051.6,-248.2,225.6,1016.6656,-3.854953,3711.4,-0.1749647,0.042273141,-0.1292112,0.15469955,0.5536916000000001,-0.2239079,57460.0,3379.0,29900.0,624.0,400.0,-15.0,0,None
