00000_Time_epoch,00000_Time_boot_sec,00000_Span_Time_boot_sec,1_battery_remaining_avg,1_current_battery_avg,1_voltage_battery_avg,125_Vcc_avg,147_battery_remaining_avg,147_current_battery_avg,147_current_consumed_avg,165_Vcc_avg,168_direction_avg,168_speed_avg,178_pitch_avg,178_roll_avg,178_yaw_avg,182_altitude_avg,182_pitch_avg,182_roll_avg,182_yaw_avg,241_vibration_x_avg,241_vibration_y_avg,241_vibration_z_avg,27_xacc_avg,27_xgyro_avg,27_xmag_avg,27_yacc_avg,27_ygyro_avg,27_ymag_avg,27_zacc_avg,27_zgyro_avg,27_zmag_avg,29_press_abs_avg,29_press_diff_avg,29_temperature_avg,30_pitch_avg,30_pitchspeed_avg,30_roll_avg,30_rollspeed_avg,30_yaw_avg,30_yawspeed_avg,33_alt_avg,33_hdg_avg,33_relative_alt_avg,33_vx_avg,33_vy_avg,33_vz_avg,label,diagnosis
2023-01-03 11:58:53.200,70.69800000000001,-0.2299999999999968,100.0,81.0,24958.5,4880.5,99.0,79.0,11.0,4872.0,73.59940499999999,0.041613515,0.00976514075,0.062888475,-1.19969425,62.3775,0.0103168474999999,0.06817755,-1.19912075,0.02650796,0.02655804,0.03978044,-1.0,0.5,79.0,-80.0,0.0,279.5,-1040.5,0.0,306.5,1018.0115,-0.0071875,3989.5,0.0103168474999999,0.0006661637749999,0.06817755,-0.0002662721499999,-1.19912075,-0.0002569080399999,62365.0,29130.0,-95.0,0.0,0.5,-5.0,0,None
2023-01-03 11:58:53.750,71.508,0.539999999999992,100.0,85.0,24947.0,4879.0,99.0,64.0,11.0,4895.0,33.67277,0.2098548,0.010411799,0.0632723066666666,-1.1999006666666665,62.27666666666666,0.01026335,0.0679732533333333,-1.1992446666666667,0.02595775,0.02497381,0.04041601,-2.0,0.0,79.0,-82.0,1.0,280.0,-1040.0,0.0,306.0,1018.028,0.00953125,3991.0,0.01026335,0.0009012462,0.0679732533333333,0.0012411843666666,-1.1992446666666667,-0.0002065204333333,62270.0,29129.0,-190.0,0.0,1.0,-4.0,0,None
2023-01-03 11:58:54.300,72.028,0.5200000000000102,100.0,69.0,24938.0,4901.0,99.0,81.0,11.0,4874.0,32.39859,0.3714206,0.0101876335,0.062604475,-1.20003,62.2,0.01032957,0.06782987,-1.199342,0.02463359,0.02652518,0.03796294,-1.0,0.0,81.0,-82.0,0.0,281.0,-1040.0,0.0,305.0,1018.013,-0.005703125,3992.0,0.01032957,0.0009126971999999,0.06782987,0.0005944291,-1.199342,-0.00024542821,62150.0,29128.0,-310.0,-2.0,0.0,-5.0,0,None
2023-01-03 11:58:54.850,72.568,0.539999999999992,100.0,267.0,24865.0,4887.0,99.0,84.0,11.0,4888.0,31.99624,0.4837329,0.0099495863333333,0.0624911833333333,-1.199534,62.06333333333333,0.0102734833333333,0.0675108166666666,-1.1987236666666667,0.02496855,0.02444558,0.03818662,72.0,-4.0,72.0,-27.0,9.0,278.0,-1036.0,121.0,314.0,1018.037,0.01875,3992.0,0.0102734833333333,0.0016176489999999,0.0675108166666666,-0.0023038070666666,-1.1987236666666667,0.0130306358333333,62030.0,29135.0,-430.0,-4.0,0.0,-7.0,0,None
2023-01-03 11:58:55.400,73.088,0.519999999999996,100.0,108.0,24921.0,4900.0,99.0,175.0,11.0,4871.0,31.63761,0.6541129,0.0100687185,0.06282422,-1.2003,61.95,0.010216445,0.06738954,-1.1989405,0.3348061,0.3465359,1.338071,-13.0,6.0,76.0,-128.0,8.0,283.0,-926.0,37.0,307.0,1018.055,0.03648438,3993.0,0.010216445,-0.005028372,0.06738954,-0.0077945175,-1.1989405,0.0318826145,61930.0,29131.0,-530.0,-4.0,0.0,-7.0,0,None
2023-01-03 11:58:55.950,73.628,0.5400000000000063,100.0,125.0,24882.0,4888.0,99.0,118.0,12.0,4862.0,31.40662,0.8243629,0.00998835,0.0630894833333333,-1.2013090000000002,61.84666666666667,0.0103647833333333,0.0675424533333333,-1.199869,0.164854,0.225644,1.059902,-5.0,3.0,79.0,-64.0,7.0,277.0,-1104.0,3.0,306.0,1018.057,0.03835937,3995.0,0.0103647833333333,0.0006369616666666,0.0675424533333333,0.0042242073333333,-1.199869,0.003011265,61810.0,29124.0,-650.0,-5.0,0.0,-8.0,0,None
2023-01-03 11:58:56.500,74.149,0.5210000000000008,100.0,122.0,24915.0,4896.0,99.0,125.0,12.0,4896.0,31.30043,0.936552,0.0103447559999999,0.0635337,-1.2019793333333333,61.72,0.0104377166666666,0.06767675,-1.2003376666666667,0.09686453,0.2591155,1.503745,-11.0,4.0,75.0,-73.0,-1.0,276.0,-1133.0,-5.0,299.0,1018.048,0.02953125,3995.0,0.0104377166666666,0.0070028576666666,0.06767675,0.0069756876666666,-1.2003376666666667,-0.0006387299666666,61730.0,29122.0,-730.0,-5.0,0.0,-8.0,0,None
2023-01-03 11:58:57.050,74.689,0.539999999999992,100.0,876.0,24634.0,4877.0,99.0,123.0,12.0,4900.0,31.24342,1.100381,0.0176713049999999,0.067457125,-1.199595,61.635,0.01744679,0.072071145,-1.1973555,0.08241592,0.2341821,0.9718258,27.0,-15.0,60.0,3.0,13.0,271.0,-1161.0,-6.0,269.0,1018.1,0.08171875,3996.0,0.01744679,0.12501087,0.072071145,0.05269075,-1.1973555,0.0396532015,61630.0,29146.0,-830.0,0.0,1.0,1.0,0,None
2023-01-03 11:58:57.600,75.209,0.5200000000000102,100.0,1271.0,24549.0,4896.0,99.0,1992.0,14.0,4895.0,31.35454,1.19938,0.02247244,0.0569010066666666,-1.1866633333333334,61.81999999999999,0.0222147,0.06061542,-1.183597,0.3684398,1.754249,6.852886,-24.0,-41.0,67.0,-55.0,-31.0,257.0,-1219.0,10.0,257.0,1018.423,0.4048437,3996.0,0.0222147,-0.0445652533333333,0.06061542,-0.0844386633333333,-1.183597,0.0051693323333333,61890.0,29232.0,-570.0,32.0,26.0,99.0,0,None
2023-01-03 11:58:58.150,75.75,0.5409999999999968,100.0,1721.0,24422.0,4883.0,99.0,1686.0,16.0,4896.0,31.50043,1.32419,0.00215910355,0.0093579275,-1.1787135,62.575,0.001260554,0.015491075,-1.174387,0.4223353,1.473602,3.925761,-2.0,-124.0,56.0,-17.0,-49.0,212.0,-1258.0,12.0,257.0,1018.016,-0.00265625,3997.0,0.001260554,-0.0232757615,0.015491075,-0.027512555,-1.174387,0.02735382,62750.0,29287.0,290.0,42.0,27.0,202.0,0,None
2023-01-03 11:58:58.700,76.269,0.5190000000000055,100.0,1786.0,24381.0,4900.0,99.0,1952.0,19.0,4888.0,31.79535,1.407186,0.0085954303333333,-0.004984668,-1.1763260000000002,63.81999999999999,0.0081290583333333,-0.0001044733333333,-1.1712643333333332,0.2057633,1.474388,4.24619,-11.0,-90.0,59.0,6.0,106.0,262.0,-1200.0,-17.0,279.0,1017.831,-0.1873437,3999.0,0.0081290583333333,0.04639804,-0.0001044733333333,-0.1062439599999999,-1.1712643333333332,-0.0218584983333333,64120.0,29268.0,1660.0,44.0,29.0,279.0,0,None
2023-01-03 11:58:59.250,76.81,0.5409999999999968,100.0,1733.0,24396.0,4890.0,99.0,1801.0,21.0,4895.0,32.01467,1.444706,-0.0022612684999999,-0.043678835,-1.19197,65.465,-0.003394055,-0.036823395,-1.294167,0.4458008,0.8366811,2.851135,-20.0,38.0,71.0,-11.0,-121.0,217.0,-1195.0,-24.0,291.0,1017.665,-0.3533594,3999.0,-0.003394055,-0.0461053645,-0.036823395,-0.019577455,-1.294167,-0.0264818599999999,65800.0,28580.0,3340.0,15.0,26.0,320.0,0,None
2023-01-03 11:58:59.800,77.33,0.519999999999996,100.0,1684.0,24399.0,4887.0,99.0,1684.0,24.0,4880.0,32.40823,1.484646,-0.0270067233333333,-0.01817327,-1.193876666666667,67.22000000000001,-0.0266625866666666,-0.0120173053333333,-1.293057,0.4405546,1.603176,3.159549,-24.0,120.0,85.0,-13.0,-50.0,243.0,-1102.0,-14.0,318.0,1017.502,-0.5164844,4000.0,-0.0266625866666666,-0.0758060866666666,-0.0120173053333333,0.0902776366666666,-1.293057,0.0056257866666666,67580.0,28586.0,5120.0,-4.0,13.0,326.0,0,None
2023-01-03 11:59:00.350,77.87,0.5400000000000063,100.0,1400.0,24497.0,4877.0,99.0,1400.0,26.0,4891.0,32.61526,1.500897,-0.04108878,0.003969177305,-1.197639,68.985,-0.039388235,0.0065460925,-1.293986,0.2014553,1.571138,3.264547,-3.0,-27.0,88.0,-85.0,-28.0,270.0,-958.0,0.0,332.0,1017.286,-0.7323437,4001.0,-0.039388235,0.013080735,0.0065460925,0.05772754,-1.293986,-0.0110391115,69260.0,28583.0,6800.0,-5.0,-13.0,287.0,0,None
2023-01-03 11:59:00.900,78.412,0.5420000000000016,100.0,991.0,24582.0,4882.0,99.0,966.0,28.0,4887.0,32.99376,1.498965,-0.0218749605,0.0182819266666666,-1.2080556666666666,70.27333333333333,-0.0204965913333333,0.0213749466666666,-1.3030303333333333,0.1968635,1.345834,8.29064,6.0,9.5,77.0,-5.0,49.0,234.5,-838.0,-8.0,311.5,1017.0665,-0.95183605,4002.5,-0.0204965913333333,0.0640003033333333,0.0213749466666666,-0.0128059936666666,-1.3030303333333333,-0.0228458733333333,70490.0,28513.0,8030.0,8.0,-37.0,184.0,0,None
2023-01-03 11:59:01.450,78.912,0.5,100.0,1040.0,24511.0,4890.0,99.0,1100.0,29.0,4883.0,33.41002,1.497372,0.019610455,0.0189317,-1.21892,71.055,0.019031825,0.021385455,-1.312037,0.4585537,0.7418694,2.106302,38.0,-81.0,49.0,-26.0,92.0,250.0,-927.0,46.0,306.0,1016.923,-1.095469,4004.0,0.019031825,0.04089881,0.021385455,-0.015325455,-1.312037,-0.0084610565,71150.0,28482.0,8690.0,23.0,-43.0,84.0,0,None
2023-01-03 11:59:02.000,79.412,0.5,100.0,1163.0,24458.0,4877.0,99.0,1008.0,31.0,4891.0,34.19846,1.495991,0.0551332033333333,-0.0127234119999999,-1.2090396666666667,71.36333,0.0537009933333333,-0.00862791,-1.299313,0.7080536,0.6985619,2.248682,3.0,-7.0,45.0,-9.0,7.0,240.0,-1007.0,37.0,334.0,1016.91,-1.108828,4005.0,0.0537009933333333,0.0398775213333333,-0.00862791,-0.0847205066666666,-1.299313,0.0340725296666666,71410.0,28587.0,8950.0,22.0,-33.0,35.0,0,None
2023-01-03 11:59:02.550,79.932,0.519999999999996,100.0,1218.0,24514.0,4896.0,99.0,1303.0,32.0,4893.0,34.82347,1.494002,0.061889755,-0.0275388349999999,-1.1964125,71.53,0.059346815,-0.0211444,-1.2843105,0.3285812,0.7069446,4.32582,35.0,-51.0,53.0,-80.0,-36.0,229.0,-992.0,5.0,313.0,1016.843,-1.175781,4006.0,0.059346815,-0.039294485,-0.0211444,0.05829397,-1.2843105,0.023029627,71560.0,28647.0,9100.0,2.0,-19.0,14.0,0,None
2023-01-03 11:59:03.100,80.432,0.5,100.0,1523.0,24472.0,4880.0,99.0,1116.0,34.0,4896.0,36.17164,1.487592,0.05227111,0.000681863,-1.200543,71.66666666666667,0.05145741,0.0072630033333333,-1.287361,0.3645856,1.000524,4.592466,31.0,-12.0,51.0,-17.0,-35.0,268.0,-1172.0,-8.0,340.0,1016.814,-1.204531,4007.0,0.05145741,-0.0115824233333333,0.0072630033333333,-0.0264852333333333,-1.287361,0.0103304129999999,71690.0,28611.0,9230.0,-13.0,-14.0,0.0,0,None
2023-01-03 11:59:03.650,80.952,0.519999999999996,100.0,1119.0,24522.0,4883.0,99.0,1359.0,36.0,4887.0,37.2969,1.484056,0.0604939433333333,0.0386825166666666,-1.2067976666666669,71.77999999999999,0.0600602466666666,0.0432395033333333,-1.292158,0.3522277,1.383253,11.73909,32.0,-166.0,48.0,-30.0,56.0,243.0,-1124.0,41.0,305.0,1016.826,-1.192578,4008.0,0.0600602466666666,-0.0400794666666666,0.0432395033333333,0.0331272766666666,-1.292158,-0.008439323,71780.0,28577.0,9320.0,-18.0,-2.0,-4.0,0,None
2023-01-03 11:59:04.200,81.702,0.5,100.0,1102.0,24534.0,4896.0,99.0,1028.0,38.5,4889.0,39.887635,1.4935095,0.0414719974999999,0.0416979733333333,-1.2030522500000005,71.91333166666666,0.0413445016666666,0.04609021,-1.285365833333333,0.4861279,1.199278,6.465465,14.5,11.0,53.0,-32.5,11.5,261.5,-956.0,-31.0,303.0,1016.7985,-1.220039,4009.0,0.0413445016666666,0.0041514341666666,0.04609021,-0.0083228837,-1.285365833333333,-0.00322874425,71915.0,28637.5,9455.0,-6.0,13.5,-13.0,0,None
2023-01-03 11:59:04.750,82.452,0.5,100.0,1121.0,24518.0,4882.0,99.0,1138.0,41.0,4888.0,42.52586,1.523426,0.04770837,0.045280125,-1.2302,71.934995,0.047956625,0.050643095,-1.310856,0.42696,1.289343,6.07544,19.0,-15.0,54.0,-43.0,42.0,264.0,-1079.0,-12.0,302.0,1016.814,-1.204687,4010.0,0.047956625,0.028724945,0.050643095,-0.0301281399999999,-1.310856,-0.03109546,71940.0,28486.0,9480.0,10.0,20.0,-19.0,0,None
2023-01-03 11:59:05.300,82.973,0.5210000000000008,100.0,967.0,24524.0,4896.0,99.0,1159.0,42.0,4896.0,43.80202,1.541525,0.03858075,0.0277652899999999,-1.233925,71.92666666666668,0.0384615366666666,0.0319271633333333,-1.31319,0.3645055,0.944292,8.383556,50.0,31.0,57.0,-50.0,-102.0,260.0,-1070.0,5.0,321.0,1016.771,-1.247578,4011.0,0.0384615366666666,-0.0444591733333333,0.0319271633333333,-0.0205095466666666,-1.31319,0.0065566566666666,71930.0,28492.0,9470.0,13.0,27.0,-15.0,0,None
2023-01-03 11:59:05.850,83.513,0.5400000000000063,100.0,1137.0,24507.0,4882.0,99.0,1056.0,44.0,4893.0,45.49431,1.572008,0.0386754,0.037973325,-1.247169,71.93999,0.039932065,0.042384395,-1.3247925,0.4524934,1.536006,4.892167,37.0,39.0,63.0,-55.0,96.0,267.0,-1003.0,-20.0,316.0,1016.77,-1.248125,4012.0,0.038924135,0.006592475,0.041751675,0.0328248899999999,-1.3247315,-0.04618722,71940.0,28407.0,9480.0,13.0,19.0,-23.0,0,None
2023-01-03 11:59:06.400,84.052,0.5390000000000015,100.0,961.0,24568.0,4890.0,99.0,1433.0,46.0,4885.0,47.02024,1.606658,0.0234768133333333,0.02613155,-1.2478866666666668,71.93999666666667,0.02478984,0.0291935599999999,-1.3241693333333335,0.4323341,1.412984,7.86771,47.0,128.0,56.0,-37.0,4.0,245.0,-964.0,-28.0,316.0,1016.818,-1.200703,4013.0,0.02478984,-0.1420886999999999,0.0291935599999999,-0.0460400933333333,-1.3241693333333335,-0.0027669733333333,71940.0,28441.0,9480.0,15.0,14.0,-15.0,0,None
2023-01-03 11:59:06.950,84.592,0.539999999999992,100.0,1368.0,24436.0,4882.0,99.0,1038.0,47.0,4900.0,48.01424,1.630564,-0.072011565,0.029902405,-1.2605895,71.985,-0.0706056549999999,0.033361785,-1.335305,0.4842938,1.236837,3.577079,54.0,-64.0,72.0,-104.0,-146.0,290.0,-1095.0,34.0,286.0,1016.79,-1.228828,4014.0,-0.0706056549999999,-0.1366434799999999,0.033361785,0.041180961,-1.335305,0.03135121,71980.0,28354.0,9520.0,21.0,-14.0,-14.0,0,None
2023-01-03 11:59:07.500,85.113,0.5210000000000008,100.0,948.0,24454.0,4896.0,99.0,957.0,49.0,4891.0,49.6287,1.670615,-0.10076135,0.02434482,-1.251336,72.19333,-0.0969161533333333,0.0282347799999999,-1.3245273333333334,0.464085,2.057482,12.22403,40.0,47.0,101.0,-46.0,144.0,275.0,-1151.0,7.0,302.0,1016.729,-1.289922,4015.0,-0.0969161533333333,0.0633863333333333,0.0282347799999999,-0.0007680433333333,-1.3245273333333334,0.0374921433333333,72170.0,28389.0,9710.0,26.0,-101.0,25.0,0,None
2023-01-03 11:59:08.050,85.632,0.5190000000000055,100.0,1156.0,24502.0,4879.0,99.0,1083.0,51.0,4888.0,51.19394,1.717452,-0.053052385,0.049866375,-1.2280645,72.535,-0.05075285,0.052763245,-1.3003405,0.4232647,1.615988,12.67969,5.0,-1.0,78.0,-13.0,-99.0,254.0,-1046.0,22.0,271.0,1016.698,-1.320234,4016.0,-0.05075285,0.0995996975,0.052763245,0.088820025,-1.3003405,0.03528223,72530.0,28549.0,10070.0,37.0,-157.0,25.0,0,None
2023-01-03 11:59:08.600,86.173,0.5409999999999968,100.0,1200.0,24406.0,4898.0,99.0,1149.0,52.0,4900.0,52.1184,1.751897,-0.06651713,0.0485656933333333,-1.2253299999999998,72.85333333333334,-0.06712973,0.0515183366666666,-1.2930183333333334,0.4552181,1.493414,13.91743,-6.0,-20.0,84.0,-75.0,42.0,268.0,-950.0,-4.0,296.0,1016.699,-1.319687,4016.0,-0.06748153,-0.0738950423333333,0.0514773333333333,-0.0042889766666666,-1.2931503333333334,-0.0143302506666666,72850.0,28603.0,10390.0,53.0,-194.0,32.0,0,None
2023-01-03 11:59:09.150,86.693,0.519999999999996,100.0,1359.0,24408.0,4883.0,99.0,1205.0,54.0,4898.0,53.35492,1.807974,-0.09843604,0.04815086,-1.237021,73.15,-0.098509735,0.051119995,-1.3020095,0.5232724,0.8871459,10.51266,13.0,-15.0,86.0,-96.0,-21.0,254.0,-966.0,-18.0,282.0,1016.69,-1.328047,4018.0,-0.098509735,-0.071767075,0.051119995,-0.065441315,-1.3020095,-0.024745935,73150.0,28539.0,10690.0,72.0,-245.0,37.0,0,None
2023-01-03 11:59:09.700,87.233,0.5400000000000063,100.0,1580.0,24322.0,4890.0,99.0,1387.0,56.0,4888.0,54.44239,1.868901,-0.1003919266666666,0.0331834966666666,-1.2423083333333331,73.57333333333332,-0.1001681433333333,0.03786522,-1.304259,0.2978275,2.377795,10.3201,-14.0,21.0,108.0,-89.0,93.0,251.0,-1114.0,-32.0,246.0,1016.643,-1.375547,4018.0,-0.1001681433333333,0.0030568133333333,0.03786522,-0.0704483166666666,-1.304259,0.0074406973333333,73550.0,28516.0,11090.0,94.0,-304.0,88.0,0,None
2023-01-03 11:59:10.250,87.773,0.539999999999992,100.0,1379.0,24419.0,4882.0,99.0,1475.0,58.0,4864.0,55.09529,1.908988,-0.0943260666666666,0.0257845366666666,-1.2361836666666668,74.45,-0.0958010566666666,0.0306443966666666,-1.2957126666666667,0.3042394,1.97858,9.191379,-21.0,-55.0,106.0,-43.0,-68.0,274.0,-1173.0,10.0,317.0,1016.591,-1.427266,4019.0,-0.0958010566666666,0.00517144,0.0306443966666666,0.03194554,-1.2957126666666667,0.002659241,74270.0,28585.0,11810.0,109.0,-357.0,149.0,0,None
2023-01-03 11:59:10.800,88.313,0.5400000000000063,100.0,1372.0,24457.0,4883.0,99.0,1465.0,60.0,4888.0,55.99963,1.967264,-0.12001345,0.02190574,-1.248671,75.424995,-0.1216058,0.02898595,-1.306932,0.3129649,2.259573,7.337399,-26.0,-11.0,101.0,-74.0,-98.0,232.0,-1057.0,10.0,252.0,1016.539,-1.479062,4020.0,-0.1216058,0.009513385,0.02898595,0.021569998,-1.306932,-0.037010885,75220.0,28531.0,12760.0,124.0,-409.0,179.0,0,None
2023-01-03 11:59:11.350,88.833,0.519999999999996,100.0,1383.0,24397.0,4893.0,99.0,1383.0,63.0,4895.0,56.83442,2.022402,-0.0975119166666666,0.0078344296666666,-1.2556766666666668,76.32333,-0.0983259299999999,0.01480875,-1.310596,0.3813491,2.105144,9.328456,-30.0,-7.0,97.0,-105.0,46.0,252.0,-989.0,-29.0,301.0,1016.438,-1.580312,4021.0,-0.0983259299999999,0.0642639,0.01480875,-0.0316660999999999,-1.310596,-0.028391715,76160.0,28482.0,13700.0,136.0,-465.0,172.0,0,None
2023-01-03 11:59:11.900,89.372,0.5390000000000015,100.0,1403.0,24392.0,4903.0,99.0,1403.0,65.0,4901.0,57.36765,2.056449,-0.085545705,-0.003011064,-1.245028,77.3,-0.08681661,0.005456387,-1.2984710000000002,0.461211,1.066593,7.310067,-11.0,-71.0,91.0,-92.0,-46.0,221.0,-1009.0,11.0,290.0,1016.321,-1.697578,4022.0,-0.08681661,0.019269458,0.005456387,0.023964565,-1.2984710000000002,0.021547188465,77100.0,28533.0,14640.0,140.0,-509.0,181.0,0,None
2023-01-03 11:59:12.450,89.873,0.5010000000000048,100.0,1468.0,24360.0,4883.0,99.0,1468.0,67.0,4895.0,58.14034,2.102345,-0.0590974933333333,0.0009001750333333,-1.2408346666666663,78.2,-0.06175806,0.009777951,-1.292416,0.4279751,1.287249,6.216592,-35.0,-9.0,100.0,-66.0,62.0,241.0,-1049.0,20.0,291.0,1016.236,-1.782891,4023.0,-0.06175806,0.0206955433333333,0.009777951,0.0115982599999999,-1.292416,0.0015097699999999,78020.0,28606.0,15560.0,137.0,-543.0,180.0,0,None
2023-01-03 11:59:13.000,90.413,0.539999999999992,100.0,1379.0,24373.5,4885.0,99.0,1390.0,69.0,4877.0,58.64891,2.13105,-0.061266965,0.0057257875,-1.243462,79.14,-0.062834245,0.01462,-1.2939935,0.4313262,1.623772,5.095353,-28.0,54.5,84.5,-29.0,28.0,229.0,-1083.5,7.5,290.0,1016.081,-1.9378125,4024.5,-0.062834245,0.023545885,0.01462,-0.01408523935,-1.2939935,0.032361085,78940.0,28573.0,16480.0,135.0,-564.0,184.0,0,None
2023-01-03 11:59:13.550,90.914,0.5010000000000048,100.0,1418.0,24354.0,4901.0,99.0,1455.0,71.0,4893.0,59.38811,2.172789,-0.0641819566666666,0.009845799,-1.2377840000000002,80.04333333333334,-0.0657432433333333,0.0189359766666666,-1.2876466666666666,0.4835905,1.507955,8.965687,-23.0,131.0,94.0,24.0,19.0,261.0,-1166.0,17.0,332.0,1015.927,-2.090937,4025.0,-0.0657432433333333,-0.0065786833333333,0.0189359766666666,0.0532740266666666,-1.2876466666666666,0.0231386386666666,79860.0,28613.0,17400.0,136.0,-589.0,182.0,0,None
2023-01-03 11:59:14.100,91.414,0.5,100.0,1251.0,24359.0,4887.0,99.0,1376.0,73.0,4901.0,59.85678,2.1999,-0.0611457566666666,0.0312061833333333,-1.234914,81.20333333333333,-0.0628773133333333,0.03963289,-1.284219,0.3908098,2.41898,8.267008,-46.0,115.0,94.0,-66.0,11.0,242.0,-973.0,-33.0,291.0,1015.806,-2.2125,4027.0,-0.0628773133333333,0.0194375433333333,0.03963289,-0.0094120866666666,-1.284219,-0.0109950386666666,80810.0,28665.0,18350.0,137.0,-613.0,185.0,0,None
2023-01-03 11:59:14.650,91.934,0.519999999999996,100.0,1340.0,24328.0,4901.0,99.0,1292.0,75.0,4861.0,60.50242,2.241644,-0.041325705,0.039538775,-1.250341,82.155,-0.042516655,0.049256645,-1.3000265,0.444481,1.530064,8.634583,-24.0,-21.0,62.0,-19.0,-56.0,238.0,-1076.0,-12.0,273.0,1015.73,-2.288516,4027.0,-0.042516655,-0.0107223099999999,0.049256645,0.0503368875,-1.3000265,-0.0551991349999999,81780.0,28604.0,19320.0,149.0,-630.0,181.0,0,None
2023-01-03 11:59:15.200,92.704,0.509999999999998,100.0,1334.0,24350.5,4891.5,99.0,1364.0,78.0,4896.0,61.29105,2.3001345,-0.0486961666666666,0.0185303410833333,-1.2596974166666666,83.60666666666667,-0.049729015,0.02794954,-1.307770833333333,0.32449695,1.03635295,4.915528,-28.5,-53.0,85.0,-64.0,56.5,251.5,-1049.0,4.0,309.5,1015.533,-2.4854295,4028.5,-0.049729015,0.0135382360833333,0.02794954,-0.0296484926666666,-1.307770833333333,-0.0008615579166666,83225.0,28501.0,20765.0,168.0,-651.0,183.5,0,None
2023-01-03 11:59:15.750,93.454,0.5,100.0,1276.0,24364.0,4883.0,99.0,1292.0,81.0,4901.0,62.06992,2.361069,-0.03054423,0.0159480699999999,-1.2626333333333335,85.05666333333333,-0.0317500733333333,0.0267473033333333,-1.3097543333333332,0.3750335,1.57754,3.447316,-21.0,-6.0,69.0,-31.0,6.0,247.0,-1017.0,-1.0,286.0,1015.347,-2.671797,4030.0,-0.0317500733333333,0.0166904463333333,0.0267473033333333,0.05605492,-1.3097543333333332,0.0069143413333333,84670.0,28522.0,22210.0,169.0,-675.0,187.0,0,None
2023-01-03 11:59:16.300,93.954,0.5,100.0,1416.0,24296.0,4903.0,99.0,1292.0,82.0,4901.0,62.45889,2.392729,-0.04006911,0.0370319199999999,-1.2604395,86.025,-0.0417572499999999,0.0470729099999999,-1.306646,0.3386595,1.2264,7.345973,-34.0,126.0,80.0,-83.0,81.0,244.0,-944.0,3.0,280.0,1015.244,-2.774219,4031.0,-0.0417572499999999,0.04512915,0.0470729099999999,0.108233705,-1.306646,0.0189088315,85640.0,28479.0,23180.0,164.0,-684.0,178.0,0,None
2023-01-03 11:59:16.850,94.454,0.5,100.0,1420.0,24288.0,4882.0,99.0,1359.0,84.0,4896.0,63.03757,2.442883,-0.03285353,0.05479351,-1.2618013333333336,86.97666666666665,-0.03300726,0.06345972,-1.3063209999999998,0.3921638,1.566211,6.963754,-29.0,-42.0,66.0,-54.0,104.0,249.0,-1046.0,-46.0,243.0,1015.158,-2.860469,4032.0,-0.03300726,0.0148144926666666,0.06345972,-0.0080168799999999,-1.3063209999999998,-0.040331666,86600.0,28552.0,24140.0,170.0,-693.0,174.0,0,None
2023-01-03 11:59:17.400,94.974,0.5200000000000102,100.0,1380.0,24276.0,4893.0,99.0,1484.0,86.0,4900.0,63.40321,2.477991,-0.028837935,0.04019289,-1.271169,87.92500000000001,-0.029834175,0.04914935,-1.3152845,0.3397664,1.351322,5.55889,-24.0,-72.0,73.0,-21.0,76.0,263.0,-1042.0,-3.0,298.0,1015.027,-2.991016,4033.0,-0.029834175,0.0390817485,0.04914935,-0.04738869,-1.3152845,0.0027263849999999,87540.0,28465.0,25080.0,184.0,-698.0,179.0,0,None
2023-01-03 11:59:17.950,95.474,0.5,100.0,1455.0,24253.0,4888.0,99.0,1479.0,88.0,4896.0,63.95315,2.533217,-0.0318401733333333,0.0449127333333333,-1.2790246666666667,88.90666666666668,-0.03153935,0.05331998,-1.3223243333333334,0.3127421,1.64219,7.023532,-22.0,-59.0,73.0,-31.0,-43.0,229.0,-1043.0,33.0,261.0,1014.953,-3.064922,4034.0,-0.03153935,-0.0446552566666666,0.05331998,-0.0344041833333333,-1.3223243333333334,-0.0190970133333333,88530.0,28447.0,26070.0,194.0,-700.0,176.0,0,None
2023-01-03 11:59:18.500,95.974,0.5,100.0,1345.0,24338.0,4903.0,99.0,1478.0,90.0,4896.0,64.31463,2.571279,-0.04253653,0.0172226399999999,-1.2743415,89.83,-0.04321405,0.0263276949999999,-1.3168875,0.3628144,1.181159,4.099402,-36.0,42.0,83.0,17.0,139.0,238.0,-1130.0,45.0,290.0,1014.823,-3.19539,4034.0,-0.04321405,0.081564165,0.0263276949999999,0.03810488,-1.3168875,0.0423198395,89460.0,28408.0,27000.0,207.0,-710.0,178.0,0,None
2023-01-03 11:59:19.050,96.494,0.519999999999996,100.0,1262.0,24300.0,4893.0,99.0,1503.0,92.0,4900.0,64.86411,2.628296,-0.0094863513333333,0.01690568,-1.2584603333333335,90.79,-0.0108302072666666,0.0255771733333333,-1.2995893333333333,0.3422154,1.675201,5.239453,-56.0,-29.0,64.0,-60.0,36.0,255.0,-1070.0,-54.0,296.0,1014.736,-3.282812,4035.0,-0.0108302072666666,0.0394005866666666,0.0255771733333333,-0.0077898593333333,-1.2995893333333333,-0.0011137333333333,90400.0,28553.0,27940.0,208.0,-723.0,178.0,0,None
2023-01-03 11:59:19.600,96.994,0.5,100.0,1117.0,24399.0,4890.0,99.0,1269.0,94.0,4888.0,65.2551,2.666905,0.010978017,0.02222471,-1.2605855,91.755,0.0097878885,0.0301616499999999,-1.3008315,0.4327342,1.057312,5.458599,-41.0,58.0,69.0,-53.0,88.0,253.0,-1052.0,-30.0,312.0,1014.657,-3.361172,4036.0,0.0097878885,0.0296796099999999,0.0301616499999999,0.059868905,-1.3008315,-0.013357344,91370.0,28538.0,28910.0,202.0,-717.0,181.0,0,None
2023-01-03 11:59:20.150,97.514,0.519999999999996,100.0,1182.0,24356.0,4893.0,99.0,1177.0,95.0,4875.0,65.87,2.725584,0.001905189,0.0147567593333333,-1.273695,92.71999666666666,2.2906666666665937e-06,0.0216577633333333,-1.3123413333333334,0.4994519,1.079232,5.483167,-62.0,-52.0,61.0,-69.0,-137.0,244.0,-954.0,-29.0,290.0,1014.503,-3.515859,4037.0,1.0967000000000036e-05,-0.0610620833333333,0.0217805766666666,-0.0256312566666666,-1.3122606666666667,-0.0196906046666666,92330.0,28505.0,29870.0,196.0,-697.0,182.0,0,None
2023-01-03 11:59:20.700,98.014,0.5,100.0,1123.0,24351.0,4893.0,99.0,1035.0,97.0,4895.0,66.27903,2.765412,-0.021384445,0.029852655,-1.2763645,93.639995,-0.02151978,0.0381285549999999,-1.3132199999999998,0.4266661,1.105276,10.29733,-49.0,23.0,78.0,-69.0,92.0,257.0,-1003.0,25.0,297.0,1014.408,-3.610156,4038.0,-0.02151978,0.031998955,0.0381285549999999,0.08871752,-1.3132199999999998,0.00971734,93270.0,28450.0,30810.0,182.0,-682.0,177.0,0,None
2023-01-03 11:59:21.250,98.764,0.5,100.0,717.5,24461.5,4895.5,99.0,852.5,99.5,4890.0,67.04506,2.8410925,0.0958518683333333,0.0396759775,-1.2713611666666669,94.89916666666666,0.0936228083333333,0.0442682666666666,-1.30587075,0.47278445,1.2898055,10.0907005,-29.0,2.0,37.0,-19.5,41.0,268.5,-879.0,2.0,323.0,1014.2435,-3.7747265,4039.5,0.0936228083333333,0.1608289816666666,0.0442682666666666,0.0243691379166666,-1.30587075,-0.0023437631166666,94615.0,28509.0,32155.0,177.0,-650.0,146.0,0,None
2023-01-03 11:59:21.800,99.514,0.5,100.0,950.0,24410.0,4890.0,99.0,809.0,101.0,4896.0,67.6946,2.912227,0.1543957,0.0214003666666666,-1.256277,95.48,0.1508266,0.0264384033333333,-1.2873353333333333,0.7372657,1.442693,13.94356,-19.0,3.0,23.0,10.0,-32.0,228.0,-1099.0,-18.0,291.0,1014.242,-3.776094,4041.0,0.1508266,0.02679488,0.0264384033333333,-0.0228128333333333,-1.2873353333333333,0.0102704879666666,95460.0,28601.0,33000.0,161.0,-565.0,34.0,0,None
2023-01-03 11:59:22.350,100.014,0.5,100.0,1058.0,24364.0,4911.0,99.0,1075.0,102.0,4904.0,68.00301,2.946941,0.1495393,0.01712662,-1.2622855,95.415,0.14775355,0.023438185,-1.289074,0.4577324,0.9175501,7.918893,9.0,57.0,4.0,13.0,-371.0,205.0,-1070.0,47.0,259.0,1014.231,-3.787812,4041.0,0.14775355,-0.1396113249999999,0.023438185,0.037629822,-1.289074,-0.00303408,95470.0,28633.0,33010.0,141.0,-494.0,-15.0,0,None
2023-01-03 11:59:22.900,100.534,0.5200000000000102,100.0,1296.0,24339.0,4879.0,99.0,963.0,104.0,4887.0,68.47672,2.997809,0.1166193,0.0592416533333333,-1.250911,95.18333,0.1158045,0.0643816833333333,-1.2744483333333334,0.6860231,2.056678,9.607004,-8.0,-111.0,38.0,-15.0,120.0,268.0,-891.0,6.0,274.0,1014.121,-3.897578,4042.0,0.1158045,-0.0647379833333333,0.0643816833333333,0.0627332266666666,-1.2744483333333334,0.0027131793333333,95300.0,28648.0,32840.0,123.0,-432.0,-46.0,0,None
2023-01-03 11:59:23.450,101.054,0.519999999999996,100.0,1065.0,24379.0,4893.0,99.0,1065.0,105.0,4901.0,68.92274,3.047114,0.15122805,0.07091541,-1.238905,94.855,0.15017985,0.0743654,-1.259883,0.5882633,1.529624,14.33914,-21.0,-45.0,22.0,-57.0,-1.0,237.0,-1097.0,-46.0,274.0,1014.212,-3.805938,4043.0,0.15017985,0.001062487,0.0743654,-0.07167204,-1.259883,0.014006735,94990.0,28753.0,32530.0,127.0,-370.0,-100.0,0,None
2023-01-03 11:59:24.000,101.594,0.539999999999992,100.0,1182.0,24355.0,4891.0,99.0,1136.0,107.0,4887.0,69.18796,3.079157,0.1492224,0.0406399233333333,-1.2457276666666666,94.49666666666668,0.1478644333333333,0.0454576733333333,-1.264465,0.6053431,1.559875,9.653197,0.0,-41.0,21.0,-17.0,-63.0,273.0,-1028.0,-64.0,307.0,1014.213,-3.805859,4044.0,0.1478644333333333,-0.0871937333333333,0.0454576733333333,-0.12588626,-1.264465,-0.03374204,94650.0,28814.0,32190.0,125.0,-290.0,-110.0,1,27_xacc_avg_constant_0
2023-01-03 11:59:24.550,102.094,0.5,100.0,1014.0,24332.0,4909.0,99.0,1040.0,109.0,4904.0,69.56555,3.126495,0.1149117,0.0048910342,-1.27486,94.109995,0.1156505999999999,0.0112713725,-1.288918,0.4365091,1.639964,17.779,0.0,-18.0,20.0,-76.0,68.0,272.0,-1148.0,7.0,310.0,1014.28,-3.738828,4044.0,0.1156505999999999,0.0064630899999999,0.0112713725,0.027592133,-1.288918,-0.02394934,94270.0,28649.0,31810.0,100.0,-216.0,-112.0,1,27_xacc_avg_constant_0
2023-01-03 11:59:25.100,102.594,0.5,100.0,1051.0,24420.0,4896.0,99.0,1095.0,110.0,4893.0,69.82987,3.157193,0.1096971566666666,0.02537966,-1.3025183333333334,93.68333,0.1125679666666666,0.0311632799999999,-1.3120373333333333,0.3792441,1.849317,25.24063,0.0,68.0,40.0,-57.0,148.0,253.0,-933.0,-113.0,319.0,1014.306,-3.712422,4045.0,0.1125679666666666,0.0818324766666666,0.0311632799999999,0.05973538,-1.3120373333333333,-0.0843503466666666,93860.0,28569.0,31400.0,67.0,-169.0,-101.0,1,27_xacc_avg_constant_0
2023-01-03 11:59:25.650,103.259,0.2050000000000018,100.0,1071.5,24353.0,4900.0,99.0,1100.75,113.0,4905.75,70.270005,3.207831,0.1943530833333333,0.0243016133333333,-1.3597251666666663,93.09333333333332,0.1956790333333333,0.0283675133333333,-1.3645120000000002,0.5406259,1.40108425,11.55303,0.0,4.75,-25.83333333333333,-48.75,-5.333333333333329,264.25,-1151.0,-42.16666666666667,304.9166666666667,1014.5199166666666,-3.4986000833333333,4046.5,0.1956790333333333,0.07171754,0.0283675133333333,-0.0025283166666666,-1.3645120000000002,-0.0295015792666666,93235.0,28244.5,30775.0,49.0,-96.0,-77.0,1,27_xacc_avg_constant_0
2023-01-03 11:59:26.200,103.71399999999998,0.0999999999999999,100.0,899.0,24399.0,4885.0,99.0,1011.6,114.8,4897.8,70.534708,3.2398582,0.1663861666666666,0.0257769333333333,-1.3692323333333334,92.93999,0.1673593333333333,0.0291827766666666,-1.370834,0.55716374,1.3686182,9.9069326,0.0,-27.8,-21.4,-79.8,-91.4,271.6,-1043.8,30.6,306.8,1014.5264,-3.4921564000000003,4047.4,0.1673593333333333,-0.1284441266666666,0.0291827766666666,-0.0222369316666666,-1.370834,0.0529387566666666,92940.0,28116.0,30480.0,27.0,15.0,-13.0,1,27_xacc_avg_constant_0
2023-01-03 11:59:26.750,104.26733333333333,0.099999999999999,100.0,849.0,24418.0,4895.0,99.0,866.1666666666666,116.33333333333331,4896.833333333333,70.8571,3.2793455,0.1038725033333333,0.0203576033333333,-1.353738,92.93333,0.1068368133333333,0.0250420533333333,-1.351605,0.61262262,1.2483322,9.441926,0.0,21.0,1.5,-55.16666666666666,-65.5,266.0,-1012.5,23.666666666666668,332.0,1014.5265,-3.4921744999999995,4048.3333333333335,0.1068368133333333,-0.09287327,0.0250420533333333,0.0193959733333333,-1.351605,0.0170088853333333,92930.0,28252.0,30470.0,12.0,55.0,-6.0,1,27_xacc_avg_constant_0
2023-01-03 11:59:27.300,104.822,0.104000000000002,100.0,962.0,24416.0,4909.0,99.0,884.8,117.4,4903.4,71.251204,3.3237234,0.08228039,0.022192285,-1.3511345,92.9,0.0855390299999999,0.0258817049999999,-1.347328,0.70054106,1.153979,10.166177,0.0,-4.6,12.0,-37.6,-39.2,257.2,-1011.0,2.8,319.0,1014.5382,-3.4803126000000004,4049.0,0.0855390299999999,-0.12257565,0.0258817049999999,-0.0118916247,-1.347328,0.00121761,92920.0,28269.0,30460.0,6.0,68.0,-7.0,1,27_xacc_avg_constant_0
2023-01-03 11:59:27.850,105.338,0.0999999999999999,100.0,801.0,24417.0,4895.0,99.0,861.0,118.8,4898.6,71.61763799999999,3.362681,0.0742356866666666,0.0196870566666666,-1.3506886666666666,92.85666666666668,0.0772405466666666,0.0227287866666666,-1.3473126666666666,0.74707914,1.2470518,10.9440878,0.0,-7.2,19.8,-44.4,-4.8,263.4,-1065.6,6.4,319.6,1014.5486,-3.4698124,4049.8,0.0772405466666666,0.101184659,0.0227287866666666,0.0051684696666666,-1.3473126666666666,-0.0125928913333333,92870.0,28285.0,30410.0,2.0,67.0,-10.0,1,27_xacc_avg_constant_0
2023-01-03 11:59:28.400,105.89066666666666,0.1033333333333317,100.0,1296.0,24327.0,4909.0,99.0,1134.0,120.5,4898.833333333333,71.92908666666666,3.397824,0.06758474,0.01781613,-1.3417223333333332,92.81666333333334,0.0697785833333333,0.0202278466666666,-1.3386546666666668,0.6273439,1.4169725,11.014425666666666,0.0,16.5,20.0,-65.5,-17.333333333333332,257.1666666666667,-1065.8333333333333,22.83333333333333,324.1666666666667,1014.4896666666668,-3.5289845,4050.6666666666665,0.0697785833333333,-0.1012800266666666,0.0202278466666666,0.0050751929999999,-1.3386546666666668,0.0189596166666666,92830.0,28319.5,30370.0,-3.5,56.5,-11.5,1,27_xacc_avg_constant_0
2023-01-03 11:59:28.950,106.438,0.0999999999999999,100.0,700.0,24470.0,4895.0,99.0,904.4,121.8,4901.2,72.21601000000001,3.4310934000000004,0.06251525,0.02167541,-1.339793,92.875,0.0648689299999999,0.023485355,-1.3363645,0.7304299399999999,1.0784178800000002,7.9149604,0.0,-10.2,25.0,-39.0,14.2,260.2,-1050.6,-0.8,308.8,1014.5232,-3.4952814,4051.6,0.0648689299999999,-0.02927212,0.023485355,0.01966273,-1.3363645,0.005250095,92890.0,28350.0,30430.0,-5.0,40.0,-6.0,1,27_xacc_avg_constant_0
2023-01-03 11:59:29.500,106.99066666666666,0.1000000000000013,100.0,895.0,24443.0,4908.0,99.0,952.8333333333334,123.33333333333331,4902.333333333333,72.47152833333334,3.461302833333333,0.0671010833333333,0.0159977233333333,-1.339938,92.88333333333333,0.0683988666666666,0.0177140866666666,-1.335923,0.6680203499999999,1.051599516666667,8.104670666666667,0.0,-5.833333333333333,22.83333333333333,-34.5,10.833333333333334,258.8333333333333,-997.8333333333334,-17.166666666666668,305.6666666666667,1014.5173333333332,-3.5009635,4052.5,0.0683988666666666,0.0176599783333333,0.0177140866666666,-0.0074908133333333,-1.335923,-0.0031022313333333,92870.0,28325.0,30410.0,-6.0,35.0,-6.0,1,27_xacc_avg_constant_0
2023-01-03 11:59:30.050,107.57,0.1039999999999991,100.0,1020.0,24404.0,4895.0,99.0,920.8,124.6,4904.2,72.71323199999999,3.489492,0.0550063466666666,0.0126302999999999,-1.344839,92.85666666666668,0.0559912566666666,0.01430169,-1.338661,0.64690978,1.1890424,9.3260208,0.0,2.0,22.6,-29.0,-34.6,261.4,-1047.2,9.4,318.2,1014.534,-3.4841716000000007,4053.2,0.0559912566666666,0.0002062743333333,0.01430169,-0.0104512966666666,-1.338661,0.0219670833333333,92850.0,28331.0,30390.0,-3.0,28.0,-10.0,1,27_xacc_avg_constant_0
2023-01-03 11:59:30.600,108.08200000000002,0.1039999999999991,100.0,930.0,24404.0,4903.0,99.0,915.2,125.8,4900.6,72.939898,3.5144954,0.04863628,0.000831575,-1.33147,92.84,0.04901284,0.00473079745,-1.3244235,0.70211578,1.15821542,8.518310600000001,0.0,-30.2,35.3,-35.6,-27.0,254.2,-1119.6,23.6,321.4,1014.5487,-3.4697501,4053.8,0.04711411,0.023010425,0.0055366735,-0.035183325,-1.3245749999999998,0.0014918854999999,92840.0,28418.0,30380.0,-1.0,20.0,-6.0,1,27_xacc_avg_constant_0
2023-01-03 11:59:31.150,108.65066666666668,0.103333333333334,100.0,1067.0,24371.5,4897.0,99.0,959.6666666666666,127.5,4897.333333333333,73.17153333333333,3.537408333333333,0.0527113333333333,-0.0052274156666666,-1.3387133333333334,92.81,0.05281395,-0.0010675776666666,-1.3318233333333334,0.6357801666666667,1.2389651,9.1883055,0.0,29.0,26.166666666666668,-26.33333333333333,19.0,246.8333333333333,-1057.0,-12.333333333333334,312.8333333333333,1014.5323333333332,-3.4858591666666663,4055.0,0.05281395,0.031822921,-0.0010675776666666,0.0203230533333333,-1.3318233333333334,-0.04224494,92800.0,28352.0,30340.0,-10.0,14.0,-5.0,1,27_xacc_avg_constant_0
2023-01-03 11:59:31.700,109.206,0.0999999999999999,100.0,984.0,24392.0,4896.0,99.0,1073.6,129.4,4894.8,73.410786,3.5571918000000005,0.0635779566666666,0.01341117,-1.3368593333333332,92.78666666666668,0.0638843866666666,0.0163887133333333,-1.3298346666666667,0.59224704,1.2058914,9.1314108,0.0,5.4,16.2,-35.8,-50.6,251.8,-1102.6,11.2,308.0,1014.4724,-3.5461094,4056.0,0.0638843866666666,-0.0401467776666666,0.0163887133333333,-0.0255403599999999,-1.3298346666666667,0.0534329733333333,92780.0,28375.0,30320.0,-16.0,6.0,-4.0,1,27_xacc_avg_constant_0
2023-01-03 11:59:32.250,109.764,0.099999999999999,100.0,802.0,24449.0,4903.0,99.0,899.3333333333334,130.66666666666666,4893.166666666667,73.66195666666668,3.575158666666667,0.06283698,0.02162925,-1.326361,92.84333333333332,0.0630917166666666,0.0240942566666666,-1.319878,0.6596642,1.2125416666666666,8.638289,0.0,13.0,32.5,-46.0,25.0,258.1666666666667,-1039.5,-10.833333333333334,322.5,1014.472,-3.5463410000000004,4056.5,0.0630917166666666,-0.01829317,0.0240942566666666,-0.0123611966666666,-1.319878,0.005216955,92830.0,28454.0,30370.0,-21.0,-1.0,-6.0,1,27_xacc_avg_constant_0
2023-01-03 11:59:32.800,110.33,0.104000000000002,100.0,732.0,24463.0,4890.0,99.0,938.2,132.2,4886.0,73.9371,3.5940732000000004,0.07365004,0.04331608,-1.3340145,92.895,0.0742949099999999,0.046136775,-1.327133,0.66672002,1.0504454399999998,8.0572676,0.0,31.0,28.2,-51.8,5.6,266.8,-1095.6,-14.2,308.0,1014.4964,-3.5220465999999995,4057.6,0.0742949099999999,0.15805315,0.046136775,0.0600482849999999,-1.327133,-0.002096855,92890.0,28397.0,30430.0,-25.0,-11.0,-5.0,1,27_xacc_avg_constant_0
2023-01-03 11:59:33.350,110.834,0.0999999999999999,100.0,1128.0,24336.0,4896.0,99.0,1109.6,133.6,4896.0,74.13763800000001,3.608921,0.0845657566666666,0.0538236566666666,-1.3270606666666669,92.89666666666666,0.0855183533333333,0.05631757,-1.319251333333333,0.71575704,1.2867718,10.3513554,0.0,17.0,18.2,-39.4,19.8,264.0,-1062.0,32.0,300.6,1014.4076,-3.6107814,4058.2,0.0855183533333333,0.01698456,0.05631757,-0.01364743,-1.319251333333333,0.0263293006666666,92890.0,28425.0,30430.0,-20.0,-23.0,-11.0,1,27_xacc_avg_constant_0
2023-01-03 11:59:33.900,111.384,0.099999999999999,100.0,1349.0,24298.0,4893.0,99.0,885.3333333333334,135.33333333333334,4899.0,74.31250999999999,3.6253733333333336,0.1102266666666666,0.0603729,-1.3322903333333334,92.98333,0.1113250666666666,0.0635377633333333,-1.3231033333333333,0.8399530000000001,1.2162221666666668,9.258990666666666,0.0,13.5,16.5,-74.5,71.66666666666667,271.8333333333333,-965.3333333333334,-31.0,310.3333333333333,1014.407,-3.6114061666666655,4059.1666666666665,0.1113250666666666,0.0595468299999999,0.0635377633333333,0.0453542233333333,-1.3231033333333333,-0.0407875366666666,92960.0,28460.0,30500.0,-13.0,-32.0,-17.0,1,27_xacc_avg_constant_0
2023-01-03 11:59:34.450,111.934,0.0999999999999999,100.0,581.0,24505.0,4909.0,99.0,804.8,136.4,4900.0,74.460334,3.6449998,0.11289305,0.0566987,-1.3419645,93.045,0.1131252,0.06051217,-1.3323185,0.78917026,1.0656908,7.863806999999999,0.0,-28.2,13.2,-45.0,29.4,276.8,-1017.6,11.6,302.2,1014.4706,-3.5479376,4060.0,0.1131252,0.0021877399999999,0.06051217,-0.064564865,-1.3323185,-0.00162335,93020.0,28360.0,30560.0,-8.0,-24.0,-15.0,1,27_xacc_avg_constant_0
2023-01-03 11:59:35.000,112.484,0.099999999999999,100.0,1041.0,24373.0,4896.0,99.0,866.8333333333334,137.66666666666666,4906.833333333333,74.59350666666666,3.6704046666666654,0.0991578766666666,0.04475245,-1.332909,93.00999666666668,0.0996323466666666,0.0489295833333333,-1.3220383333333334,0.7638376666666667,1.1429011666666666,7.406085,0.0,-5.666666666666667,14.833333333333334,-56.333333333333336,-70.5,278.0,-1077.5,8.333333333333334,318.5,1014.4776666666668,-3.540637833333333,4060.5,0.0996323466666666,-0.0709984133333333,0.0489295833333333,-0.0145980766666666,-1.3220383333333334,0.0224024916666666,93005.0,28424.0,30545.0,-1.5,9.5,-19.0,1,27_xacc_avg_constant_0
2023-01-03 11:59:35.550,113.03400000000002,0.0999999999999999,100.0,705.0,24455.0,4883.0,99.0,806.4,139.0,4898.6,74.70811599999999,3.6984346,0.0642206833333333,0.0543272933333333,-1.333594,92.96333333333332,0.06588704,0.05908927,-1.3210783333333334,0.8996192799999999,1.0912928000000002,8.852398599999999,0.0,39.8,23.2,-69.0,-20.6,270.8,-1027.0,-2.0,307.6,1014.4726,-3.5456874,4061.0,0.06588704,-0.0196916299999999,0.05908927,0.009246954,-1.3210783333333334,-0.0059733753333333,92960.0,28429.0,30500.0,2.0,11.0,-17.0,1,27_xacc_avg_constant_0
2023-01-03 11:59:36.100,113.58400000000002,0.1000000000000014,100.0,877.0,24408.0,4896.0,99.0,769.3333333333334,140.16666666666666,4898.333333333333,74.78838,3.7262505,0.0613109166666666,0.0589893933333333,-1.3355676666666667,92.94666333333332,0.0648108766666666,0.0629452266666666,-1.322559,1.0252846,1.21617425,11.631231333333332,0.0,-25.33333333333333,24.33333333333333,-77.16666666666667,15.5,276.1666666666667,-1091.1666666666667,-11.333333333333334,325.3333333333333,1014.4915,-3.526927,4062.0,0.0648108766666666,-0.05893099,0.0629452266666666,-0.04807955,-1.322559,-0.0034618133333333,92950.0,28408.0,30490.0,17.0,9.0,-12.0,1,27_xacc_avg_constant_0
2023-01-03 11:59:36.650,114.154,0.1039999999999991,100.0,720.0,24476.0,4916.0,99.0,827.4,141.4,4908.6,74.827152,3.7534104,0.07206139,0.039004525,-1.33387,92.905,0.073743835,0.043893745,-1.3201885,0.8042238000000002,1.05814874,8.250029000000001,0.0,-32.4,21.8,-77.8,5.8,265.6,-989.6,12.0,314.4,1014.4766000000002,-3.5418436,4062.8,0.073743835,-0.061797195,0.043893745,0.0282788899999999,-1.3201885,-0.00707104195,92900.0,28438.0,30440.0,16.0,2.0,-17.0,1,27_xacc_avg_constant_0
2023-01-03 11:59:37.200,114.704,0.099999999999999,100.0,1062.0,24383.0,4904.5,99.0,883.0,142.66666666666666,4906.833333333333,74.83809333333333,3.781256666666667,0.08388642,0.03831129,-1.3309989999999998,92.875,0.08624644,0.043200705,-1.317113,0.7880134500000001,1.118129116666667,7.259305333333333,0.0,26.6,20.2,-86.4,14.8,260.2,-1033.4,-6.4,318.6,1014.4386,-3.5796874,4063.8,0.08624644,-0.06409071,0.043200705,0.0171688325,-1.317113,-0.030728575,92880.0,28460.0,30420.0,4.0,-11.0,-15.0,1,27_xacc_avg_constant_0
2023-01-03 11:59:37.750,115.254,0.0999999999999999,100.0,933.0,24398.0,4893.0,99.0,934.6,144.2,4900.8,74.840688,3.80849,0.09784781,0.05838879,-1.3356833333333331,92.89,0.1005950566666666,0.0623434033333333,-1.3212673333333331,0.78767326,1.3116456,8.6701222,0.0,33.6,13.6,-74.0,44.6,272.8,-1010.8,-7.8,308.6,1014.4562,-3.5624062000000003,4064.2,0.1005950566666666,0.02406709,0.0623434033333333,0.0462702246666666,-1.3212673333333331,-0.0087261633333333,92890.0,28423.0,30430.0,2.0,-18.0,-13.0,1,27_xacc_avg_constant_0
2023-01-03 11:59:38.300,115.804,0.1000000000000014,100.0,1159.0,24345.0,4909.0,99.0,1106.1666666666667,145.5,4905.333333333333,74.83508333333333,3.835262333333333,0.1106591666666666,0.0647136133333333,-1.330979,92.89,0.1141646,0.0676112133333333,-1.3166976666666663,0.5430467666666666,1.0913356166666666,9.964206666666668,0.0,-10.166666666666666,11.5,-58.66666666666666,2.833333333333333,272.1666666666667,-1075.5,21.166666666666668,296.0,1014.4766666666666,-3.5416535,4065.1666666666665,0.1141646,0.0081406766666666,0.0676112133333333,-0.0606053533333333,-1.3166976666666663,0.0150125296666666,92890.0,28435.0,30430.0,8.0,-11.0,-21.0,1,27_xacc_avg_constant_0
2023-01-03 11:59:38.850,116.354,0.0999999999999999,100.0,978.0,24392.0,4896.0,99.0,1081.2,147.4,4902.2,74.820644,3.8639664,0.1073545499999999,0.059353025,-1.318688,92.875,0.1109235,0.062321975,-1.3039605,0.64675858,1.4184991999999998,9.3816652,0.0,-1.2,15.2,-60.2,38.8,276.4,-989.4,8.6,296.8,1014.4658,-3.5527498,4066.0,0.1109235,-0.04372874,0.062321975,0.020833395,-1.3039605,-0.0070378099999999,92870.0,28535.0,30410.0,15.0,-2.0,-11.0,1,27_xacc_avg_constant_0
2023-01-03 11:59:39.400,116.914,0.103333333333334,100.0,1000.0,24327.0,4908.0,99.0,1158.3333333333333,149.16666666666666,4905.5,74.79899999999999,3.896165,0.1102777666666666,0.05225118,-1.3198213333333333,92.90000000000002,0.1138737,0.05628568,-1.3045233333333333,0.6262245999999999,1.370652,9.166084,90.16666666666669,2.0,10.833333333333334,-61.333333333333336,3.0,266.0,-1043.8333333333333,0.0,298.8333333333333,1014.4405,-3.5779426666666665,4066.3333333333335,0.1138737,0.03024834,0.05628568,0.0615644366666666,-1.3045233333333333,-0.0011195403333333,92890.0,28519.0,30430.0,18.0,2.0,-7.0,0,None
2023-01-03 11:59:39.950,117.51,0.1079999999999983,100.0,1292.0,24278.0,4896.0,99.0,1136.8,151.2,4902.6,74.77823000000001,3.9303224,0.1127615333333333,0.0450644166666666,-1.31313,92.93333,0.1162175,0.0498241766666666,-1.2976006666666666,0.56071702,1.3820785999999998,8.917526800000001,95.1,-16.9,6.7,-66.5,16.8,262.9,-986.3,30.4,301.3,1014.4582,-3.5602266,4067.4,0.1162175,0.06906632,0.0498241766666666,-0.0508652199999999,-1.2976006666666666,0.0317126933333333,92930.0,28564.5,30470.0,12.5,5.0,-16.5,0,None
2023-01-03 11:59:40.500,118.018,0.1039999999999991,100.0,1145.0,24335.0,4909.0,99.0,1129.4,152.6,4897.6,74.768278,3.963516,0.1016134066666666,0.04303142,-1.309475333333333,92.95,0.1060496666666666,0.04818819,-1.293931,0.5765261799999999,1.4147144,8.2444862,76.2,12.8,14.6,-62.6,-32.2,252.0,-1090.6,0.6,295.6,1014.4692,-3.5491248,4068.0,0.1060496666666666,-0.0244540966666666,0.04818819,0.0415105366666666,-1.293931,0.006186501,92950.0,28588.0,30490.0,6.0,15.0,-15.0,0,None
2023-01-03 11:59:41.050,118.55,0.104000000000002,100.0,1147.0,24341.0,4896.0,99.0,1242.8,154.4,4894.4,74.77150000000002,4.000108,0.09454709,0.047777975,-1.31257,92.929995,0.09826327,0.053435085,-1.297818,0.53302146,1.4032878,9.2364564,75.6,-16.8,15.6,-42.8,-12.8,268.0,-1033.2,-13.4,299.6,1014.5016,-3.5167812,4068.8,0.09826327,-0.047715865,0.053435085,-0.05523578,-1.297818,-0.021376485,92910.0,28549.0,30450.0,9.0,19.0,-9.0,0,None
2023-01-03 11:59:41.600,119.0742,0.1081999999999993,100.0,1054.0,24346.0,4901.0,99.0,1105.8,156.0,4902.2,74.780362,4.0337858,0.0851485233333333,0.0360791966666666,-1.3188093333333335,92.90000000000002,0.0887264266666666,0.04103348,-1.303604,0.62954836,1.3483412,9.6711496,86.3,7.9,18.9,-58.8,-41.6,261.6,-1082.6,-21.9,310.3,1014.5102,-3.5082029,4069.1,0.0887264266666666,-0.07812173,0.04103348,-0.0233634233333333,-1.303604,-0.0135981136666666,92900.0,28516.0,30440.0,11.0,12.0,-5.0,0,None
2023-01-03 11:59:42.150,119.6264,0.1117999999999994,100.0,841.0,24428.0,4900.0,99.0,1035.4,157.6,4896.8,74.793344,4.0663964,0.08948878,0.0346486,-1.3141729999999998,92.89,0.09459763,0.03815083,-1.3001195,0.77235932,1.3806568,9.683101,101.2,-14.6,23.0,-66.0,47.6,266.4,-1029.6,-5.8,311.8,1014.5094,-3.5089999999999995,4069.8,0.09459763,0.016343165,0.03815083,-0.064403935,-1.3001195,0.035051255,92880.0,28579.0,30420.0,16.0,0.0,-6.0,0,None
2023-01-03 11:59:42.700,120.1782,0.1081999999999993,100.0,1114.0,24347.0,4893.0,99.0,1014.2,159.4,4892.4,74.811988,4.0999488,0.1199931666666666,0.0279209033333333,-1.310509666666667,92.87333333333332,0.1242317,0.03257679,-1.2959143333333334,0.8797367599999999,1.19829476,7.058167399999999,121.8,-6.1,15.7,-28.4,48.0,255.1,-1027.5,-3.8,311.7,1014.4958,-3.5223984,4070.4,0.1242317,0.0388910366666666,0.03257679,-0.0150864513333333,-1.2959143333333334,-0.0040269396666666,92880.0,28554.0,30420.0,14.0,-7.0,-10.0,0,None
2023-01-03 11:59:43.250,120.76833333333332,0.103333333333334,100.0,1494.0,24217.0,4892.0,98.66666666666669,1455.5,161.66666666666666,4889.5,74.85020333333333,4.132647333333334,0.1402904666666666,0.0278676,-1.3170803333333334,92.855,0.1416829,0.027730925,-1.3007035,0.5694616,1.5549296,15.329313,107.0,-36.0,-2.6666666666666665,-36.16666666666666,-3.5,253.66666666666663,-940.6666666666666,14.833333333333334,291.0,1014.454,-3.564374666666667,4071.0,0.1435307,0.00752699,0.0323343466666666,0.01197324,-1.3015626666666666,-0.0066297946666666,92850.0,28556.0,30390.0,14.0,2.0,-18.0,0,None
2023-01-03 11:59:43.800,121.319,0.0999999999999999,100.0,1496.0,24189.0,4895.0,98.0,1422.6,163.8,4894.8,74.92155,4.1662492,0.1286593666666666,0.009549686,-1.309966,92.88333333333333,0.1315745666666666,0.0147229366666666,-1.295527,0.51210894,1.6911738,18.942518,105.4,-13.4,2.6,-16.2,-13.2,249.0,-1014.6,20.2,289.4,1014.4652,-3.5531876,4071.8,0.1315745666666666,0.06378083,0.0147229366666666,-0.0561254433333333,-1.295527,-0.0028884026073333,92890.0,28574.0,30430.0,15.0,13.0,-18.0,0,None
2023-01-03 11:59:44.350,121.86833333333334,0.099999999999999,100.0,1055.0,24349.0,4896.0,98.0,1344.0,165.83333333333334,4895.5,75.03405833333333,4.199202166666667,0.1179203333333333,0.0015756643333333,-1.3086303333333331,92.91666666666669,0.1222116999999999,0.0068417353333333,-1.2949879999999998,0.5116230666666667,1.6476453333333334,13.847221666666664,120.83333333333331,-26.5,9.666666666666666,-8.166666666666666,33.0,245.0,-986.3333333333334,-0.1666666666666666,304.1666666666667,1014.439,-3.57944,4072.3333333333335,0.1222116999999999,0.01673458,0.0068417353333333,-0.0333158066666666,-1.2949879999999998,0.0183408933333333,92910.0,28584.0,30450.0,19.0,8.0,-9.0,0,None
2023-01-03 11:59:44.900,122.395,0.1249999999999999,100.0,1494.0,24238.0,4890.0,98.0,1454.75,167.75,4894.75,75.17972,4.22873,0.14336775,-0.027031525,-1.2909755,92.93999,0.1476874,-0.022259815,-1.2780015,0.71681935,1.38031475,12.94369575,114.5,-87.75,6.0,-12.0,61.5,238.75,-968.0,51.0,307.25,1014.440625,-3.57781225,4073.375,0.1476874,0.02057568,-0.022259815,-0.0991495,-1.2780015,0.038966315,92940.0,28646.0,30480.0,27.0,0.0,-23.0,0,None
2023-01-03 11:59:45.450,122.96833333333336,0.1000000000000014,100.0,1546.0,24238.0,4903.0,98.0,1617.5,170.33333333333334,4898.833333333333,75.42140333333333,4.262902666666666,0.1514402666666666,-0.02830988,-1.2871243333333335,92.91666666666669,0.1553106666666666,-0.0222228453333333,-1.2737756666666666,0.4952954,1.346915,11.944278333333337,112.16666666666669,56.5,1.5,-33.5,-42.5,251.66666666666663,-1044.1666666666667,-16.0,328.5,1014.4568333333332,-3.561510333333333,4073.8333333333335,0.1553106666666666,-0.0625123666666666,-0.0222228453333333,0.0286193533333333,-1.2737756666666666,-0.012289964,92920.0,28718.0,30460.0,-2.0,7.0,-17.0,0,None
2023-01-03 11:59:46.000,123.519,0.0999999999999999,100.0,1553.0,24234.0,4893.0,98.0,1548.6,172.8,4899.4,75.70321799999999,4.294617000000001,0.1183099233333333,-0.0012556386666666,-1.304038,92.91333333333334,0.1233614,0.0037434889999999,-1.2918813333333332,0.54495276,1.4156792,10.7259802,128.0,67.2,4.4,-17.0,-52.6,240.0,-1080.2,-34.4,310.8,1014.4424,-3.5759374,4073.8,0.1233614,-0.0185836856666666,0.0037434889999999,0.1037837233333333,-1.2918813333333332,-0.0440766133333333,92910.0,28651.0,30450.0,-20.0,12.0,-13.0,0,None
2023-01-03 11:59:46.550,124.019,0.0999999999999999,100.0,1040.0,24283.0,4903.0,98.0,1144.8,174.6,4898.6,75.978382,4.321429400000001,0.11538065,0.0157101075,-1.3151229999999998,92.985,0.1208761999999999,0.0183347,-1.3040850000000002,0.71789144,1.4721474,10.7202834,108.4,-13.4,8.8,-17.8,78.0,262.4,-962.8,-5.8,303.6,1014.4858,-3.532703,4075.0,0.1208761999999999,-0.01157526,0.0183347,-0.02504669,-1.3040850000000002,0.00632204,92950.0,28531.0,30490.0,-11.0,7.0,0.0,0,None
2023-01-03 11:59:47.100,124.585,0.1033333333333317,100.0,1669.0,24195.0,4888.0,98.0,1242.8333333333333,176.5,4901.333333333333,76.36088833333332,4.358139833333333,0.1348002333333333,-0.0192351256666666,-1.3094476666666666,92.97333333333334,0.1394265,-0.0150569836666666,-1.2981403333333332,0.59231765,1.6657628333333332,11.211719,106.16666666666669,-65.16666666666667,7.833333333333333,-14.333333333333334,-47.333333333333336,247.16666666666663,-1001.1666666666666,4.833333333333333,322.5,1014.5271666666666,-3.491289,4075.0,0.1394265,-0.039768056,-0.0150569836666666,-0.0777008046666666,-1.2981403333333332,0.0196927766666666,92970.0,28569.0,30510.0,3.5,15.0,-14.5,0,None
2023-01-03 11:59:47.650,125.13500000000002,0.0999999999999999,100.0,1114.0,24354.0,4903.0,98.0,1113.4,178.2,4895.0,76.682842,4.3874326,0.1041104266666666,-0.0366439366666666,-1.2991886666666668,92.92666333333334,0.10846825,-0.0311357766666666,-1.2883099999999998,0.67109362,1.4992514,8.076110400000001,82.0,7.0,16.2,-0.6,-18.2,234.0,-1057.2,30.8,329.2,1014.5694,-3.4488282000000003,4076.0,0.10846825,-0.0106133299999999,-0.0311357766666666,0.01413787,-1.2883099999999998,0.013949372,92910.0,28637.0,30450.0,-14.0,25.0,3.0,0,None
2023-01-03 11:59:48.200,125.68500000000002,0.1000000000000014,100.0,793.5,24413.5,4898.0,98.0,894.8333333333334,179.66666666666666,4897.333333333333,77.03600666666667,4.415651333333333,0.07963366,-0.015526198,-1.301154666666667,92.85333,0.0853067266666666,-0.0111724073333333,-1.290222,1.0079027500000002,1.4717198333333332,10.648367833333332,63.833333333333336,29.5,25.166666666666668,-25.5,-58.333333333333336,246.3333333333333,-1084.0,-22.166666666666668,327.0,1014.612,-3.4063931666666663,4076.5,0.0853067266666666,-0.0318668266666666,-0.0111724073333333,0.0707537566666666,-1.290222,-0.0025980816666666,92840.0,28603.0,30380.0,-26.0,17.0,-2.0,0,None
2023-01-03 11:59:48.750,126.235,0.0999999999999999,100.0,778.0,24417.0,4896.0,98.0,911.0,181.2,4904.8,77.39316,4.440853800000001,0.070644465,0.006242614,-1.3106955,92.774995,0.076354255,0.00861261,-1.3015355,1.18356988,1.3113858000000005,13.82591,71.4,43.4,32.0,-31.6,4.4,252.2,-987.0,-22.4,324.6,1014.6266,-3.3919062,4077.0,0.076354255,0.100312685,0.00861261,0.0496210365,-1.3015355,-0.010907782,92760.0,28530.0,30300.0,-28.0,10.0,0.0,0,None
2023-01-03 11:59:49.300,126.795,0.103333333333334,100.0,880.0,24379.0,4871.0,98.0,862.8333333333334,182.5,4902.166666666667,77.69994,4.462086666666667,0.0768529,0.02039666,-1.3179683333333332,92.73,0.0822330666666666,0.0230699033333333,-1.309007,1.2080111666666666,1.3130055,11.485340666666666,85.83333333333333,11.166666666666666,28.5,-9.166666666666666,25.166666666666668,258.5,-1053.3333333333333,-4.0,324.5,1014.5896666666666,-3.4286326666666667,4077.5,0.0822330666666666,0.04828648,0.0230699033333333,0.0195750566666666,-1.309007,-0.0039091425,92730.0,28497.0,30270.0,-22.0,3.0,4.0,0,None
2023-01-03 11:59:49.850,127.367,0.1039999999999991,100.0,676.0,24424.0,4906.0,98.0,814.4,183.8,4908.6,77.96857600000001,4.4815346,0.09763023,0.0282336833333333,-1.3217333333333332,92.74333,0.10257144,0.0302028566666666,-1.3127086666666667,1.13091038,1.2352644000000002,14.1949328,86.6,17.4,19.8,-45.6,35.0,255.4,-983.8,-3.6,306.2,1014.5396,-3.4790156000000003,4078.0,0.10257144,0.0465881266666666,0.0302028566666666,-0.0426559,-1.3127086666666667,0.004871024,92740.0,28474.0,30280.0,-18.0,0.0,7.0,0,None
2023-01-03 11:59:50.400,127.875,0.0999999999999971,100.0,726.0,24464.0,4903.0,98.0,866.4,184.8,4903.4,78.203666,4.499350000000001,0.10156565,0.04046065,-1.32399,92.78,0.10642995,0.04231152,-1.314841,1.1034938,1.4678252,15.723896000000002,78.2,34.2,17.2,-64.4,-34.0,262.8,-1058.2,-19.2,313.6,1014.511,-3.5075314,4078.2,0.10642995,0.0237799979999999,0.04231152,-0.0223611065,-1.314841,-0.0103632115,92780.0,28463.0,30320.0,-15.0,3.0,2.0,0,None
2023-01-03 11:59:50.950,128.45833333333334,0.1066666666666691,100.0,631.0,24437.0,4896.0,98.0,896.1666666666666,186.5,4901.166666666667,78.42663666666668,4.517945833333333,0.0944888299999999,0.04843082,-1.3298759999999998,92.81666666666666,0.0978632566666666,0.04921853,-1.320304,0.9422859999999998,1.2340373333333334,11.447842333333334,76.41666666666667,-9.75,13.75,-46.25,-55.5,263.5833333333333,-1033.25,-13.833333333333334,303.8333333333333,1014.51625,-3.502083166666667,4079.0,0.10230319,0.2165847,0.049992785,0.004964065,-1.3195495,0.0156217075,92820.0,28431.0,30360.0,-5.0,14.0,0.0,0,None
2023-01-03 11:59:51.500,129.035,0.104000000000002,100.0,1263.0,24294.0,4908.0,98.0,777.2,187.8,4898.0,78.66365400000001,4.5410368,0.0729266366666666,0.0407171866666666,-1.3314986666666666,92.84333,0.0774049866666666,0.0423726366666666,-1.3214026666666667,0.8930651999999999,1.2216538,10.8874882,82.0,-12.2,23.2,-40.6,-13.2,262.6,-1071.6,-1.6,304.4,1014.4978,-3.5206406,4079.6,0.0774049866666666,0.0242394599999999,0.0423726366666666,-0.0180330066666666,-1.3214026666666667,0.0095966333333333,92830.0,28422.0,30370.0,5.0,14.0,-6.0,0,None
2023-01-03 11:59:52.050,129.551,0.1039999999999963,100.0,993.0,24360.0,4887.0,98.0,858.2,189.0,4903.6,78.80785399999999,4.5575304,0.0746635099999999,0.0348469349999999,-1.332256,92.865,0.079474495,0.03762812,-1.3218915,0.91700192,1.12035684,12.4058128,75.6,-14.2,21.8,-43.6,-6.2,260.6,-1088.4,-6.2,306.8,1014.4854,-3.5328124,4080.0,0.079474495,-0.009671835,0.03762812,-0.01176593,-1.3218915,-0.0054638541,92860.0,28435.0,30400.0,12.0,9.0,-11.0,0,None
2023-01-03 11:59:52.600,130.06699999999998,0.104000000000002,100.0,715.0,24439.0,4900.0,98.0,819.6,190.2,4892.2,78.934292,4.5743464000000005,0.0751754733333333,0.0329296599999999,-1.3331526666666669,92.90666666666668,0.07958682,0.0346632933333333,-1.323122666666667,1.0379987,1.319684,11.74254,68.2,-8.4,21.2,-50.4,35.8,259.8,-924.6,7.6,318.0,1014.502,-3.5165154000000003,4080.6,0.0808123,0.0141706133333333,0.0349338466666666,-0.0117052866666666,-1.3229053333333332,0.000245348,92900.0,28410.0,30440.0,20.0,8.0,-5.0,0,None
2023-01-03 11:59:53.150,130.64833333333334,0.103333333333334,100.0,1312.0,24237.0,4887.0,98.0,1025.0,191.4,4893.333333333333,79.03985666666667,4.590387499999999,0.0801708433333333,0.016358092,-1.3295516666666665,92.91666666666669,0.0842663766666666,0.0192416333333333,-1.3183353333333334,0.9408687333333332,1.1449778833333333,12.451290166666666,70.25,-12.75,16.416666666666668,-44.41666666666666,-23.5,250.5833333333333,-1082.0833333333333,11.416666666666666,303.9166666666667,1014.5084166666668,-3.510091,4080.9166666666665,0.0842663766666666,-0.0524854099999999,0.0192416333333333,-0.0453711833333333,-1.3183353333333334,0.0060989356666666,92910.0,28446.5,30450.0,26.0,5.0,-17.0,0,None
2023-01-03 11:59:53.700,131.215,0.1039999999999963,100.0,1226.0,24314.0,4896.0,98.0,991.4,193.2,4893.0,79.14330799999999,4.604708199999999,0.0769600766666666,0.0113546333333333,-1.318837,92.89666666666668,0.0805957766666666,0.0154135153333333,-1.3074813333333333,0.84421392,1.2581764,7.1198498,74.0,-18.8,16.6,-39.4,20.2,252.2,-1035.2,1.4,317.4,1014.486,-3.5323904,4082.0,0.0805957766666666,-0.0084782216666666,0.0154135153333333,-0.0074014533333333,-1.3074813333333333,0.017180191,92900.0,28526.0,30440.0,29.0,2.0,-11.0,0,None
2023-01-03 11:59:54.250,131.751,0.108000000000004,100.0,1033.0,24325.0,4896.0,98.0,973.4,194.6,4899.6,79.272444,4.6192876,0.08544426,0.0006885787999999,-1.3168540000000002,92.9,0.088983485,0.0038297725,-1.3064144999999998,1.0276641400000002,1.2798165999999995,9.6566646,55.4,-25.0,26.4,-36.0,-18.0,247.0,-1004.4,-26.2,313.2,1014.5006,-3.5177342,4082.6,0.088983485,0.0200251435,0.0038297725,-0.035563195,-1.3064144999999998,-0.0161768595,92900.0,28519.0,30440.0,23.0,1.0,-12.0,0,None
2023-01-03 11:59:54.800,132.32833333333335,0.1033333333333293,100.0,790.0,24432.5,4903.0,98.0,844.1666666666666,196.0,4906.166666666667,79.40859666666667,4.632458333333333,0.0766582166666666,-0.0016568041999999,-1.3235743333333334,92.90333333333336,0.07963069,0.002269991,-1.3126263333333332,0.9560202666666668,1.3810126666666669,14.373139666666669,62.16666666666666,10.5,22.666666666666668,-40.16666666666666,-19.166666666666668,255.5,-1058.3333333333333,-19.666666666666668,327.5,1014.5233333333332,-3.495052,4082.8333333333335,0.07963069,-0.1299784133333333,0.002269991,-0.0289633323333333,-1.3126263333333332,-0.02808061,92900.0,28456.0,30440.0,15.0,2.0,-10.0,0,None
2023-01-03 11:59:55.350,132.875,0.0999999999999999,100.0,909.0,24373.0,4903.0,98.0,788.8,197.2,4904.4,79.551862,4.6448284,0.0804640266666666,0.0052899758,-1.3317036666666666,92.89,0.0842306966666666,0.008843966,-1.3207953333333335,1.1893388,1.2727536000000002,13.135546,59.4,43.2,29.0,-47.8,-17.8,257.4,-1081.0,-16.4,335.8,1014.49,-3.5283592,4083.4,0.0842306966666666,0.0177457566666666,0.008843966,0.02728023,-1.3207953333333335,-0.0253664066666666,92890.0,28434.0,30430.0,0.0,-1.0,-15.0,0,None
2023-01-03 11:59:55.900,133.387,0.108000000000004,100.0,542.0,24515.0,4908.0,98.0,757.8,198.4,4906.6,79.677402,4.6546176,0.0749490999999999,0.0229264299999999,-1.3297020000000002,92.915,0.08004425,0.025198245,-1.318801,1.15974984,1.4726792,15.667968000000002,47.4,-27.3,23.9,24.6,-40.4,257.4,-1092.7,5.8,329.2,1014.4876,-3.5308590000000004,4083.8,0.08004425,0.0253169175,0.025198245,0.009541405,-1.318801,5.000500000000227e-05,92920.0,28452.0,30460.0,-1.0,0.0,-14.0,0,None
2023-01-03 11:59:56.450,133.94833333333335,0.099999999999999,100.0,787.0,24429.0,4908.0,98.0,998.3333333333334,199.66666666666663,4900.333333333333,79.81937333333335,4.665416,0.0798669733333333,0.0131176916666666,-1.3235413333333332,92.91333333333334,0.0836351899999999,0.0142919633333333,-1.3113366666666666,1.0829793,1.519543,13.268146000000002,64.66666666666667,6.833333333333333,23.5,-22.666666666666668,-5.833333333333333,258.5,-942.6666666666666,3.333333333333333,332.3333333333333,1014.5146666666666,-3.5035675000000004,4084.6666666666665,0.0836351899999999,-0.0816029133333333,0.0142919633333333,-0.0158546533333333,-1.3113366666666666,-0.0084606813333333,92910.0,28519.0,30450.0,0.0,4.0,-15.0,0,None
2023-01-03 11:59:57.000,134.53900000000002,0.1079999999999983,100.0,549.0,24504.0,4908.0,98.0,865.4,201.2,4905.4,79.96595599999999,4.6763712,0.0642003633333333,0.0187660866666666,-1.3309523333333333,92.89,0.0684087033333333,0.0223163533333333,-1.3183346666666669,1.2299454,1.4861156,14.18824,47.2,6.8,24.8,-50.6,-30.4,272.0,-1045.6,-17.0,322.4,1014.4936,-3.5246092,4085.0,0.0684087033333333,-0.0131406066666666,0.0223163533333333,-0.0282189266666666,-1.3183346666666669,0.0101537273333333,92890.0,28440.0,30430.0,0.0,6.0,-16.0,0,None
