00000_Time_epoch,00000_Time_boot_sec,00000_Span_Time_boot_sec,1_battery_remaining_avg,1_current_battery_avg,1_voltage_battery_avg,125_Vcc_avg,147_battery_remaining_avg,147_current_battery_avg,147_current_consumed_avg,165_Vcc_avg,168_direction_avg,168_speed_avg,178_pitch_avg,178_roll_avg,178_yaw_avg,182_altitude_avg,182_pitch_avg,182_roll_avg,182_yaw_avg,241_vibration_x_avg,241_vibration_y_avg,241_vibration_z_avg,27_xacc_avg,27_xgyro_avg,27_xmag_avg,27_yacc_avg,27_ygyro_avg,27_ymag_avg,27_zacc_avg,27_zgyro_avg,27_zmag_avg,29_press_abs_avg,29_press_diff_avg,29_temperature_avg,30_pitch_avg,30_pitchspeed_avg,30_roll_avg,30_rollspeed_avg,30_yaw_avg,30_yawspeed_avg,33_alt_avg,33_hdg_avg,33_relative_alt_avg,33_vx_avg,33_vy_avg,33_vz_avg,label,diagnosis
2023-01-03 05:35:13.500,366.431,-0.2666666666666704,83.0,96.0,23281.0,4875.0,99.0,86.5,83.0,4860.0,-157.9916,0.2389891333333333,-1.970215e-06,-0.01721019,-1.192424,30.83,-0.004491992,-0.01598114,-1.221831,0.02331954,0.0249366249999999,0.038964935,-12.0,0.5,78.5,1.0,-2.0,255.0,-1066.5,0.0,338.5,1021.3245,-0.16503905,3199.5,-0.004491992,-0.002596096,-0.01598114,0.001049445,-1.221831,-0.0004653505,30820.0,29000.0,0.0,5.0,-3.0,7.0,0,None
2023-01-03 05:35:14.050,366.839,0.1039999999999963,83.0,83.0,23284.0,4871.0,99.0,84.8,83.0,4865.8,-159.11470000000003,0.20574802,0.0004681381,-0.0168109249999999,-1.193037,30.83,-0.0044316955,-0.015990635,-1.2220125,0.0251486059999999,0.0271754159999999,0.03479599,-11.8,0.6,79.0,0.6,-2.0,253.6,-1065.0,-0.2,337.4,1021.3234,-0.1654999999999999,3200.0,-0.0044316955,-0.0025446619999999,-0.015990635,0.00097535135,-1.2220125,-0.0001062458999999,30830.0,28998.0,10.0,5.0,-3.0,8.0,0,None
2023-01-03 05:35:14.600,367.4076666666666,0.103333333333334,83.0,79.0,23312.0,4871.0,99.0,83.66666666666667,83.0,4863.333333333333,-160.0266,0.2037863333333333,0.0004106783725,-0.01672613,-1.19436575,30.8375,-0.00436893475,-0.01589009,-1.22238,0.0235894366666666,0.025003535,0.0356551633333333,-11.666666666666666,0.4166666666666667,78.25,0.5833333333333334,-2.583333333333333,255.0,-1065.6666666666667,-0.25,337.5,1021.3204166666666,-0.1688866916666667,3200.5,-0.00436893475,-0.00317685375,-0.01589009,0.001016489975,-1.22238,-0.0005342551,30840.0,28997.0,20.0,5.0,-3.0,8.0,0,None
2023-01-03 05:35:15.150,367.987,0.1039999999999963,83.0,80.0,23286.0,4854.0,99.0,181.75,83.0,4854.8,-160.31482,0.22153934,0.0006952229,-0.016705765,-1.1952265,30.85,-0.004246656,-0.015913145,-1.22262,0.083245114,0.237009492,0.7819321180000001,-18.2,1.0,81.2,-10.0,-3.0,249.8,-1058.4,2.2,335.2,1021.3292,-0.15995312,3201.6,-0.004246656,-0.005453117,-0.015913145,-0.0005685614999999,-1.22262,-0.004618845,30850.0,28995.0,30.0,5.0,-2.0,8.0,0,None
2023-01-03 05:35:15.700,368.495,0.0999999999999999,83.0,122.0,23270.0,4871.0,99.0,126.2,84.0,4859.0,-160.49642,0.24528478,-0.0003692806333333,-0.0170933166666666,-1.1952293333333337,30.863333333333333,-0.004318843,-0.0159527166666666,-1.2229663333333332,0.1462045579999999,0.2317105,0.8534976799999999,-17.8,-0.4,84.6,7.4,-3.4,250.2,-1069.2,-6.0,336.0,1021.3566,-0.13270316,3202.0,-0.004318843,-0.00302684,-0.0159527166666666,0.0015167371766666,-1.2229663333333332,0.0031987566666666,30860.0,28991.0,40.0,6.0,-1.0,8.0,0,None
2023-01-03 05:35:16.250,369.0443333333333,0.1000000000000037,83.0,121.0,23238.0,4871.0,99.0,368.5,84.0,4866.5,-160.59310000000002,0.2777418333333333,-0.0002172982533333,-0.01736219,-1.195044,30.883333333333336,-0.0044197773333333,-0.0164017333333333,-1.2226666666666663,0.1382395766666666,0.2164966,0.7654582833333334,-10.666666666666666,3.333333333333333,82.83333333333333,-2.0,-4.0,246.5,-1079.3333333333333,3.6666666666666665,328.3333333333333,1021.3775,-0.1115494866666666,3202.833333333333,-0.0044197773333333,-0.008634483,-0.0164017333333333,-0.0066407728333333,-1.2226666666666663,0.0052941854999999,30880.0,28993.0,60.0,6.0,-3.0,7.0,0,None
2023-01-03 05:35:16.800,369.615,0.1039999999999963,82.0,1461.0,22892.0,4875.0,99.0,1651.2,85.8,4857.4,-160.63830000000002,0.3139446,0.049883955,-0.02039757,-1.189695,30.97,0.0450396049999999,-0.01927332,-1.215985,0.6605961600000001,0.99816498,4.5074016,-14.6,4.2,51.2,-35.2,96.2,217.0,-1247.0,13.8,271.4,1021.6798,0.1906562399999999,3203.6,0.0450396049999999,0.11314984,-0.01927332,-0.0554271999999999,-1.215985,0.02410203,30900.0,29018.0,80.0,3.0,0.0,22.0,0,None
2023-01-03 05:35:17.350,370.1643333333333,0.1000000000000037,81.5,1747.5,22760.5,4877.0,99.0,1809.1666666666667,88.5,4863.166666666667,-160.46853333333334,0.3476846333333332,0.0218365336666666,-0.0102808749,-1.190146666666667,31.55333333333333,0.0168180673333333,-0.0089698325333333,-1.2135106666666668,0.3958212333333333,1.17282495,1.9996615,-13.833333333333334,36.833333333333336,46.66666666666666,-28.166666666666668,-110.83333333333331,233.0,-1273.5,-5.0,280.1666666666667,1021.4096666666668,-0.0795963616666666,3204.333333333333,0.0168180673333333,-0.1154686766666666,-0.0089698325333333,0.044011979,-1.2135106666666668,0.0183764699666666,31260.0,29055.0,440.0,-15.0,19.0,122.0,0,None
2023-01-03 05:35:17.900,370.715,0.0999999999999999,81.0,1739.0,22728.0,4883.0,99.0,1799.5,91.25,4873.8,-159.41738,0.3707672,-0.0409171366666666,0.0053610196666666,-1.1959166666666663,32.82,-0.0450259433333333,0.0046460353333333,-1.2171173333333332,0.38995514,1.19132524,2.0152566,-13.6,6.4,64.4,-12.0,-75.6,243.0,-1229.0,4.4,274.6,1021.1488,-0.34048438,3205.0,-0.0450259433333333,-0.0637820023333333,0.0046460353333333,-0.0072994166666666,-1.2171173333333332,-0.0105167923333333,32130.0,29034.0,1310.0,-24.0,26.0,230.0,0,None
2023-01-03 05:35:18.450,371.2676666666667,0.103333333333334,81.0,1488.0,22800.0,4877.0,99.0,1557.6666666666667,93.66666666666669,4868.5,-159.14313333333337,0.3919738666666667,-0.03651219,-0.0054284733333333,-1.199878,34.61000000000001,-0.0388515833333333,-0.0059061223333333,-1.23102,0.3946586833333333,1.3052768833333337,3.1175806666666666,-9.166666666666666,-18.83333333333333,80.5,-14.833333333333334,47.16666666666666,248.5,-1107.3333333333333,-3.0,283.5,1020.9641666666666,-0.5249739333333333,3205.6666666666665,-0.0388515833333333,0.05194291,-0.0059061223333333,-0.0016316796666666,-1.23102,-0.01325024,34205.0,28968.0,3385.0,-7.0,-5.0,319.5,0,None
2023-01-03 05:35:19.000,371.8312,0.0999999999999999,80.0,1517.0,22775.0,4879.0,99.0,1491.6,96.0,4873.8,-157.39494,0.41083228,-0.007739512,0.00393902235,-1.2037575,36.18,-0.0115674545,0.00363956025,-1.2390915,0.45345846,1.05201214,2.5245450000000003,-16.4,27.2,70.6,-9.6,43.8,239.2,-1038.6,-9.2,289.8,1020.7712,-0.7178124800000001,3207.0,-0.0115674545,0.03942981,0.00363956025,0.028076345,-1.2390915,0.001030621,36560.0,28900.0,5740.0,0.0,-24.0,327.0,0,None
2023-01-03 05:35:19.550,372.381,0.0999999999999942,80.0,1138.0,22876.0,4858.0,99.0,1249.1666666666667,98.16666666666669,4877.333333333333,-155.35871666666665,0.4168031666666667,-0.0336862602166666,0.0023806273333333,-1.2036049999999998,37.66333333333333,-0.0390651143333333,0.0037480988333333,-1.237647,0.5492661,0.9329937666666668,2.6449363333333333,-11.166666666666666,9.5,69.83333333333333,-18.166666666666668,-239.3333333333333,237.8333333333333,-945.1666666666666,1.8333333333333333,286.0,1020.5571666666666,-0.9319270166666668,3207.5,-0.0390651143333333,-0.247658659,0.0037480988333333,0.052647451,-1.237647,0.0009641076666666,38000.0,28915.0,7180.0,4.0,-30.0,276.0,0,None
2023-01-03 05:35:20.100,372.9309999999999,0.0999999999999999,80.0,1260.0,22831.0,4883.0,99.0,1208.8,99.8,4883.8,-154.53606,0.41577576,-0.2409653999999999,0.0302435766666666,-1.2066873333333332,39.05666666666667,-0.2427449,0.0321536733333333,-1.239275,0.8150342800000001,0.63007306,2.8529482,12.4,71.0,128.4,-50.6,-272.0,250.4,-971.6,15.8,266.0,1020.3676,-1.1215156,3208.2,-0.2427449,-0.2064026966666666,0.0321536733333333,0.0624684543333333,-1.239275,0.028265514,39110.0,28886.0,8290.0,27.0,-110.0,204.0,0,None
2023-01-03 05:35:20.650,373.4638000000001,0.1120000000000004,79.0,1647.0,22717.0,4887.0,99.0,1552.8,101.8,4878.2,-156.11002,0.40999546,-0.23452155,0.064733845,-1.1145969999999998,39.955,-0.2345416,0.064051445,-1.1460865,0.4466576,1.0699328,7.548901599999999,-21.8,97.6,154.7,-61.9,193.9,256.4,-1051.6,303.3,238.1,1020.2215,-1.2678204000000002,3209.0,-0.2345416,0.23480985,0.064051445,0.060537485,-1.1460865,0.3637647499999999,39990.0,29466.0,9170.0,88.0,-234.0,166.0,0,None
2023-01-03 05:35:21.200,374.0418333333333,0.1001666666666664,79.0,1447.0,22766.0,4888.0,99.0,1553.0,104.66666666666669,4873.0,-158.11049999999997,0.4000186666666667,-0.1767684666666666,0.0196298049999999,-0.9311945333333332,40.830000000000005,-0.1802393666666666,0.018539968,-0.9613040666666668,0.4655356333333333,1.0845689333333333,6.442409666666667,-29.0,-70.16666666666667,194.5,-52.66666666666666,-0.5,237.3333333333333,-1118.3333333333333,149.0,251.16666666666663,1020.0936666666666,-1.3955596666666663,3210.0,-0.1802393666666666,0.0557873133333333,0.018539968,0.005407208,-0.9613040666666668,0.2171709966666667,40870.0,30616.0,10050.0,147.0,-314.0,179.0,0,None
2023-01-03 05:35:21.750,374.612,0.1040000000000077,78.0,1680.0,22709.0,4885.0,99.0,1715.6,107.2,4877.0,-159.44016000000002,0.38471326,-0.1875012333333333,-2.605566666666626e-05,-0.9316897333333332,42.06666666666667,-0.1944815333333333,-0.0005413886666666,-0.9622231666666666,0.4038984,1.30255048,5.8251188,-33.2,14.2,197.0,-36.8,-17.0,201.4,-1148.2,-121.2,227.0,1019.9578,-1.5314063999999998,3210.8,-0.1944815333333333,0.0032686866666666,-0.0005413886666666,0.0100476366666666,-0.9622231666666666,-0.1077478299999999,41890.0,30553.0,11070.0,190.0,-397.0,207.0,0,None
2023-01-03 05:35:22.300,375.112,0.0999999999999999,78.0,1765.0,22653.0,4887.0,99.0,1719.4,109.8,4866.2,-161.08692000000002,0.36897182,-0.1752115,0.028015615,-0.9793577,43.29,-0.18139225,0.02866999,-1.0108929999999998,0.4273933800000001,1.465946,5.246479,-43.8,37.0,189.4,-42.6,62.0,223.0,-1155.0,-49.2,250.8,1019.8378,-1.6512498,3211.4,-0.18139225,0.0709214,0.02866999,0.0486299299999999,-1.0108929999999998,-0.046485755,43080.0,30227.0,12260.0,237.0,-476.0,244.0,0,None
2023-01-03 05:35:22.850,375.682,0.103333333333334,77.5,1715.0,22658.0,4883.0,99.0,1759.8,112.0,4879.166666666667,-163.75480000000002,0.3484244333333333,-0.1404668999999999,0.0446970166666666,-0.9928994,44.68,-0.1480517333333333,0.0459165566666666,-1.0232553333333334,0.44016445,1.587678333333333,6.329976333333334,-52.0,-8.5,168.16666666666666,-59.66666666666666,30.166666666666668,243.8333333333333,-1081.3333333333333,-18.83333333333333,254.3333333333333,1019.645,-1.8443618333333327,3212.1666666666665,-0.1480517333333333,0.05691003,0.0459165566666666,-0.01505637,-1.0232553333333334,-0.00376397,44460.0,30144.0,13640.0,283.0,-529.0,266.0,0,None
2023-01-03 05:35:23.400,376.232,0.0999999999999999,77.0,1827.0,22640.0,4883.0,99.0,1824.8,114.8,4875.6,-167.21058,0.32449906,-0.1269812333333333,0.0312302866666666,-1.0040696666666666,46.403333333333336,-0.1347109333333333,0.0343949466666666,-1.0339153333333335,0.43391672,1.5326404,6.677730200000001,-58.4,-5.0,163.0,-69.4,22.8,235.6,-1071.8,-27.0,252.2,1019.4422,-2.0471562,3212.8,-0.1347109333333333,0.0211027966666666,0.0343949466666666,0.0058471699999999,-1.0339153333333335,-0.0171108966666666,45870.0,30095.0,15050.0,317.0,-560.0,278.0,0,None
2023-01-03 05:35:23.950,376.748,0.1039999999999963,77.0,1551.0,22700.0,4883.0,99.0,1632.4,117.2,4876.0,-171.7153,0.2972759,-0.079365095,0.031473815,-1.017144,47.885000000000005,-0.087521815,0.03662477,-1.0471534999999998,0.4675469399999999,1.5064837999999998,6.6867888,-63.6,0.8,154.2,-46.2,97.6,237.4,-1011.0,-35.6,265.2,1019.2396,-2.2493748000000005,3213.6,-0.087521815,0.07810337,0.03662477,0.0169999549999999,-1.0471534999999998,-0.035509175,47360.0,30032.0,16540.0,341.0,-585.0,290.0,0,None
2023-01-03 05:35:24.500,377.3086666666666,0.103333333333334,76.0,1494.0,22679.0,4883.0,99.0,1551.0,119.83333333333331,4882.5,-118.5231,0.2667199833333333,-0.0588843866666666,0.0208566533333333,-1.0316783333333337,49.31,-0.06616723,0.0277062366666666,-1.0612843333333333,0.5287832499999999,1.4436861666666665,7.379480333333333,-71.0,-16.916666666666668,135.83333333333334,-59.75,21.0,233.75,-1047.5833333333333,-33.0,265.25,1019.0683333333332,-2.420957,3214.5,-0.06616723,0.0151307766666666,0.0277062366666666,-0.014426821,-1.0612843333333333,-0.0132540566666666,49495.0,29917.5,18675.0,342.5,-588.5,256.5,0,None
2023-01-03 05:35:25.050,377.904,0.108000000000004,76.0,1301.0,22747.0,4887.0,99.0,1328.6,122.2,4874.2,171.89123999999998,0.24182534,-0.0547292399999999,0.0219301999999999,-1.036224,50.89333333333334,-0.0610611266666666,0.0289882966666666,-1.0663616666666669,0.57536026,1.1630026999999998,7.314099799999999,-64.0,5.0,139.6,-57.6,-22.4,238.2,-993.0,5.2,281.8,1018.9344,-2.5548592,3215.8,-0.0610611266666666,-0.0172821933333333,0.0289882966666666,-0.0024712539999999,-1.0663616666666669,-0.01870189,51430.0,29887.0,20610.0,330.0,-584.0,225.0,0,None
2023-01-03 05:35:25.600,378.412,0.0999999999999999,76.0,1374.0,22706.0,4883.0,99.0,1402.2,124.2,4878.4,159.1364,0.2285333199999999,-0.0660572899999999,0.024382055,-1.0361820000000002,52.02,-0.07116364,0.03142996,-1.0664565,0.56159254,1.05738838,7.198774,-62.8,18.6,143.0,-41.0,-19.2,237.8,-1049.8,-0.4,293.2,1018.8346,-2.6544998000000004,3216.2,-0.07116364,-0.05170619,0.03142996,0.039394195,-1.0664565,0.01022069,52490.0,29895.0,21670.0,327.0,-586.0,218.0,0,None
2023-01-03 05:35:26.150,378.97533333333337,0.103333333333334,75.0,1413.0,22726.0,4883.0,99.0,1427.1666666666667,126.33333333333331,4876.833333333333,143.85176666666666,0.2321269666666666,-0.0752553966666666,0.0313724833333333,-1.032358,53.06666666666666,-0.07936278,0.0372233933333333,-1.0629506666666666,0.5690370333333333,1.176728166666667,7.204457166666665,-66.0,18.666666666666668,153.66666666666666,-57.66666666666666,3.8333333333333335,246.8333333333333,-1079.8333333333333,12.833333333333334,285.8333333333333,1018.7053333333332,-2.783671833333333,3217.0,-0.07936278,-0.0196157766666666,0.0372233933333333,0.0152480666666666,-1.0629506666666666,-0.011804636,53540.0,29926.0,22720.0,331.0,-594.0,225.0,0,None
2023-01-03 05:35:26.700,379.532,0.0999999999999999,75.0,1330.0,22730.0,4882.0,99.0,1291.0,128.6,4877.0,127.57552,0.25907112,-0.06359006,0.0405877533333333,-1.0275936666666663,54.34,-0.06698764,0.0453444166666666,-1.0584803333333337,0.55009888,0.96275466,7.538184599999999,-71.0,-1.4,145.2,-38.8,3.8,239.4,-1084.0,-14.2,275.4,1018.598,-2.8911092,3217.8,-0.06698764,0.009708422,0.0453444166666666,0.0069009101666666,-1.0584803333333337,-0.0052418758476666,54600.0,29931.0,23780.0,339.0,-593.0,237.0,0,None
2023-01-03 05:35:27.250,380.048,0.1039999999999963,75.0,1241.0,22748.0,4887.0,99.0,1279.2,130.4,4882.6,116.37868,0.29646958,-0.07025123,0.040351495,-1.033843,55.44,-0.074023115,0.0459770949999999,-1.065319,0.6083339,1.0433877800000002,7.834769,-76.0,-2.4,146.2,-40.6,-71.4,248.6,-1085.2,-19.2,278.2,1018.4668,-3.0224062,3218.8,-0.074023115,-0.016334105,0.0459770949999999,0.023843615,-1.065319,-0.0073075474999999,55720.0,29886.0,24900.0,347.0,-591.0,237.0,0,None
2023-01-03 05:35:27.800,380.556,0.1039999999999963,75.0,1556.0,22667.0,4885.0,99.0,1499.8,132.2,4882.4,107.7238,0.3452099999999999,-0.0815766333333333,0.0283117866666666,-1.0425206666666669,56.56333333333333,-0.0842599233333333,0.03543338,-1.0737096666666668,0.53618294,1.06075868,6.30876,-66.2,-24.3,148.0,-38.4,30.7,244.8,-1077.4,-6.7,272.4,1018.2956,-3.1934454000000003,3219.4,-0.0842599233333333,0.03477893,0.03543338,-0.0006664066666666,-1.0737096666666668,-0.0011216333333333,56800.0,29851.0,25980.0,356.0,-602.0,244.0,0,None
2023-01-03 05:35:28.350,381.142,0.103333333333334,75.0,1212.0,22761.5,4881.0,99.0,1170.6666666666667,134.5,4873.833333333333,101.09176166666668,0.4022298499999999,-0.01787577,0.01880026,-1.037774,57.91,-0.0223051566666666,0.0244625166666666,-1.0685543333333334,0.6607001666666666,1.0059534166666666,7.312723333333333,-65.16666666666667,-46.333333333333336,134.66666666666666,-48.333333333333336,113.5,234.16666666666663,-954.3333333333334,-2.1666666666666665,293.1666666666667,1018.1141666666668,-3.3752213333333336,3220.1666666666665,-0.0223051566666666,0.1446651466666666,0.0244625166666666,-0.0308453396666666,-1.0685543333333334,0.00543992,57970.0,29881.0,27150.0,349.0,-607.0,243.0,0,None
2023-01-03 05:35:28.900,381.708,0.108000000000004,74.0,1107.0,22768.0,4880.0,99.0,1056.6,136.4,4875.6,96.08172,0.46959906,-0.06059809,-0.0386706966666666,-1.071728,59.02666666666666,-0.0668879833333333,-0.0323974466666666,-1.101927,0.79284366,1.0923452,5.5149898,-74.0,-87.6,125.8,-42.6,-197.6,235.6,-928.6,-130.6,326.8,1017.9784,-3.5106252,3221.0,-0.06581261,-0.2193783333333333,-0.03205238,-0.0743020266666666,-1.1010276666666667,-0.1304101133333333,58920.0,29751.0,28100.0,319.0,-591.0,168.0,0,None
2023-01-03 05:35:29.450,382.2362,0.1039999999999963,74.0,1155.0,22748.0,4877.0,99.0,1118.2,137.6,4871.2,93.120566,0.53881768,-0.11180715,-0.04258047,-1.128153,59.56,-0.1147933499999999,-0.035625925,-1.158142,0.64511138,1.0804214,6.424773,-71.8,52.2,143.8,-30.6,-12.2,230.2,-977.4,-91.2,295.6,1017.9284,-3.5607342,3221.6,-0.1147933499999999,-0.0001735149999999,-0.035625925,0.043693185,-1.158142,-0.083200895,59500.0,29408.0,28680.0,289.0,-612.0,108.0,0,None
2023-01-03 05:35:30.000,382.802,0.1000000000000037,74.0,1140.0,22774.0,4880.0,99.0,1141.5,139.5,4879.666666666667,90.90064,0.6167043333333334,-0.1065032,-0.0137805599999999,-1.165667,59.873333333333335,-0.1112119666666666,-0.0112773683333333,-1.1965856666666663,0.6701126166666667,1.020449,7.282342333333333,-72.0,12.5,131.0,-26.666666666666668,1.5,237.66666666666663,-1009.5,-60.16666666666666,298.0,1017.88,-3.6093228333333336,3222.6666666666665,-0.1112119666666666,-0.0092094133333333,-0.0112773683333333,0.0034656666666666,-1.1965856666666663,-0.0675234366666666,59840.0,29166.0,29020.0,271.0,-642.0,70.0,0,None
2023-01-03 05:35:30.550,383.3604,0.1039999999999963,74.0,1245.0,22702.0,4883.0,99.0,1235.8,141.4,4882.6,89.41707199999999,0.6846715800000001,-0.1128991333333333,-0.0192516033333333,-1.1940316666666666,60.07,-0.1156867666666666,-0.015201536,-1.2256953333333334,0.64036026,1.06590188,8.4509164,-66.0,-12.1,123.0,-50.7,-4.0,239.7,-1014.5,-32.8,288.6,1017.8298,-3.6595155,3223.2,-0.1156867666666666,-0.0183691566666666,-0.015201536,-0.019685932,-1.2256953333333334,-0.0468083,60030.0,29016.0,29210.0,264.0,-670.0,50.0,0,None
2023-01-03 05:35:31.100,383.9288333333333,0.1000000000000037,74.0,1170.0,22756.0,4890.0,99.0,1197.5,143.33333333333334,4884.333333333333,88.25652166666664,0.7473146,-0.0976815033333333,-0.0041282856666666,-1.2039576666666667,60.22,-0.10145675,-0.0007980063666666,-1.236433,0.5720865,0.9856322,8.019157833333333,-64.16666666666667,45.5,111.0,-44.5,21.0,245.5,-1033.1666666666667,-2.6666666666666665,300.1666666666667,1017.7958333333332,-3.6932941666666665,3224.1666666666665,-0.10145675,0.0143490199999999,-0.0007980063666666,0.0536058333333333,-1.236433,-0.0048112423333333,60205.0,28920.5,29385.0,246.5,-723.0,36.0,0,None
2023-01-03 05:35:31.650,384.48,0.0999999999999999,74.0,1036.0,22766.0,4890.0,99.0,1087.4,145.2,4883.4,87.291338,0.80760118,-0.085239475,0.0106414535,-1.2009155,60.34,-0.090722175,0.013582415,-1.2339265,0.6691900199999999,0.962832,9.024519,-68.2,25.2,109.6,-56.6,13.8,246.6,-1036.4,9.4,282.2,1017.79,-3.6990158,3225.0,-0.090722175,0.0343636749999999,0.013582415,0.016134831,-1.2339265,-0.002351746,60380.0,28943.0,29560.0,239.0,-757.0,21.0,0,None
2023-01-03 05:35:32.200,385.0253333333333,0.0999999999999942,74.0,1117.0,22751.0,4885.0,99.0,1079.8333333333333,146.66666666666666,4878.666666666667,86.37586333333333,0.8676803666666665,-0.0789640266666666,0.02377638,-1.195898,60.41333333333333,-0.0858568433333333,0.0268714333333333,-1.2295056666666666,0.594461,1.11029,13.682433333333334,-80.33333333333333,16.833333333333332,106.66666666666669,-40.833333333333336,-2.1666666666666665,259.6666666666667,-1048.8333333333333,4.333333333333333,294.3333333333333,1017.762,-3.7272395,3225.833333333333,-0.0858568433333333,-0.0194240833333333,0.0268714333333333,0.035863418,-1.2295056666666666,0.0004713879999999,60440.0,28975.0,29620.0,240.0,-769.0,12.0,0,None
2023-01-03 05:35:32.750,385.5762,0.0999999999999999,74.0,1083.0,22753.0,4890.0,99.0,1123.4,148.6,4883.8,85.52623,0.9265436,-0.0752354133333333,0.03519147,-1.1945613333333334,60.46333333333334,-0.0830553066666666,0.0370366033333333,-1.228367,0.6210044,1.1657284,9.7491902,-80.8,26.2,105.4,-44.4,16.2,255.0,-1031.2,-6.8,282.8,1017.7802,-3.708828,3226.8,-0.0830553066666666,-0.0067869133333333,0.0370366033333333,0.0088787293333333,-1.228367,-0.0058145456666666,60460.0,28962.0,29640.0,245.0,-777.0,6.0,0,None
2023-01-03 05:35:33.300,386.092,0.1039999999999963,74.0,1192.0,22729.0,4882.0,99.0,1146.8,150.2,4876.4,84.864762,0.97644156,-0.06630702,0.04013622,-1.2016545,60.455,-0.074623835,0.0410958,-1.235735,0.7154591800000001,0.80510156,9.373668,-79.4,-57.8,101.0,-40.4,15.4,261.2,-1059.8,-10.8,283.4,1017.7724,-3.716859200000001,3227.2,-0.074623835,0.02221916,0.0410958,-0.029613465,-1.235735,-0.0035897956999999,60450.0,28913.0,29630.0,255.0,-779.0,9.0,0,None
2023-01-03 05:35:33.850,386.642,0.1000000000000037,73.0,1136.5,22751.0,4886.5,99.0,1098.3333333333333,151.83333333333334,4875.333333333333,84.08641666666666,1.034617,-0.0422547266666666,-0.0728117033333333,-1.2318066666666667,60.446666666666665,-0.0508049366666666,-0.069930148,-1.266051,0.6381941166666667,1.03519975,8.447009000000001,-67.66666666666667,-303.6666666666667,91.83333333333331,-41.0,50.333333333333336,232.66666666666663,-1052.0,-160.5,311.3333333333333,1017.7856666666668,-3.7037108333333335,3228.0,-0.0508049366666666,0.0680110699999999,-0.069930148,-0.3354722333333333,-1.266051,-0.1563325666666666,60440.0,28660.0,29620.0,227.0,-783.0,12.0,0,None
2023-01-03 05:35:34.400,387.242,0.1000000000000037,73.0,1118.0,22728.0,4890.0,99.0,1144.0,153.83333333333334,4873.666666666667,83.14246333333334,1.100131,-0.0420496933333333,-0.1672070999999999,-1.364898333333333,60.43333333333334,-0.0497505866666666,-0.1594763666666666,-1.398755666666667,0.6160551833333333,0.9618643333333332,9.268592333333334,-58.16666666666666,56.16666666666666,52.66666666666666,-54.16666666666666,2.0,197.66666666666663,-1095.0,-235.3333333333333,353.3333333333333,1017.7698333333334,-3.719322833333333,3228.833333333333,-0.0497505866666666,0.0261041966666666,-0.1594763666666666,0.0341504299999999,-1.398755666666667,-0.2261403666666666,60430.0,27950.0,29610.0,135.0,-792.0,11.0,0,None
2023-01-03 05:35:34.950,387.8004,0.1041999999999916,73.0,1156.0,22756.0,4877.0,99.0,1105.2,155.4,4876.2,82.312768,1.1653878,-0.06242888,-0.1070307433333333,-1.4824296666666663,60.43333333333334,-0.0672034966666666,-0.1012396866666666,-1.517124,0.74512304,1.11549996,8.4056048,-67.6,75.4,24.4,-45.8,-11.8,226.0,-1103.6,-160.0,354.2,1017.8148,-3.674468800000001,3229.8,-0.0672034966666666,-0.0060767161333333,-0.1012396866666666,0.0916324733333333,-1.517124,-0.1557763666666666,60440.0,27385.0,29620.0,52.0,-801.0,11.0,0,None
2023-01-03 05:35:35.500,388.321,0.1040000000000076,73.0,1127.0,22753.0,4883.0,99.0,1131.2,157.0,4871.8,81.724352,1.2221378,-0.073814245,-0.060162665,-1.550464,60.405,-0.07823672,-0.05655516,-1.584394,0.69987458,1.09972188,7.1474834000000005,-83.0,62.2,3.6,-28.4,-8.4,232.4,-1050.4,-111.8,328.2,1017.8374,-3.6515938,3230.2,-0.07823672,-0.068887097,-0.05655516,0.0545936695,-1.584394,-0.120272045,60410.0,26976.0,29590.0,-2.0,-811.0,13.0,0,None
2023-01-03 05:35:36.050,388.8564,0.1117999999999937,73.0,1122.0,22700.0,4883.0,99.0,1100.0,158.6,4880.4,81.16137199999999,1.2866306,-0.0782016466666666,-0.0483999166666666,-1.610876,60.39333333333334,-0.0832338633333333,-0.0467192166666666,-1.643033,0.73560184,1.2174508,7.393939400000001,-73.5,-25.1,-8.2,4.2,-3.8,239.8,-1080.6,-95.2,334.1,1017.8373,-3.6517031,3231.1,-0.0832338633333333,-0.015661,-0.0467192166666666,-0.0309780333333333,-1.643033,-0.1012223333333333,60390.0,26636.0,29570.0,-30.0,-823.0,21.0,0,None
2023-01-03 05:35:36.600,389.3966,0.1042000000000029,73.0,1056.0,22769.0,4853.0,99.0,1089.8,160.4,4876.4,80.685462,1.3487867999999998,-0.0814105466666666,-0.05395916,-1.6619349999999995,60.40333333333333,-0.0858472266666666,-0.0514963233333333,-1.6933416666666667,0.7978208999999999,1.03074884,7.878750999999999,-82.0,6.6,-15.0,-21.0,-13.4,243.4,-1058.6,-70.4,346.0,1017.8316,-3.65775,3231.8,-0.0858472266666666,0.022821582,-0.0514963233333333,0.0108942766666666,-1.6933416666666667,-0.05737878,60400.0,26366.0,29580.0,-57.0,-832.0,22.0,0,None
2023-01-03 05:35:37.150,389.9408,0.1077999999999974,73.0,1116.0,22749.0,4875.0,98.4,1135.2,162.0,4870.0,80.292338,1.4074522,-0.072635915,-0.0486454749999999,-1.695045,60.415,-0.078325545,-0.047205495,-1.7258365,0.67798692,1.1987876,7.013312999999999,-75.4,-10.6,-21.4,-28.4,26.8,239.4,-1069.4,-67.2,320.6,1017.8114,-3.677750000000001,3232.8,-0.078325545,0.04089436,-0.047205495,-0.0132864419999999,-1.7258365,-0.1002050999999999,60410.0,26196.0,29590.0,-84.0,-842.0,25.0,0,None
2023-01-03 05:35:37.700,390.5225,0.1066666666666643,73.0,1074.0,22730.0,4877.0,98.0,1073.1666666666667,163.5,4877.0,79.94760666666667,1.4650041666666669,-0.0683962733333333,-0.05875659,-1.73138,60.443333333333335,-0.07398768,-0.0563938699999999,-1.7614089999999998,0.8061450166666666,1.5399023333333333,5.361941000000001,-87.91666666666667,-166.58333333333334,-43.833333333333336,-4.083333333333333,82.25,233.3333333333333,-1094.5,-71.91666666666667,332.4166666666667,1017.8021666666664,-3.687109166666667,3233.333333333333,-0.07398768,0.0341002966666666,-0.0563938699999999,-0.0931656466666666,-1.7614089999999998,-0.05393698,60450.0,25878.5,29630.0,-123.5,-844.0,25.5,0,None
2023-01-03 05:35:38.250,391.1128,0.1040000000000076,73.0,1115.0,22710.0,4882.0,98.0,1094.4,165.6,4872.8,79.639572,1.5161866,8.262000000000026e-05,-0.2152476666666666,-1.8233136666666665,60.49666666666666,-0.0057282354666666,-0.2106987333333333,-1.8509423333333328,0.7396185200000001,1.2703518,7.544831,-83.4,-228.2,-79.2,8.6,81.4,185.0,-1101.0,-246.6,355.4,1017.7976,-3.6914528,3234.0,-0.0057282354666666,0.0987852999999999,-0.2106987333333333,-0.2608599666666666,-1.8509423333333328,-0.2382803333333333,60510.0,25044.0,29690.0,-232.0,-789.0,22.0,0,None
2023-01-03 05:35:38.800,391.649,0.1081999999999993,73.0,1155.0,22734.0,4883.0,98.0,1130.4,167.2,4880.6,79.201358,1.5777952,-0.02462598,-0.26634355,-1.9883155,60.525000000000006,-0.02931467,-0.2591304,-2.014369,0.7503814600000001,1.08073124,8.7833314,-84.6,19.8,-120.4,-13.2,-14.2,137.8,-1125.2,-358.4,379.2,1017.764,-3.7253752,3234.8,-0.02931467,-0.00730598,-0.2591304,0.02111808845,-2.014369,-0.36738595,60540.0,24046.0,29720.0,-349.0,-718.0,20.0,0,None
2023-01-03 05:35:39.350,392.177,0.1079999999999926,73.0,1044.0,22754.5,4886.5,98.0,1062.8,168.6,4876.8,78.795328,1.6379906000000002,-0.0801261866666666,-0.2175149666666666,-2.142052333333333,60.57666666666666,-0.0824712333333333,-0.2117391333333333,-2.165287333333333,0.8396300800000001,1.3144416,9.028193,-46.3,84.8,-143.5,20.6,-27.1,124.1,-1062.5,-227.5,363.5,1017.7373,-3.7516716,3235.6,-0.0824712333333333,-0.0106437866666666,-0.2117391333333333,0.0996910066666666,-2.165287333333333,-0.2663453,60600.0,23331.0,29780.0,-446.0,-668.0,16.0,0,None
2023-01-03 05:35:39.900,392.733,0.1000000000000037,73.0,1147.0,22733.0,4888.0,98.0,1118.5,170.33333333333334,4879.166666666667,78.45802833333333,1.7015865,-0.1004102566666666,-0.1518812666666666,-2.2578283333333338,60.63666666666666,-0.10063829,-0.1503239666666666,-2.2754966666666667,0.8345267,1.2279901666666666,8.514040333333334,-107.5,76.66666666666667,-161.5,-4.0,30.166666666666668,125.16666666666669,-1084.8333333333333,-146.16666666666666,362.3333333333333,1017.7211666666668,-3.7680726666666655,3236.1666666666665,-0.10063829,0.0465105933333333,-0.1503239666666666,0.0703784633333333,-2.2754966666666667,-0.1266969566666666,60640.0,22885.0,29820.0,-515.0,-637.0,10.0,0,None
2023-01-03 05:35:40.450,393.293,0.0999999999999999,72.0,1066.0,22729.0,4883.0,98.0,1032.0,172.4,4877.6,78.27423399999999,1.7629756,-0.0901577633333333,-0.1092218366666666,-2.332037333333333,60.696666666666665,-0.0914310833333333,-0.1097976399999999,-2.34607,0.90900124,1.4652398,7.5502826,-77.4,35.6,-179.2,-19.6,28.2,144.8,-1027.4,-98.2,371.4,1017.704,-3.78525,3237.0,-0.0914310833333333,0.0023705566666666,-0.1097976399999999,0.0541882866666666,-2.34607,-0.1100066433333333,60700.0,22557.0,29880.0,-562.0,-612.0,12.0,0,None
2023-01-03 05:35:41.000,393.801,0.1039999999999963,72.0,1021.0,22758.0,4891.0,98.0,988.6,173.6,4880.6,78.22120600000001,1.8191602,-0.08991772,-0.094956295,-2.3913005,60.735,-0.09141182,-0.09664608,-2.4003645,1.070943,1.1434248,9.9778582,-118.8,5.8,-185.8,16.2,12.0,123.8,-1083.2,-119.4,346.8,1017.6914,-3.797625,3237.4,-0.09141182,-0.00531556,-0.09664608,-0.0216381999999999,-2.4003645,-0.1159536999999999,60730.0,22240.0,29910.0,-594.0,-600.0,9.0,0,None
2023-01-03 05:35:41.550,394.363,0.1000000000000037,72.0,995.0,22757.0,4883.0,98.0,974.1666666666666,175.16666666666666,4876.333333333333,78.25285166666667,1.8746946666666664,-0.0805414933333333,-0.0979916833333333,-2.4406010000000005,60.76666666666667,-0.08315414,-0.0988826199999999,-2.445501333333333,1.0660533166666666,1.2593586666666667,11.611385333333333,-79.5,-110.0,-202.3333333333333,8.166666666666666,67.33333333333333,121.0,-1066.5,-81.16666666666667,360.3333333333333,1017.6955000000002,-3.7935936666666654,3238.0,-0.08315414,0.0659269073333333,-0.0988826199999999,-0.1138873103333333,-2.445501333333333,-0.06839155,60770.0,21990.0,29950.0,-621.0,-585.0,4.0,0,None
2023-01-03 05:35:42.100,394.92500000000007,0.1039999999999963,72.0,993.0,22791.0,4888.0,98.0,1020.4,176.6,4874.6,78.326108,1.9358064,-0.03346537,-0.2282363666666667,-2.544943,60.79,-0.03519096,-0.2272419333333333,-2.5457593333333333,0.98615686,1.15182714,10.9100302,-83.2,-245.6,-234.4,24.2,64.2,74.8,-1007.8,-239.4,362.0,1017.6478,-3.8415466,3238.6,-0.03519096,0.079798458,-0.2272419333333333,-0.1830217133333333,-2.5457593333333333,-0.2359015333333333,60780.0,21581.0,29960.0,-650.0,-542.0,10.0,0,None
2023-01-03 05:35:42.650,395.483,0.1000000000000037,72.0,1054.0,22706.0,4888.0,98.0,1073.3333333333333,178.33333333333334,4884.833333333333,78.35239333333334,1.9851650000000003,-0.0633849866666666,-0.2645545666666666,-2.719834,60.85,-0.06488554,-0.2611409666666667,-2.7143503333333334,0.81208515,1.3067995,10.121874333333334,-63.0,-5.166666666666667,-250.66666666666663,25.83333333333333,19.666666666666668,10.5,-1019.5,-280.8333333333333,366.5,1017.5963333333332,-3.8926561666666655,3239.1666666666665,-0.06488554,0.0024627593333333,-0.2611409666666667,0.0099119633333333,-2.7143503333333334,-0.2920432333333333,60830.0,20813.0,30010.0,-686.0,-446.0,-3.0,0,None
2023-01-03 05:35:43.200,396.033,0.0999999999999999,72.0,991.0,22781.0,4891.0,98.0,1026.4,179.8,4886.8,78.34572399999999,2.0371558000000003,-0.10312641,-0.2281866,-2.848037,60.905,-0.101157865,-0.22701405,-2.8366995,0.96919312,1.3704117999999998,9.081916,-111.8,81.2,-246.4,6.2,-25.2,-14.4,-1080.6,-223.0,358.2,1017.6468,-3.8424062,3240.2,-0.101157865,-0.035496208,-0.22701405,0.073481835,-2.8366995,-0.22760295,60880.0,19999.0,30060.0,-727.0,-339.0,-5.0,0,None
2023-01-03 05:35:43.750,396.549,0.1039999999999963,72.0,1077.0,22702.0,4888.0,98.0,1105.4,181.4,4883.2,78.33649,2.0943872,-0.08150307,-0.1987896333333333,-2.917059333333333,60.88999999999999,-0.07790132,-0.1997479333333333,-2.8994630000000003,0.94227306,1.3136731999999998,11.18132,-114.6,35.2,-245.6,51.4,172.2,-35.6,-1083.2,-48.2,366.2,1017.626,-3.863125,3240.6,-0.07790132,0.2602952433333333,-0.1997479333333333,0.1088198986666666,-2.8994630000000003,-0.0179792866666666,60900.0,19475.0,30080.0,-765.0,-256.0,-13.0,0,None
2023-01-03 05:35:44.300,397.123,0.1066666666666643,72.0,803.5,22810.5,4877.0,98.0,786.0,182.8333333333333,4885.5,78.35340333333333,2.154405,0.1049315166666666,-0.0866418233333333,-2.908485666666666,60.89666666666667,0.10613467,-0.09017452,-2.885772,0.8430257666666665,1.942815,15.237486666666667,-73.0,208.66666666666663,-304.3333333333333,1.6666666666666667,-1219.7666666666667,-6.25,-1172.8333333333333,49.333333333333336,322.1666666666667,1017.7714166666666,-3.71772775,3241.1666666666665,0.10613467,0.18814597,-0.09017452,0.2554245,-2.885772,0.0445099183333333,60890.0,19428.0,30070.0,-753.5,-149.0,2.5,1,27_ygyro_avg_abrupt_-1409.1
2023-01-03 05:35:44.850,397.6972,0.1040000000000076,72.0,812.0,22831.0,4890.0,98.0,832.8,184.2,4877.6,78.32324600000001,2.2103975999999994,0.16193105,0.009084722,-2.8985715,60.81,0.16318595,0.0059013985,-2.8732635,0.80618272,2.433068,13.554948,-68.8,132.8,-336.8,-38.0,-1366.5,29.2,-956.8,21.6,281.0,1017.7984,-3.690781,3242.0,0.16318595,0.1201924,0.0059013985,0.17346275,-2.8732635,0.00796076,60770.0,19540.0,29950.0,-626.0,-97.0,0.0,1,27_ygyro_avg_abrupt_-1409.1
2023-01-03 05:35:45.400,398.217,0.1039999999999963,72.0,910.0,22786.0,4888.0,98.0,845.4,185.4,4876.4,78.204528,2.2567062,0.1605609999999999,0.0577340533333333,-2.9035040000000003,60.720000000000006,0.1607376666666666,0.0551930933333333,-2.8787846666666668,0.8558405199999999,2.0700494,13.417186,-57.6,74.2,-343.4,-12.8,-1422.6999999999998,40.8,-933.4,10.6,277.4,1017.7506,-3.7384844,3242.6,0.1607376666666666,0.0261134966666666,0.0551930933333333,0.1306471666666666,-2.8787846666666668,-0.001581267,60700.0,19502.0,29880.0,-517.0,-104.0,6.0,1,27_ygyro_avg_abrupt_-1409.1
2023-01-03 05:35:45.950,398.737,0.1039999999999963,72.0,1047.0,22732.0,4887.0,98.0,1054.0,186.6,4885.0,78.011538,2.2924792000000003,0.1690387,0.06493418,-2.9143980000000003,60.69,0.16925615,0.06353096,-2.8915795,0.65284288,1.7119722,14.695711999999997,-41.8,-53.0,-344.0,11.2,-1401.5,55.0,-1150.2,-62.0,257.4,1017.6844,-3.805047,3243.0,0.16925615,-0.005115535,0.06353096,-0.1119140999999999,-2.8915795,-0.047372625,60700.0,19360.0,29880.0,-401.0,-126.0,5.0,1,27_ygyro_avg_abrupt_-1409.1
2023-01-03 05:35:46.500,399.31,0.1035000000000062,72.0,1126.0,22698.0,4888.0,98.0,1120.5,188.66666666666663,4885.0,77.74916166666667,2.3264698333333333,0.1473732,0.0079352243333333,-2.9435396666666667,60.71,0.1478116333333333,0.008802016,-2.922863,0.6881529666666667,2.156060833333333,15.586316666666669,-38.583333333333336,-61.25,-352.3333333333333,-10.5,-1537.7666666666667,26.58333333333333,-1073.8333333333333,-26.58333333333333,271.75,1017.6663333333336,-3.8228579166666665,3243.833333333333,0.1478116333333333,-0.1132261633333333,0.008802016,-0.08750441,-2.922863,-0.05621726,60710.0,19207.0,29890.0,-302.0,-123.0,-1.0,1,27_ygyro_avg_abrupt_-1409.1
2023-01-03 05:35:47.050,399.8860000000001,0.1039999999999963,72.0,1120.0,22722.0,4890.0,98.0,1119.6,190.4,4880.4,77.49281400000001,2.3499758,0.0496720866666666,-0.0015412478999999,-2.9461076666666663,60.73666666666666,0.0530842766666666,0.0004170453333333,-2.92633,0.6846941799999999,1.5057036,12.374244,-50.8,9.0,-317.2,-9.6,-1478.1,20.4,-1064.6,48.0,302.6,1017.6008000000002,-3.888453,3244.2,0.0530842766666666,-0.0917168233333333,0.0004170453333333,0.0104595399999999,-2.92633,0.0480281466666666,60740.0,19245.0,29920.0,-253.0,-118.0,0.0,1,27_ygyro_avg_abrupt_-1409.1
2023-01-03 05:35:47.600,400.41,0.1039999999999963,72.0,1152.0,22690.0,4883.0,98.0,1142.6,192.0,4880.4,77.21500999999999,2.3671766,0.06085409,0.001475093,-2.917109,60.8,0.064306295,0.0025055615,-2.896958,0.8925017000000001,1.1388338,10.370383,-47.8,2.6,-313.2,13.4,-1327.6999999999998,29.6,-1053.4,39.2,323.2,1017.5434,-3.9457656,3244.8,0.064306295,0.100549235,0.0025055615,-0.018310912,-2.896958,0.051031825,60810.0,19421.0,29990.0,-224.0,-119.0,-7.0,1,27_ygyro_avg_abrupt_-1409.1
2023-01-03 05:35:48.150,400.938,0.1040000000000077,72.0,1153.0,22678.0,4890.0,98.0,1141.8,193.6,4883.6,76.95221000000001,2.3791986,0.1094347566666666,-0.0081583173333333,-2.909164333333333,60.86666666666667,0.1121673333333333,-0.0086101586666666,-2.88902,0.68531774,0.95455366,11.1909732,-21.6,-25.8,-330.2,-16.0,-1313.6999999999998,23.2,-1035.2,-1.4,292.0,1017.5644,-3.9245156,3245.6,0.1121673333333333,0.0869939966666666,-0.0086101586666666,-0.0059089416666666,-2.88902,-0.0046148906666666,60880.0,19454.0,30060.0,-176.0,-109.0,-12.0,1,27_ygyro_avg_abrupt_-1409.1
2023-01-03 05:35:48.700,401.504,0.103333333333334,72.0,1235.0,22662.0,4887.0,98.0,1227.5,195.5,4881.5,76.613395,2.390256166666666,0.1239640999999999,-0.0180568466666666,-2.922561,60.85999999999999,0.1252666666666666,-0.0182620566666666,-2.9026316666666667,0.66258425,1.0433570166666666,11.072381666666669,-20.166666666666668,10.5,-341.1666666666667,14.5,-1434.6,20.5,-1084.8333333333333,-15.333333333333334,281.5,1017.5873333333332,-3.9016015,3246.1666666666665,0.1252666666666666,-0.0591417833333333,-0.0182620566666666,-0.01953085,-2.9026316666666667,0.0058391866666666,60860.0,19354.0,30040.0,-114.0,-92.0,-21.0,1,27_ygyro_avg_abrupt_-1409.1
2023-01-03 05:35:49.250,402.058,0.0999999999999999,72.0,1178.0,22682.0,4888.0,98.0,1219.4,197.4,4878.2,76.301064,2.397988,0.11573365,-0.01803154,-2.900544,60.83,0.11824965,-0.019109175,-2.8812445,0.5383564200000001,1.0524755200000002,11.8852398,1.4,-33.2,-336.8,1.4,-1419.6999999999998,35.8,-1177.4,72.4,289.4,1017.6086,-3.8804374,3246.6,0.11824965,0.0017301365,-0.019109175,-0.0230256185,-2.8812445,0.094766105,60830.0,19469.0,30010.0,-62.0,-79.0,-13.0,1,27_ygyro_avg_abrupt_-1409.1
2023-01-03 05:35:49.800,402.6073333333333,0.0999999999999942,72.0,1176.0,22707.0,4890.0,98.0,1112.5,199.16666666666663,4881.333333333333,75.98117,2.405066,0.1005966766666666,-0.0338969,-2.8604256666666665,60.80666666666667,0.1036458,-0.0349337133333333,-2.839592333333333,0.5559995666666667,1.153806,8.2577435,9.833333333333334,-14.666666666666666,-324.1666666666667,7.166666666666667,-1471.2666666666667,37.0,-1100.8333333333333,63.333333333333336,291.6666666666667,1017.6208333333332,-3.8683201666666656,3247.0,0.1036458,-0.0464226233333333,-0.0349337133333333,-0.0361169099999999,-2.839592333333333,0.0725345733333333,60810.0,19719.0,29990.0,-21.0,-62.0,-11.0,1,27_ygyro_avg_abrupt_-1409.1
2023-01-03 05:35:50.350,403.158,0.0999999999999999,72.0,1129.0,22671.0,4887.0,98.0,1098.2,200.6,4882.2,75.63428200000001,2.4131697999999995,0.091169,-0.0390909066666666,-2.831466666666667,60.76666666666667,0.0959619766666666,-0.0398292133333333,-2.8092586666666666,0.66815216,1.3616518,12.30243,4.4,-22.2,-314.6,-27.8,-1371.6999999999998,46.4,-1138.6,41.2,307.4,1017.658,-3.8311406,3247.8,0.0959619766666666,0.0103822533333333,-0.0398292133333333,-0.0475876633333333,-2.8092586666666666,0.0434776666666666,60780.0,19872.0,29960.0,4.0,-45.0,-11.0,1,27_ygyro_avg_abrupt_-1409.1
2023-01-03 05:35:50.900,403.704,0.1000000000000037,72.0,1128.5,22696.5,4892.5,98.0,1143.6666666666667,202.5,4885.833333333333,75.27816666666668,2.4225651666666668,0.1057432333333333,-0.0404272333333333,-2.831850333333333,60.67666666666667,0.1090681333333333,-0.0419382166666666,-2.809008,0.6522445666666665,1.3159336666666668,11.242424666666668,18.83333333333333,25.666666666666668,-327.1666666666667,0.8333333333333334,-1402.7666666666667,53.0,-1096.5,-33.5,281.6666666666667,1017.6711666666666,-3.818125,3248.1666666666665,0.1090681333333333,0.00212442,-0.0419382166666666,0.0253618826666666,-2.809008,-0.0289005433333333,60710.0,19951.0,29890.0,25.0,-23.0,-12.0,1,27_ygyro_avg_abrupt_-1409.1
2023-01-03 05:35:51.450,404.2658,0.1039999999999962,72.0,1113.0,22724.0,4888.0,98.0,1151.4,204.4,4889.2,74.91780200000001,2.4341388000000004,0.08532324,-0.034915325,-2.846588,60.595,0.0881843549999999,-0.03758008,-2.8234355,0.5951970799999999,1.2327344000000002,11.91909,33.7,-3.3,-312.5,21.1,-1447.3999999999999,52.0,-1127.5,-9.8,295.3,1017.6676,-3.8214766,3248.8,0.0881843549999999,-0.0774902349999999,-0.03758008,-0.003873272865,-2.8234355,-0.036011785,60640.0,19852.0,29820.0,50.0,-2.0,-6.0,1,27_ygyro_avg_abrupt_-1409.1
2023-01-03 05:35:52.000,404.8058,0.1120000000000004,71.0,1106.0,22690.0,4890.0,98.0,1140.8,206.0,4880.2,74.57796,2.4467419999999995,0.0655722466666666,-0.0388923466666666,-2.847094,60.556666666666665,0.0700131333333333,-0.0414848433333333,-2.8231326666666665,0.57994232,1.204746,11.471116,28.8,-4.4,-318.4,17.6,-1455.1,47.2,-985.6,-1.4,302.8,1017.6856,-3.803578200000001,3249.4,0.0700131333333333,-0.0531199166666666,-0.0414848433333333,-0.022569211,-2.8231326666666665,0.0101624956666666,60550.0,19828.0,29730.0,71.5,14.5,-2.0,1,27_ygyro_avg_abrupt_-1409.1
2023-01-03 05:35:52.550,405.374,0.1000000000000037,71.0,1104.0,22719.0,4887.0,98.0,1110.1666666666667,207.8333333333333,4877.166666666667,74.21877500000001,2.46084,0.03761878,-0.04300359,-2.843417666666666,60.51333333333333,0.04333313,-0.0451386166666666,-2.8186093333333333,0.6397458666666667,1.2218116666666663,10.474348833333336,35.166666666666664,12.5,-303.0,8.0,-1446.9333333333332,48.66666666666666,-1003.1666666666666,-13.333333333333334,313.3333333333333,1017.6758333333332,-3.813216166666667,3250.0,0.04333313,-0.00240186,-0.0451386166666666,0.0289737213333333,-2.8186093333333333,-0.0032972946666666,60500.0,19851.0,29680.0,68.0,26.0,-2.0,1,27_ygyro_avg_abrupt_-1409.1
2023-01-03 05:35:53.100,405.934,0.0999999999999999,71.0,1085.0,22693.0,4890.0,98.0,1079.6,209.6,4884.8,73.86811,2.4755192000000004,0.028267755,-0.023933765,-2.8505405,60.49,0.03322387,-0.02664707,-2.82498,0.78569574,1.318038,11.159141,5.4,21.6,-303.2,19.6,-1435.3,55.2,-1048.2,-25.8,308.8,1017.687,-3.802203,3250.4,0.03322387,-0.03911202,-0.02664707,0.03351471,-2.82498,-0.03347823,60470.0,19799.0,29650.0,62.0,24.0,2.0,1,27_ygyro_avg_abrupt_-1409.1
2023-01-03 05:35:53.650,406.446,0.1039999999999963,71.0,1035.0,22703.0,4888.0,98.0,1085.6,211.0,4882.8,73.52045000000001,2.4913524,0.0195531133333333,-0.0277479933333333,-2.8566983333333336,60.45666666666667,0.0235751699999999,-0.0310923333333333,-2.830626,0.72048346,1.2597514,9.7531608,29.6,-24.6,-298.6,-3.4,-1437.6999999999998,57.4,-1030.8,15.2,316.0,1017.6748,-3.8144846,3251.0,0.0235751699999999,-0.0487354366666666,-0.0310923333333333,-0.01908789,-2.830626,0.0104787133333333,60450.0,19775.0,29630.0,55.0,21.0,-3.0,1,27_ygyro_avg_abrupt_-1409.1
2023-01-03 05:35:54.200,407.0173333333333,0.103333333333334,71.0,1035.0,22729.0,4895.0,98.0,1094.8333333333333,212.66666666666663,4888.166666666667,73.25062666666666,2.504869,0.0054732183333333,-0.03960401,-2.8636773333333334,60.42666666666667,0.0095176406666666,-0.0429914733333333,-2.836258666666667,0.6878781000000002,1.2972353333333333,9.906022166666666,34.083333333333336,-14.666666666666666,-293.3333333333333,22.0,-1422.5166666666667,43.583333333333336,-1078.75,-4.416666666666667,321.9166666666667,1017.68075,-3.8083528333333327,3251.333333333333,0.0095176406666666,-0.0295830433333333,-0.0429914733333333,-0.0237320669999999,-2.836258666666667,-0.0140693033333333,60430.0,19744.0,29610.0,39.0,20.0,-2.0,1,27_ygyro_avg_abrupt_-1409.1
2023-01-03 05:35:54.750,407.578,0.0999999999999999,71.0,1186.0,22662.0,4890.0,98.0,1113.4,214.4,4887.4,73.04046600000001,2.5170958,0.0088447034999999,-0.0391802049999999,-2.870384,60.370000000000005,0.014002295,-0.042478615,-2.841264,0.67339968,1.1390097999999995,7.685844399999999,16.8,-4.6,-306.2,-3.8,-1397.1,46.4,-1076.6,-5.2,306.0,1017.658,-3.831234400000001,3252.0,0.014002295,0.012475645,-0.042478615,-0.014979185,-2.841264,0.0114643015,60380.0,19717.0,29560.0,25.0,20.0,-3.0,1,27_ygyro_avg_abrupt_-1409.1
2023-01-03 05:35:55.300,408.1306666666666,0.103333333333334,71.0,1163.0,22662.5,4890.0,98.0,1158.1666666666667,216.16666666666663,4888.666666666667,72.90038333333334,2.5278458333333336,0.0116174533333333,-0.0471635466666666,-2.8709900000000004,60.31666666666666,0.0167971533333333,-0.0501781633333333,-2.8419263333333333,0.61506425,1.0816352833333334,8.280786166666667,25.0,-12.666666666666666,-290.5,38.16666666666666,-1422.1,45.333333333333336,-1065.0,3.333333333333333,326.8333333333333,1017.688,-3.8011848333333336,3252.1666666666665,0.0167971533333333,-0.0255631866666666,-0.0501781633333333,-0.0056030566666666,-2.8419263333333333,-0.0082554509999999,60320.0,19712.0,29500.0,15.0,22.0,0.0,1,27_ygyro_avg_abrupt_-1409.1
2023-01-03 05:35:55.850,408.678,0.0999999999999999,71.0,1131.0,22670.0,4888.0,98.0,1142.0,218.2,4885.4,72.80171800000001,2.538284,0.00920244,-0.0460287733333333,-2.8769606666666667,60.27,0.0139322233333333,-0.04879194,-2.8459766666666666,0.60334552,1.1157618,7.539481,19.8,14.2,-300.8,5.8,-1406.5,41.2,-1077.8,-6.8,318.8,1017.685,-3.8043592,3252.8,0.0139322233333333,0.0008695933333333,-0.04879194,0.0129638266666666,-2.8459766666666666,-0.0115592083333333,60270.0,19697.0,29450.0,2.0,24.0,-2.0,1,27_ygyro_avg_abrupt_-1409.1
2023-01-03 05:35:56.400,409.2308333333333,0.1000000000000037,71.0,1144.0,22658.0,4891.0,98.0,1141.1666666666667,219.66666666666663,4883.666666666667,72.74257333333334,2.5490150000000003,0.0112348266666666,-0.0371106266666666,-2.879894,60.26666666666667,0.0167480866666666,-0.0393261933333333,-2.847798333333333,0.656254,1.1726996333333333,7.475094166666666,25.83333333333333,16.5,-300.3333333333333,0.6666666666666666,-1390.1,41.333333333333336,-1066.5,8.0,317.5,1017.6995,-3.7898825,3253.0,0.0167480866666666,0.0162743886666666,-0.0393261933333333,0.0115966556666666,-2.847798333333333,0.0080697533333333,60270.0,19680.0,29450.0,-8.0,24.0,0.0,1,27_ygyro_avg_abrupt_-1409.1
2023-01-03 05:35:56.950,409.794,0.0999999999999999,71.0,1177.0,22635.0,4890.0,98.0,1179.2,221.6,4875.4,72.738996,2.5590982,0.023087945,-0.0319782299999999,-2.882154,60.25,0.02858159,-0.03393209,-2.8495725,0.6185446599999999,1.18132028,9.2110822,25.0,-4.8,-298.6,32.0,-1398.5,38.0,-1063.4,-8.0,312.2,1017.6974,-3.7918748,3253.8,0.02858159,0.0362569249999999,-0.03393209,0.0110495849999999,-2.8495725,-0.021350345,60250.0,19684.0,29430.0,-18.0,21.0,0.0,1,27_ygyro_avg_abrupt_-1409.1
2023-01-03 05:35:57.500,410.344,0.0999999999999942,71.0,1189.0,22653.0,4891.0,98.0,1166.8333333333333,223.5,4879.833333333333,72.73781000000001,2.5670723333333334,0.02775689,-0.03457304,-2.884333,60.23666666666667,0.0333539266666666,-0.03515265,-2.850872666666666,0.6168133833333332,1.0888966333333332,7.867125000000001,14.166666666666666,5.666666666666667,-306.6666666666667,-0.5,-1401.1,54.5,-1087.6666666666667,-1.5,313.0,1017.692,-3.797057333333333,3254.1666666666665,0.0333539266666666,-0.0147855566666666,-0.03515265,0.0018662329999999,-2.850872666666666,0.010650049,60240.0,19669.0,29420.0,-19.5,16.5,2.5,1,27_ygyro_avg_abrupt_-1409.1
2023-01-03 05:35:58.050,410.89400000000006,0.0999999999999999,71.0,1164.0,22646.0,4883.0,98.0,1174.4,225.4,4879.2,72.717556,2.5741906,0.0309148933333333,-0.0315344133333333,-2.880634333333333,60.23666666666667,0.0360580633333333,-0.03144565,-2.847379333333333,0.58249808,1.0477916,7.489264799999999,29.8,6.4,-302.2,13.8,-1424.6999999999998,44.2,-1024.2,14.4,312.2,1017.696,-3.7931404,3254.8,0.0360580633333333,0.0145803182999999,-0.03144565,0.017787431,-2.847379333333333,0.0156891463333333,60230.0,19687.0,29410.0,-18.0,14.0,3.0,1,27_ygyro_avg_abrupt_-1409.1
2023-01-03 05:35:58.600,411.444,0.1000000000000037,71.0,1128.0,22664.0,4882.0,98.0,1142.6666666666667,227.16666666666663,4873.833333333333,72.67683666666666,2.581284,0.0267733433333333,-0.0244837233333333,-2.886703333333333,60.23666666666667,0.0321388333333333,-0.0238834433333333,-2.852843333333334,0.6269355666666666,1.0823157166666666,7.950927833333334,18.5,8.0,-302.6666666666667,15.5,-1414.7666666666667,47.16666666666666,-1080.3333333333333,-17.0,310.1666666666667,1017.6965,-3.792695333333334,3255.0,0.0321388333333333,-0.0057254399999999,-0.0238834433333333,0.01751355,-2.852843333333334,-0.018086436,60240.0,19648.0,29420.0,-15.0,11.0,0.0,1,27_ygyro_avg_abrupt_-1409.1
2023-01-03 05:35:59.150,411.994,0.0999999999999999,71.0,1178.0,22665.0,4882.0,98.0,1163.0,228.8,4879.2,72.616606,2.5881342,0.027236065,-0.02318531,-2.888126,60.24,0.033023145,-0.022687,-2.8542425,0.60871162,1.07046252,7.442347199999999,16.0,-7.2,-305.6,11.0,-1422.3,60.0,-1049.4,15.2,306.2,1017.696,-3.7932186,3255.6,0.033023145,0.0140670575,-0.022687,0.00264804,-2.8542425,0.002695147,60240.0,19645.0,29420.0,-11.0,8.0,0.0,1,27_ygyro_avg_abrupt_-1409.1
2023-01-03 05:35:59.700,412.544,0.0999999999999942,71.0,1143.0,22660.0,4885.0,98.0,1153.8333333333333,230.5,4879.0,72.53853666666667,2.594346,0.0247762166666666,-0.0246965833333333,-2.889579666666666,60.24333333333334,0.0302746266666666,-0.0237997466666666,-2.8560096666666666,0.6030984833333334,1.0093825166666666,7.0871605,16.166666666666668,-5.0,-300.1666666666667,15.666666666666666,1.5,39.833333333333336,-1065.6666666666667,-10.0,321.5,1017.6953333333336,-3.7938673333333335,3255.833333333333,0.0302746266666666,-0.0107343693333333,-0.0237997466666666,-0.0175546699999999,-2.8560096666666666,-0.0033733243333333,60240.0,19633.0,29420.0,-7.0,4.0,0.0,0,None
2023-01-03 05:36:00.250,413.1139999999999,0.1040000000000076,71.0,1143.0,22638.0,4891.0,98.0,1188.4,232.4,4874.0,72.445938,2.5999758,0.0260163433333333,-0.0246621266666666,-2.898225333333334,60.25333333333333,0.0322379633333333,-0.0235888133333333,-2.862448666666667,0.5342367400000001,1.1380263199999998,8.941557399999999,13.4,14.0,-302.6,32.6,-17.0,27.2,-1094.8,-16.8,307.4,1017.6878,-3.8015624,3256.4,0.0322379633333333,0.0206995633333333,-0.0235888133333333,0.018646579,-2.862448666666667,-0.0007423594666666,60250.0,19593.0,29430.0,-7.0,1.0,0.0,0,None
2023-01-03 05:36:00.800,413.6139999999999,0.0999999999999999,71.0,1170.0,22627.0,4882.0,98.0,1159.4,234.0,4871.0,72.348196,2.6051334,0.029883445,-0.018472205,-2.9037085,60.265,0.03523457,-0.01900194,-2.8676885,0.5864074,1.13032904,8.9080194,15.6,-20.2,-308.0,7.2,-45.0,38.4,-1102.8,-4.6,301.6,1017.6916,-3.7973594,3256.8,0.03523457,0.0131232715,-0.01900194,-0.008461185,-2.8676885,-0.002791085,60260.0,19568.0,29440.0,0.0,-4.0,0.0,0,None
2023-01-03 05:36:01.350,414.1673333333333,0.103333333333334,70.5,1122.0,22658.0,4878.5,98.0,1169.0,235.8333333333333,4879.333333333333,72.23215333333333,2.609884833333333,0.02218496,-0.0344068766666666,-2.9023513333333333,60.26333333333333,0.02846584,-0.0346739933333333,-2.8653403333333336,0.5958247166666667,1.0681234666666666,7.899453666666666,23.666666666666668,-19.666666666666668,-308.3333333333333,23.5,-41.0,32.0,-1115.1666666666667,8.666666666666666,307.8333333333333,1017.6765,-3.812773333333334,3257.1666666666665,0.02846584,-0.0108608436666666,-0.0346739933333333,-0.0382317023333333,-2.8653403333333336,0.01626818,60260.0,19586.0,29440.0,2.0,-6.0,1.0,0,None
2023-01-03 05:36:01.900,414.738,0.1039999999999963,70.0,1001.0,22693.0,4883.0,98.0,1094.0,237.6,4881.4,72.103984,2.6144092,0.009695525,-0.03874847,-2.902063333333333,60.27,0.0173794033333333,-0.03885463,-2.864710333333333,0.64929834,1.0562188,7.5081772,17.6,5.0,-304.6,29.0,0.0,38.0,-1029.6,-2.4,314.8,1017.6996,-3.789625,3257.8,0.0173794033333333,-0.0047079156666666,-0.03885463,-0.0108468233333333,-2.864710333333333,-0.0052234343333333,60270.0,19585.0,29450.0,-2.0,-4.0,0.0,0,None
2023-01-03 05:36:02.450,415.254,0.0999999999999999,70.0,1238.0,22619.0,4851.0,98.0,1201.0,239.0,4883.4,71.99819000000001,2.6183322,0.031808715,-0.0427266399999999,-2.9026415,60.265,0.039538895,-0.04300971,-2.865328,0.61760772,1.233947,10.0869326,19.4,-1.2,-305.6,25.6,53.8,37.0,-1080.4,9.2,295.8,1017.6774,-3.811874800000001,3258.0,0.039538895,0.019198695,-0.04300971,-0.015732875,-2.865328,-0.0043015285,60270.0,19578.0,29450.0,-9.0,-3.0,-3.0,0,None
2023-01-03 05:36:03.000,415.8106666666667,0.103333333333334,70.0,1178.0,22627.0,4888.0,98.0,1199.1666666666667,240.8333333333333,4876.5,71.90988333333333,2.62264,0.0442432975,-0.03715699,-2.89456475,60.26,0.0513417775,-0.0382028575,-2.8566955000000003,0.5691067000000001,1.0891417,9.306726166666666,21.25,-3.1666666666666665,-310.75,26.416666666666668,-0.75,42.583333333333336,-1047.5833333333333,23.166666666666668,305.5833333333333,1017.6781666666666,-3.811015666666666,3258.833333333333,0.0513417775,-0.0236010685,-0.0382028575,-0.00074879275,-2.8566955000000003,0.01824013,60260.0,19630.0,29440.0,0.0,-1.0,2.0,0,None
2023-01-03 05:36:03.550,416.378,0.0999999999999999,70.0,1102.0,22668.0,4890.0,98.0,1122.2,242.6,4886.4,71.813418,2.6287672,0.01791886,-0.042588575,-2.8968815,60.275000000000006,0.0259149649999999,-0.04298572,-2.858554,0.64581574,1.1532862,8.7954098,22.4,-2.2,-293.6,5.2,-36.0,41.6,-1067.0,-12.6,326.6,1017.6924,-3.7966406,3259.0,0.0259149649999999,-0.08876975,-0.04298572,-0.0048305399999999,-2.858554,-0.0219472335,60270.0,19642.0,29450.0,8.0,0.0,0.0,0,None
2023-01-03 05:36:04.100,416.93733333333336,0.103333333333334,70.0,1144.0,22652.0,4890.0,98.0,1114.5,244.66666666666663,4882.5,71.71752833333333,2.635949333333334,0.02658156,-0.0358438333333333,-2.9038156666666666,60.28,0.0338053266666666,-0.03658078,-2.865044333333333,0.6778219000000001,1.2331038333333333,9.5949715,18.33333333333333,9.666666666666666,-301.3333333333333,35.833333333333336,38.5,36.333333333333336,-1073.1666666666667,-9.5,318.1666666666667,1017.6705,-3.8188411666666666,3259.6666666666665,0.0338053266666666,0.0204715693333333,-0.03658078,0.0136562233333333,-2.865044333333333,-0.0096535033333333,60285.0,19582.5,29465.0,1.0,3.0,-0.5,0,None
2023-01-03 05:36:04.650,417.494,0.0999999999999999,70.0,1208.0,22641.0,4888.0,98.0,1180.6,246.6,4878.2,71.62861600000001,2.6434824,0.0464736466666666,-0.03159588,-2.9085173333333336,60.29,0.05293265,-0.0333424033333333,-2.8699410000000003,0.6317427,1.1638879999999998,11.3371456,20.0,0.2,-307.6,24.6,-45.8,46.8,-1090.0,0.2,307.4,1017.6684,-3.820796799999999,3260.0,0.05293265,-0.0362116633333333,-0.0333424033333333,0.028182311,-2.8699410000000003,0.0044505826666666,60290.0,19562.0,29470.0,16.0,0.0,-3.0,0,None
2023-01-03 05:36:05.200,418.0100000000001,0.1039999999999963,70.0,1235.0,22638.0,4879.0,98.0,1145.8,248.2,4866.8,71.53133,2.6508878000000005,0.019385015,-0.04382176,-2.9013980000000004,60.3,0.0259604199999999,-0.0449593749999999,-2.861882,0.6224727000000001,1.0862595599999998,11.6426572,21.8,-30.4,-308.6,32.0,-68.8,30.0,-1074.8,16.2,300.4,1017.6536,-3.8357498,3260.4,0.0259604199999999,-0.068243135,-0.0449593749999999,-0.085260325,-2.861882,0.028533795,60310.0,19604.0,29490.0,14.0,-2.0,-3.0,0,None
2023-01-03 05:36:05.750,418.564,0.1000000000000037,70.0,1173.0,22622.0,4882.0,98.0,1166.5,249.8333333333333,4872.166666666667,71.42248166666666,2.6587531666666666,0.0179966166666666,-0.0521842499999999,-2.894789,60.31666666666666,0.0254819766666666,-0.0532168966666666,-2.8559716666666666,0.6645866333333333,1.1070279166666668,9.899204333333332,32.5,-5.333333333333333,-299.5,23.83333333333333,14.666666666666666,47.66666666666666,-1067.3333333333333,19.33333333333333,317.0,1017.6748333333334,-3.814544,3261.0,0.0254819766666666,0.0134182349999999,-0.0532168966666666,-0.00291331,-2.8559716666666666,0.0251774283333333,60320.0,19653.0,29500.0,4.0,0.0,-3.0,0,None
2023-01-03 05:36:06.300,419.134,0.1039999999999963,70.0,1145.0,22624.0,4890.0,98.0,1178.6,251.6,4879.2,71.33340399999999,2.6671844000000005,0.0331567633333333,-0.04955839,-2.890594333333333,60.3,0.0401761,-0.0511365566666666,-2.8515726666666663,0.68633558,1.2576474000000002,10.232788,22.2,19.2,-303.2,42.4,33.6,45.8,-1072.0,-10.6,293.0,1017.7016,-3.787906,3261.4,0.0401761,0.0534282266666666,-0.0511365566666666,0.02280952,-2.8515726666666663,-0.0064139233333333,60300.0,19658.0,29480.0,-2.0,2.0,-4.0,0,None
2023-01-03 05:36:06.850,419.634,0.0999999999999999,70.0,1157.0,22632.0,4880.0,98.0,1172.0,253.4,4877.2,71.267724,2.6759638000000003,0.0470226,-0.041130575,-2.8904430000000003,60.28,0.05407019,-0.04277638,-2.851355,0.6511261800000001,1.12090802,11.6148054,35.6,5.4,-314.0,28.2,8.2,45.2,-1056.6,3.6,308.6,1017.6696,-3.819671800000001,3261.8,0.05407019,-0.00136076,-0.04277638,0.0066588075,-2.851355,-0.0048472699999999,60280.0,19666.0,29460.0,0.0,0.0,-2.0,0,None
2023-01-03 05:36:07.400,420.2073333333333,0.1066666666666643,70.0,1166.0,22614.0,4881.0,98.0,1165.1666666666667,255.16666666666663,4877.5,71.18508333333334,2.6878383333333336,0.0484809833333333,-0.0445438366666666,-2.891473,60.28333333333333,0.0555100366666666,-0.04587056,-2.8515306666666667,0.6523995833333334,1.0658914166666669,10.936975833333332,30.916666666666668,-13.0,-307.0,30.166666666666668,-19.666666666666668,42.66666666666666,-1066.0,-3.0,313.1666666666667,1017.6691666666668,-3.819954333333333,3262.1666666666665,0.0555100366666666,-0.0139712099999999,-0.04587056,-0.0101025366666666,-2.8515306666666667,-0.0005188563333333,60280.0,19664.0,29460.0,7.0,0.0,-1.0,0,None
2023-01-03 05:36:07.950,420.782,0.1040000000000076,70.0,1131.0,22637.0,4885.0,98.0,1140.2,257.0,4875.0,71.097244,2.6992986,0.0353590366666666,-0.0501975766666666,-2.8946373333333333,60.303333333333335,0.04357721,-0.0518486366666666,-2.854945666666666,0.66676092,1.14056728,10.425250599999998,35.4,3.8,-308.6,33.6,13.8,48.4,-1071.6,4.0,305.2,1017.6578,-3.8315312000000006,3262.8,0.04357721,-0.0025100096666666,-0.0518486366666666,0.0117343566666666,-2.854945666666666,-0.0182500166666666,60300.0,19647.0,29480.0,7.0,0.0,-1.0,0,None
2023-01-03 05:36:08.500,421.344,0.0999999999999942,70.0,1150.0,22636.0,4882.0,98.0,1126.3333333333333,258.8333333333333,4876.166666666667,71.00713666666667,2.711566,0.0430165033333333,-0.0527524,-2.897085,60.32,0.05045905,-0.0537045066666666,-2.857203333333333,0.6672689333333333,1.1582615,10.496679333333336,30.83333333333333,-5.666666666666667,-302.3333333333333,28.166666666666668,18.166666666666668,42.833333333333336,-1030.6666666666667,-1.3333333333333333,303.3333333333333,1017.6681666666668,-3.8210806666666666,3263.0,0.05045905,0.03903832,-0.0537045066666666,0.0106713966666666,-2.857203333333333,-0.0108053193333333,60320.0,19633.0,29500.0,6.0,1.0,-4.0,0,None
2023-01-03 05:36:09.050,421.89400000000006,0.0999999999999999,70.0,1134.0,22629.0,4882.0,98.0,1144.8,260.6,4873.2,70.916548,2.7247302,0.04723459,-0.05245594,-2.8965535,60.305,0.053193575,-0.0538449899999999,-2.8556345,0.67175754,1.138095,10.7368536,32.4,-20.2,-309.6,41.6,-41.6,37.8,-1063.0,9.0,298.6,1017.6568,-3.8321248,3263.8,0.053193575,-0.05948142,-0.0538449899999999,-0.0306058245,-2.8556345,0.0105322199999999,60310.0,19626.0,29490.0,10.0,2.0,-6.0,0,None
2023-01-03 05:36:09.600,422.444,0.1000000000000037,70.0,1097.0,22648.0,4871.0,98.0,1120.1666666666667,262.5,4878.5,70.81952666666666,2.739447333333333,0.03684368,-0.05977612,-2.889857000000001,60.29999999999999,0.04375918,-0.06074084,-2.848183333333333,0.6897467333333335,1.1463795,9.571100166666668,28.0,-10.5,-307.8333333333333,48.833333333333336,-14.5,38.833333333333336,-1062.1666666666667,30.166666666666668,308.1666666666667,1017.671,-3.818398333333333,3264.0,0.04375918,-0.0061525943333333,-0.06074084,-0.0133821599999999,-2.848183333333333,0.0238394299999999,60300.0,19695.5,29480.0,7.5,7.0,-2.0,0,None
2023-01-03 05:36:10.150,422.994,0.0999999999999999,70.0,1131.0,22606.0,4890.0,98.0,1127.6,264.0,4878.0,70.726942,2.7551068,0.03690945,-0.0566950433333333,-2.88058,60.29333333333333,0.0447643,-0.05771077,-2.838309666666666,0.7454236599999999,1.3573898,9.381994,41.8,30.2,-304.8,34.2,16.4,44.2,-1078.8,2.8,301.2,1017.7076,-3.7816094,3264.6,0.0447643,0.04655339,-0.05771077,0.0314134716666666,-2.838309666666666,0.01162346,60290.0,19743.0,29470.0,0.0,15.0,-4.0,0,None
2023-01-03 05:36:10.700,423.5100000000001,0.1039999999999963,70.0,1141.0,22610.0,4858.0,98.0,1149.4,265.6,4870.0,70.657282,2.7688804,0.049227685,-0.03875965,-2.884047,60.27,0.056666595,-0.03993331,-2.8415045,0.7106383799999999,1.2974472,8.936844400000002,27.8,29.0,-308.0,16.6,3.2,53.2,-1081.8,-48.4,312.8,1017.6888,-3.8004218,3264.8,0.056666595,0.02466971865,-0.03993331,0.033603545,-2.8415045,-0.021830465,60260.0,19668.0,29440.0,2.0,14.0,4.0,0,None
