00000_Time_epoch,00000_Time_boot_sec,00000_Span_Time_boot_sec,1_battery_remaining_avg,1_current_battery_avg,1_voltage_battery_avg,125_Vcc_avg,147_battery_remaining_avg,147_current_battery_avg,147_current_consumed_avg,165_Vcc_avg,168_direction_avg,168_speed_avg,178_pitch_avg,178_roll_avg,178_yaw_avg,182_altitude_avg,182_pitch_avg,182_roll_avg,182_yaw_avg,241_vibration_x_avg,241_vibration_y_avg,241_vibration_z_avg,27_xacc_avg,27_xgyro_avg,27_xmag_avg,27_yacc_avg,27_ygyro_avg,27_ymag_avg,27_zacc_avg,27_zgyro_avg,27_zmag_avg,29_press_abs_avg,29_press_diff_avg,29_temperature_avg,30_pitch_avg,30_pitchspeed_avg,30_roll_avg,30_rollspeed_avg,30_yaw_avg,30_yawspeed_avg,33_alt_avg,33_hdg_avg,33_relative_alt_avg,33_vx_avg,33_vy_avg,33_vz_avg,label,diagnosis
2023-01-02 09:26:09.650,264.9446666666667,-0.2666666666666705,100.0,76.0,24904.0,4867.0,99.0,76.0,57.0,4870.0,-123.2579,0.2974804,-0.01727663,-0.02016326,-1.209474,27.68,-0.008962045,-0.01871553,-1.228508,0.02449681,0.025470685,0.03693274,-32.0,0.0,85.0,2.5,6.0,246.0,-1059.5,-1.0,337.0,1022.0936666666666,-0.2028385333333333,3085.6666666666665,-0.008962045,0.006115713,-0.01871553,-0.0007269807,-1.228508,-0.00234356,27680.0,28962.0,150.0,-4.0,18.0,37.0,0,None
2023-01-02 09:26:10.200,265.35,0.1039999999999963,100.0,90.0,24930.0,4891.0,99.0,82.8,57.0,4865.4,-123.77276,0.26825884,-0.0166621366666666,-0.0198827333333333,-1.2093333333333331,27.74666666666667,-0.008949403,-0.0188982733333333,-1.228495,0.024451764,0.024820498,0.03640352,-30.8,0.0,85.8,2.6,6.2,246.2,-1060.6,-1.4,336.4,1022.113,-0.1837031199999999,3086.6,-0.008949403,0.006776601,-0.0188982733333333,-0.0006519983333333,-1.228495,-0.0013735011666666,27770.0,28962.0,240.0,-5.0,18.0,38.0,0,None
2023-01-02 09:26:10.750,265.858,0.0999999999999999,100.0,79.0,24928.0,4882.0,99.0,78.0,57.0,4872.8,-123.50898,0.27566742,-0.01656807,-0.020180865,-1.209175,27.835,-0.0088227794999999,-0.01913103,-1.2286165,0.0262026839999999,0.0256174099999999,0.034562228,-30.4,-0.4,86.0,3.0,6.0,245.6,-1060.8,-1.6,335.6,1022.0932,-0.2035,3087.6,-0.0088227794999999,0.0074472125,-0.01913103,-0.0005487037,-1.2286165,-0.0026138905,27850.0,28961.0,320.0,-6.0,18.0,39.0,0,None
2023-01-02 09:26:11.300,266.4213333333333,0.103333333333334,100.0,76.0,24895.0,4877.0,99.0,161.83333333333334,57.5,4877.666666666667,-122.92693333333332,0.30711205,-0.01686094,-0.0202677033333333,-1.2088673333333333,27.91,-0.0087694626666666,-0.0193497366666666,-1.2286536666666668,0.10885468,0.167055675,0.8301483916666667,-31.5,1.1666666666666667,85.66666666666667,7.166666666666667,6.0,241.5,-1071.1666666666667,-1.8333333333333333,339.8333333333333,1022.0988333333332,-0.1977864333333333,3088.833333333333,-0.0087694626666666,0.0042896183333333,-0.0193497366666666,-0.0003807927666666,-1.2286536666666668,-0.0043195073333333,27930.0,28960.0,400.0,-7.0,19.0,40.0,0,None
2023-01-02 09:26:11.850,266.99799999999993,0.1039999999999963,100.0,134.0,24910.0,4867.0,99.0,472.0,58.0,4872.8,-122.5363,0.3500742,-0.01692599,-0.0197574366666666,-1.209123333333333,27.98,-0.008781749,-0.01933886,-1.2284310000000005,0.2650852579999999,0.32771692,1.2616372,-32.0,0.2,77.1,13.4,-6.0,242.4,-1079.7,-11.6,317.5,1022.1508,-0.1459531,3090.4,-0.008781749,-0.010410985,-0.01933886,0.0007070573666666,-1.2284310000000005,-0.01915122,27980.0,28957.0,450.0,-7.0,19.0,39.0,0,None
2023-01-02 09:26:12.400,267.5546666666666,0.1000000000000037,100.0,2072.0,24119.0,4867.0,99.0,1644.1666666666667,60.0,4875.5,-122.533,0.4026260666666666,-0.0042478424,-0.0081861146666666,-1.2080906666666666,28.273333333333337,0.0044266215666666,-0.0076681439999999,-1.2265373333333331,0.5235024166666667,1.229895,6.52423,-3.6666666666666665,31.83333333333333,68.16666666666667,-19.166666666666668,41.0,214.8333333333333,-1269.3333333333333,1.0,281.6666666666667,1022.4203333333336,0.12359375,3091.6666666666665,0.0044266215666666,0.05327503,-0.0076681439999999,0.062171507,-1.2265373333333331,0.00233195,28160.0,28963.0,630.0,-12.0,7.0,111.0,0,None
2023-01-02 09:26:12.950,268.098,0.0999999999999999,100.0,1764.0,24191.0,4874.0,99.0,1775.8,62.2,4871.4,-123.76702,0.4611856599999999,-0.0088959765,0.0087903,-1.2025555,29.025,-0.00018085245,0.0089242505,-1.2211545,0.26653476,1.7331338000000005,8.2364292,4.0,43.0,73.2,-16.0,-7.6,237.4,-1283.6,4.4,275.0,1022.0648,-0.232,3093.0,-0.00018085245,0.0083097487999999,0.0089242505,0.0522684199999999,-1.2211545,0.0096435664999999,28870.0,29011.0,1340.0,-13.0,-4.0,226.0,0,None
2023-01-02 09:26:13.500,268.648,0.1000000000000037,100.0,1659.0,24205.0,4863.5,99.0,1638.5,65.0,4878.333333333333,-125.31993333333332,0.5025032833333333,0.017312891,0.0212435666666666,-1.201342666666667,30.21,0.0250462106666666,0.0210154,-1.2191703333333337,0.4600583,1.73031065,6.450433833333332,-0.1666666666666666,-17.833333333333332,61.833333333333336,-11.333333333333334,82.0,226.8333333333333,-1122.5,-10.666666666666666,263.3333333333333,1021.856,-0.4405208166666667,3094.333333333333,0.0250462106666666,0.0813775833333333,0.0210154,-0.0243289943333333,-1.2191703333333337,-0.0118288177333333,29980.0,29030.0,2450.0,2.0,-12.0,316.0,0,None
2023-01-02 09:26:14.050,269.19840000000005,0.0999999999999999,100.0,1479.0,24235.0,4883.0,99.0,1492.4,67.6,4880.0,-126.4399,0.51998816,0.0306698766666666,-0.0048540493333333,-1.2080326666666668,31.94333333333333,0.03685897,-0.0038704469999999,-1.195393666666667,0.3775615,1.02999942,4.3017038,-7.4,-59.0,59.8,-11.6,-40.2,223.0,-1072.2,-19.0,288.0,1021.6794,-0.61726562,3095.6,0.03685897,-0.05543273,-0.0038704469999999,-0.0824614066666666,-1.195393666666667,-0.0112332163333333,31420.0,29166.0,3890.0,10.0,1.0,336.0,0,None
2023-01-02 09:26:14.600,269.7028,0.1001999999999952,100.0,1247.0,24358.0,4875.0,99.0,1399.8,69.6,4877.2,-127.3879,0.5242495999999999,0.0076557605,-0.023252435,-1.214814,33.41,0.0152193149999999,-0.021195035,-1.201882,0.3162134,1.3692876,4.4759934,-15.0,1.6,67.8,-26.6,-22.8,227.2,-1017.0,-9.2,302.0,1021.5008,-0.7959999799999999,3097.0,0.0152193149999999,-0.02471206,-0.021195035,0.012169913,-1.201882,-0.021329805,32890.0,29130.0,5360.0,5.0,11.0,339.0,0,None
2023-01-02 09:26:15.150,270.2656666666666,0.103333333333334,100.0,954.0,24434.0,4888.0,99.0,1030.8333333333333,71.5,4874.5,-128.93251666666666,0.5255472,-0.0058001963333333,-0.0484803433333333,-1.214418,34.71333333333333,0.0043996633333333,-0.0471496333333333,-1.2020823333333333,0.50969,0.9737335666666668,2.8710021666666665,-6.333333333333333,-182.16666666666663,73.66666666666667,-14.0,6.5,218.5,-905.0,-18.83333333333333,308.0,1021.3255,-0.9711978666666664,3098.0,0.0043996633333333,0.0110669233333333,-0.0471496333333333,-0.1704816946666666,-1.2020823333333333,-0.0151434876666666,34290.0,29113.0,6760.0,-2.0,11.0,309.0,0,None
2023-01-02 09:26:15.700,270.81120000000004,0.0960000000000035,100.0,1150.0,24384.0,4874.0,99.0,1178.0,73.4,4876.6,-131.12788,0.52706108,0.0056498116666666,-0.1842942,-1.2401093333333333,35.78666666666667,0.0161406199999999,-0.1801827,-1.226052,0.66933732,0.8483433,1.2837984,3.2,-162.2,66.8,-12.4,48.4,188.2,-978.8,-101.6,346.4,1021.1758,-1.1208906,3099.4,0.0161406199999999,0.0439240433333333,-0.1801827,-0.16352572,-1.226052,-0.1151214533333333,35370.0,29074.0,7840.0,-27.0,-2.0,222.0,0,None
2023-01-02 09:26:16.250,271.38633333333337,0.106833333333327,100.0,1163.0,24360.0,4883.0,99.0,1208.6666666666667,75.16666666666667,4879.333333333333,-133.3559,0.5217778333333335,0.0022924129999999,-0.2028906,-1.4159646666666668,36.56666666666667,0.013794605,-0.2010488333333333,-1.4018160000000002,0.432709,1.0101277666666666,5.713573499999999,-9.333333333333334,29.33333333333333,33.0,-6.166666666666667,60.5,174.33333333333334,-1003.3333333333334,-364.8333333333333,346.6666666666667,1021.064,-1.2327993333333334,3100.6666666666665,0.013794605,0.0104328603333333,-0.2010488333333333,0.048103704,-1.4018160000000002,-0.3594404666666667,36405.0,28249.0,8875.0,-148.5,-39.5,163.0,0,None
2023-01-02 09:26:16.800,271.9438,0.0998000000000046,100.0,1252.0,24315.0,4833.0,99.0,1275.4,77.0,4869.8,-135.741,0.52035154,-0.0454170349999999,-0.19224185,-1.591051,37.175,-0.034707425,-0.1944271,-1.574671,0.4179250399999999,1.1028699999999998,7.7321796,-0.4,-7.0,-10.8,-1.2,-69.8,176.4,-1046.4,-362.4,353.6,1020.959,-1.337547,3102.0,-0.034707425,-0.0759897,-0.1944271,-0.02126815,-1.574671,-0.36066495,37320.0,26743.0,9790.0,-277.0,-68.0,152.0,0,None
2023-01-02 09:26:17.350,272.4931666666667,0.1001666666666664,100.0,1372.0,24267.0,4883.0,99.0,1309.0,79.0,4873.166666666667,-138.3807833333333,0.5238236166666667,-0.0832325966666666,-0.1609096,-1.768739,37.81,-0.0719918233333333,-0.1661245333333333,-1.750419333333333,0.3923303166666667,1.2381722833333335,8.893051333333332,-8.666666666666666,69.66666666666667,-46.333333333333336,35.833333333333336,41.0,181.16666666666663,-1133.6666666666667,-321.5,353.8333333333333,1020.8725,-1.424179833333333,3103.333333333333,-0.0719918233333333,0.0578424233333333,-0.1661245333333333,0.0982936033333333,-1.750419333333333,-0.3361293999999999,37970.0,25724.0,10440.0,-348.0,-99.0,160.0,0,None
2023-01-02 09:26:17.900,273.05979999999994,0.1039999999999963,100.0,1104.0,24368.0,4867.0,99.0,1132.4,80.8,4882.0,-141.71409999999997,0.53324932,-0.0822670666666666,-0.1154704999999999,-1.971652,38.65,-0.0725529933333333,-0.1251064,-1.949524,0.54289722,1.4544706,10.5843158,-30.0,10.0,-99.4,47.6,42.4,176.6,-1059.8,-328.0,359.2,1020.7662,-1.5304688,3104.4,-0.0725529933333333,0.0614816333333333,-0.1251064,0.0121146366666666,-1.949524,-0.3409319333333333,38680.0,24804.0,11150.0,-397.0,-125.0,170.0,0,None
2023-01-02 09:26:18.450,273.56,0.0999999999999999,100.0,1093.0,24386.0,4883.0,99.0,1225.0,82.4,4880.0,-145.36044,0.54536428,-0.09153793,-0.1110091,-2.149442,39.38,-0.0843428,-0.1215074999999999,-2.122298,0.5127695,1.06209714,9.7420726,-26.8,-35.4,-137.8,54.6,21.2,156.6,-1026.4,-354.4,353.4,1020.6988,-1.5979532000000003,3105.8,-0.0843428,0.019700211,-0.1215074999999999,-0.08527538,-2.122298,-0.35446995,39410.0,23801.0,11880.0,-434.0,-150.0,168.0,0,None
2023-01-02 09:26:19.000,274.1298333333333,0.103333333333334,100.0,1305.5,24284.5,4876.0,99.0,1347.5,84.5,4884.333333333333,-150.58003333333332,0.5611522,-0.0894682433333333,-0.0994460966666666,-2.334843,40.07333333333333,-0.08283167,-0.1112753666666666,-2.3029433333333333,0.4351745166666667,1.2711703333333333,11.365615,-45.66666666666666,-20.5,-176.83333333333334,33.5,84.16666666666667,117.16666666666669,-1056.5,-358.3333333333333,356.1666666666667,1020.6176666666668,-1.6788541666666663,3107.1666666666665,-0.08283167,0.0308961036666666,-0.1112753666666666,0.010540204,-2.3029433333333333,-0.3527523999999999,40100.0,22768.0,12570.0,-475.0,-169.0,168.0,0,None
2023-01-02 09:26:19.550,274.684,0.1039999999999963,100.0,1306.0,24257.0,4867.0,99.0,1160.0,86.4,4882.2,-155.93282,0.5733393999999999,-0.0714390466666666,-0.0877884033333333,-2.552244,40.943333333333335,-0.06726527,-0.0992036333333333,-2.516401333333333,0.52688054,1.3021374,10.6209342,-66.6,-21.8,-217.5,76.4,4.7,86.3,-1112.7,-379.3,338.9,1020.4846,-1.812078,3108.6,-0.06726527,0.0567695766666666,-0.0992036333333333,-0.0144710533333333,-2.516401333333333,-0.3871074999999999,40830.0,21766.0,13300.0,-497.0,-176.0,177.0,0,None
2023-01-02 09:26:20.100,275.21220000000005,0.1042000000000029,100.0,1054.0,24362.0,4888.0,99.0,1154.2,88.4,4880.4,-161.22706,0.5820801199999999,-0.08841409,-0.0789261699999999,-2.738655,42.065,-0.08439283,-0.09045918,-2.6994545,0.5334684199999999,1.2968374,11.343982,-68.8,-21.8,-243.4,88.6,12.8,23.8,-1018.0,-353.8,327.0,1020.3192,-1.9775468,3110.0,-0.08439283,-0.07408639,-0.09045918,-0.0111550545,-2.6994545,-0.3617599,41840.0,20694.0,14310.0,-506.0,-176.0,171.0,0,None
2023-01-02 09:26:20.650,275.7668333333333,0.0998333333333315,100.0,1152.0,24326.0,4871.0,99.0,1140.5,90.16666666666669,4883.0,-168.1828,0.5910434666666667,-0.0990052833333333,-0.0746521233333333,-2.9079840000000003,43.23333333333333,-0.09531737,-0.0856610366666666,-2.868028,0.6559995666666667,1.440419333333333,11.411608333333334,-92.16666666666669,13.5,-246.3333333333333,43.833333333333336,13.833333333333334,-8.333333333333334,-1068.8333333333333,-191.5,348.3333333333333,1020.346,-1.9505338333333333,3111.5,-0.09531737,0.01433606,-0.0856610366666666,-0.0482810866666666,-2.868028,-0.26949206,43120.0,19660.0,15590.0,-524.0,-175.0,171.0,0,None
2023-01-02 09:26:21.200,276.304,0.0960000000000036,100.0,1317.0,24238.0,4848.0,99.0,1221.4,91.8,4875.4,-175.65097999999998,0.6021409600000001,-0.1001749166666666,-0.05523653,-2.967662666666667,44.31,-0.0950582899999999,-0.0652924999999999,-2.928259333333333,0.6871660399999999,1.4725322,12.4774006,-80.0,3.0,-251.2,19.4,-4.6,-6.6,-1066.8,26.4,369.4,1020.2946,-2.0019844,3112.8,-0.0950582899999999,-0.05950271,-0.0652924999999999,0.0094268814333333,-2.928259333333333,0.016684412,44020.0,19203.0,16490.0,-539.0,-168.0,167.0,0,None
2023-01-02 09:26:21.750,276.8633333333333,0.1000000000000037,100.0,1259.0,24232.0,4871.0,99.0,1321.1666666666667,93.83333333333331,4877.0,116.76643333333334,0.61385335,-0.1038212833333333,-0.0462423633333333,-2.9490456666666667,45.23,-0.09523439,-0.0567912066666666,-2.9063693333333336,0.5974091666666667,1.4656455,11.233302,-89.16666666666667,11.333333333333334,-253.16666666666663,21.83333333333333,64.33333333333333,-23.5,-1028.0,32.0,343.3333333333333,1020.1253333333334,-2.1712238333333334,3114.0,-0.09523439,-0.00328002,-0.0567912066666666,-0.000736585,-2.9063693333333336,0.0293270446666666,45195.0,19338.0,17665.0,-566.0,-172.0,171.5,0,None
2023-01-02 09:26:22.300,277.408,0.1039999999999963,100.0,574.0,24533.0,4887.0,99.0,980.2,95.8,4880.8,169.14294,0.6292816999999999,-0.049300855,-0.069615505,-2.9542645,46.04,-0.041873355,-0.079757245,-2.9089805,0.7266665,1.5918584,10.3521956,-92.0,-11.0,-261.8,19.2,40.6,-10.6,-1051.6,-6.8,350.6,1020.193,-2.1035312,3115.4,-0.041873355,0.0523818499999999,-0.079757245,-0.031348655,-2.9089805,-0.0184161649999999,46410.0,19320.0,18880.0,-574.0,-152.0,192.0,0,None
2023-01-02 09:26:22.850,277.96683333333334,0.1000000000000037,100.0,1061.0,24293.0,4871.0,99.0,1032.5,97.33333333333331,4875.0,161.43876666666665,0.6491865666666666,-0.0662761933333333,-0.0427869666666666,-2.9489063333333334,46.77666666666667,-0.05822205,-0.0512183266666666,-2.902803,0.8188424166666667,1.59267,12.144588333333331,-99.33333333333331,82.83333333333333,-263.0,20.83333333333333,-0.5,-1.5,-1090.8333333333333,23.83333333333333,343.1666666666667,1020.1478333333332,-2.1489975,3116.6666666666665,-0.05822205,-0.03358071,-0.0512183266666666,0.0897735266666666,-2.902803,0.0486902033333333,47050.0,19411.0,19520.0,-577.0,-141.0,190.0,0,None
2023-01-02 09:26:23.400,278.55749999999995,0.0968333333333266,100.0,984.0,24332.0,4883.0,99.0,1184.3333333333333,99.0,4880.0,153.4223333333333,0.6717916666666667,-0.0740283,0.001295295,-2.927,47.56,-0.0645934933333333,-0.0083105349999999,-2.8779420000000004,0.6939749666666667,1.3824553333333334,13.057175,-80.16666666666667,45.333333333333336,-264.1666666666667,3.8333333333333335,34.833333333333336,13.0,-1086.3333333333333,72.83333333333333,343.8333333333333,1019.8866666666668,-2.410026,3118.333333333333,-0.0645934933333333,0.0181247633333333,-0.0083105349999999,0.1412179666666666,-2.8779420000000004,0.0547871066666666,47730.0,19542.0,20200.0,-579.0,-156.0,198.0,0,None
2023-01-02 09:26:23.950,279.086,0.1099999999999994,100.0,838.0,24383.0,4871.0,99.0,975.75,100.5,4881.75,147.1571,0.6913125499999999,-0.0588139366666666,-0.0013590193333333,-2.899677,48.54666666666666,-0.0486465833333333,-0.009180056,-2.8472046666666664,0.820962925,1.4096575000000002,11.9719175,-75.75,-30.0,-258.5,49.5,-53.0,27.75,-987.0,16.75,355.25,1019.8275,-2.46900375,3119.5,-0.0486465833333333,-0.0008085733333333,-0.009180056,-0.1509384033333333,-2.8472046666666664,0.0366564183333333,48580.0,19672.0,21050.0,-576.0,-188.0,198.0,0,None
2023-01-02 09:26:24.500,279.6143333333334,0.1066666666666643,100.0,980.5,24326.0,4877.0,99.0,1072.8333333333333,102.0,4881.833333333333,140.23646666666664,0.7175603,-0.0479899466666666,-0.03848203,-2.907439,49.59,-0.0390471633333333,-0.0461250766666666,-2.851313,0.6804944333333333,1.5505373333333334,12.865908333333332,-97.66666666666669,-75.83333333333333,-261.6666666666667,16.833333333333332,32.5,10.333333333333334,-978.3333333333334,-16.666666666666668,322.0,1019.6896666666668,-2.607070333333333,3120.5,-0.0390471633333333,0.099622225,-0.0461250766666666,-0.0482168766666666,-2.851313,-0.0194867066666666,49420.0,19668.0,21890.0,-570.0,-212.0,187.0,0,None
2023-01-02 09:26:25.050,280.201,0.108000000000004,100.0,1054.0,24304.0,4885.0,99.0,1090.2,103.6,4849.2,134.27669999999998,0.74691054,-0.03143648,-0.07397012,-2.9187375,50.39,-0.0237550549999999,-0.07951897,-2.8597795,0.66530012,1.6657769999999998,12.810627999999998,-87.9,-51.1,-266.8,99.7,30.0,10.6,-1046.9,-24.8,338.7,1019.6094,-2.6873202,3121.7,-0.0237550549999999,-0.04613712,-0.07951897,-0.125367975,-2.8597795,-0.02685264,50230.0,19625.0,22700.0,-555.0,-216.0,194.0,0,None
2023-01-02 09:26:25.600,280.72100000000006,0.0999999999999999,100.0,1071.0,24326.0,4864.0,99.0,1060.8,105.4,4879.2,128.57622,0.7823291400000001,-0.0472276,-0.09221516,-2.929460666666667,51.19,-0.0387774433333333,-0.0966589966666666,-2.870046,0.8207077399999999,1.5792398,11.408626000000002,-151.6,-11.6,-266.6,40.8,-35.2,-0.4,-1108.6,-35.0,342.0,1019.4904,-2.8061874,3123.2,-0.0387774433333333,-0.0618004579999999,-0.0966589966666666,-0.05702609,-2.870046,-0.045059505,51030.0,19582.0,23500.0,-526.0,-207.0,191.0,0,None
2023-01-02 09:26:26.150,281.245,0.108000000000004,100.0,797.0,24404.0,4893.0,99.0,1042.6,106.8,4880.0,123.1546,0.82834776,-0.054758885,-0.1101868,-2.9528115,51.95,-0.045498,-0.11428055,-2.89189,0.76666578,1.4556564,11.8467018,-69.8,-1.0,-264.6,70.6,1.4,-13.2,-1126.8,-32.6,331.4,1019.4322,-2.8643752,3124.6,-0.04660971,-0.030400785,-0.11463145,-0.021683,-2.8912785,-0.042102545,51790.0,19457.0,24260.0,-508.0,-189.0,187.0,0,None
2023-01-02 09:26:26.700,281.811,0.0999999999999942,100.0,1010.0,24333.0,4871.0,99.0,906.5,108.33333333333331,4874.0,117.54900000000002,0.8962968166666666,-0.0772999333333333,-0.0803264633333333,-2.959278,52.70666666666667,-0.06666754,-0.0835391533333333,-2.896331333333334,0.9071035666666666,1.6025616666666669,12.926971666666669,-79.66666666666667,67.66666666666667,-260.8333333333333,40.833333333333336,-22.83333333333333,-13.666666666666666,-1079.0,20.5,345.8333333333333,1019.4071666666664,-2.889596333333334,3125.6666666666665,-0.06666754,-0.0324361733333333,-0.0835391533333333,0.0761221409666666,-2.896331333333334,0.0237731993333333,52560.0,19395.0,25030.0,-507.0,-160.0,186.0,0,None
2023-01-02 09:26:27.250,282.39340000000004,0.1084000000000059,100.0,1217.0,24278.0,4891.0,99.0,1089.2,109.6,4885.4,113.52264,0.96472426,-0.09186432,-0.04940644,-2.9398573333333338,53.53666666666667,-0.0813118533333333,-0.0550140666666666,-2.8737600000000003,0.7824514199999999,1.6772914,13.652354,-100.5,72.9,-252.0,77.7,6.7,-0.6,-1048.3,69.8,355.0,1019.253,-3.043547,3127.2,-0.08170791,-0.0117439866666666,-0.0554408433333333,0.1125494666666666,-2.8739586666666668,0.0472885466666666,53260.0,19467.0,25730.0,-519.0,-156.0,183.0,0,None
2023-01-02 09:26:27.800,282.903,0.0999999999999999,100.0,1260.0,24200.0,4869.0,99.0,1240.6,111.4,4880.0,110.41064,1.035503,-0.08096177,-0.0403204999999999,-2.9103585,54.24,-0.06975951,-0.046167355,-2.8427495,0.6507746400000001,1.5200024,12.374902,-86.2,-40.6,-252.4,58.6,15.0,10.6,-1132.0,39.2,333.0,1019.019,-3.2777186,3128.4,-0.06975951,0.014369392,-0.046167355,-0.0095171349999999,-2.8427495,0.0511152499999999,53950.0,19643.0,26420.0,-527.0,-167.0,188.0,0,None
2023-01-02 09:26:28.350,283.4761666666667,0.103333333333334,100.0,1054.0,24307.0,4883.0,99.0,1164.8333333333333,113.66666666666669,4877.5,107.91863333333332,1.1112650000000002,-0.071632265,-0.06401806,-2.8934835,55.2475,-0.06302506,-0.069793415,-2.8226625000000003,0.61266725,1.37805,11.099865833333332,-64.66666666666667,-46.0,-253.66666666666663,64.66666666666667,61.5,4.833333333333333,-1049.8333333333333,42.333333333333336,327.8333333333333,1018.8946666666666,-3.4022005000000006,3129.6666666666665,-0.062787235,-0.0230179974999999,-0.06982573,-0.0908665425,-2.8228045,0.011044634,55155.0,19816.5,27625.0,-537.0,-185.0,189.0,0,None
2023-01-02 09:26:28.900,284.0268,0.0999999999999999,100.0,1400.0,24143.0,4869.0,99.0,1327.6,115.6,4873.0,105.91004,1.187973,-0.0391763049999999,-0.0791225399999999,-2.8894985,56.26,-0.030096545,-0.08433246,-2.8163090000000004,0.59034432,1.4324168,10.8947798,-71.0,19.8,-263.2,58.0,50.4,7.8,-1124.0,2.4,345.6,1018.7586,-3.5380782,3130.8,-0.030096545,0.1102685,-0.08433246,0.099858045,-2.8163090000000004,-0.009522995,56410.0,19863.0,28880.0,-544.0,-186.0,173.0,0,None
2023-01-02 09:26:29.450,284.5765,0.1001666666666664,100.0,967.0,24313.5,4879.5,99.0,1029.1666666666667,117.5,4877.166666666667,104.12603333333334,1.2691926666666669,0.0200545133333333,-0.07644774,-2.894368666666667,56.99666666666667,0.0281294533333333,-0.0809259966666666,-2.819288333333333,0.6456202166666666,1.3139026666666664,11.241,-82.5,32.0,-280.3333333333333,53.0,121.16666666666669,8.833333333333334,-976.5,6.333333333333333,326.3333333333333,1018.7284999999998,-3.5681510000000003,3132.0,0.0281294533333333,0.0539206326666666,-0.0809259966666666,-0.0087766733333333,-2.819288333333333,0.0037173073333333,57160.0,19845.0,29630.0,-525.0,-173.0,164.0,0,None
2023-01-02 09:26:30.000,285.13019999999995,0.1033999999999991,100.0,1224.0,24191.0,4885.0,99.0,897.0,118.6,4881.2,102.48924,1.3506901999999998,-0.0184624386666666,-0.0410633966666666,-2.871957666666667,57.67333333333334,-0.0114394233333333,-0.0439518899999999,-2.7952776666666668,0.8469831600000001,1.6139724000000002,9.1103072,-75.0,69.4,-278.2,80.8,-128.2,21.2,-941.8,65.6,337.4,1018.7072,-3.5894844,3132.8,-0.0114394233333333,-0.149179631,-0.0439518899999999,0.1069341433333333,-2.7952776666666668,0.0667672366666666,57700.0,19974.0,30170.0,-493.0,-165.0,102.0,0,None
2023-01-02 09:26:30.550,285.67633333333333,0.0969999999999988,100.0,932.0,24333.0,4871.0,99.0,926.0,120.33333333333331,4878.833333333333,100.96614999999998,1.4277301666666666,-0.0508731433333333,-0.0155695693333333,-2.8216300000000003,57.90333333333333,-0.04247977,-0.0198058666666666,-2.741219,0.82747935,1.5882741666666669,10.0463145,-45.833333333333336,0.3333333333333333,-259.1666666666667,55.0,-8.0,40.16666666666666,-1081.1666666666667,84.66666666666667,342.6666666666667,1018.6906666666667,-3.6059765,3134.5,-0.04247977,0.0182952066666666,-0.0198058666666666,-0.0254602533333333,-2.741219,0.0813831166666666,57890.0,20263.0,30360.0,-484.0,-178.0,74.0,0,None
2023-01-02 09:26:31.100,286.2302,0.0999999999999999,100.0,1011.0,24304.0,4888.0,99.0,866.2,121.4,4880.0,99.515952,1.4987136,-0.05550874,-0.0196850599999999,-2.792231,57.94,-0.04743061,-0.02264025,-2.7097645,0.65419564,1.6606784,9.7818502,-35.2,-0.4,-249.0,37.0,27.8,56.8,-972.6,68.6,351.2,1018.7152,-3.5812654000000004,3135.6,-0.04743061,0.025148888,-0.02264025,0.095931065,-2.7097645,0.071853965,57960.0,20447.0,30430.0,-486.0,-194.0,43.0,0,None
2023-01-02 09:26:31.650,286.7761666666667,0.1000000000000037,100.0,1013.0,24317.0,4867.0,99.0,951.8333333333334,123.0,4878.666666666667,98.13735333333337,1.5635706666666669,-0.05465167,-0.0307387466666666,-2.778311,57.873333333333335,-0.0461512433333333,-0.0333175733333333,-2.6935893333333336,0.8055138333333334,1.687037,11.226053333333333,-45.66666666666666,-31.0,-254.0,71.16666666666667,-21.33333333333333,55.16666666666666,-1043.5,19.83333333333333,329.5,1018.6116666666668,-3.6848956666666655,3136.6666666666665,-0.0461512433333333,-0.03168807,-0.0333175733333333,-0.0312810536666666,-2.6935893333333336,0.0116587996666666,57880.0,20555.0,30350.0,-489.0,-216.0,31.0,0,None
2023-01-02 09:26:32.200,287.33860000000004,0.1039999999999963,100.0,919.0,24316.0,4887.0,99.0,948.0,124.4,4877.2,96.889634,1.6230815999999997,-0.0044643333333333,-0.0270252366666666,-2.770221333333333,57.836666666666666,0.0027966833333333,-0.0296763966666666,-2.683307333333333,0.84595862,1.5976446,11.267722,-61.2,26.0,-246.6,24.6,276.2,56.8,-1066.0,29.2,342.6,1018.6136,-3.6830782,3137.8,0.0027966833333333,0.2947916966666666,-0.0296763966666666,0.0221428566666666,-2.683307333333333,0.041310599,57850.0,20604.0,30320.0,-493.0,-236.0,23.0,0,None
2023-01-02 09:26:32.750,287.843,0.0999999999999999,100.0,1057.0,24272.0,4871.0,99.0,995.4,125.6,4875.8,95.988322,1.6719468,0.1418367999999999,-0.033563185,-2.756469,57.79,0.14655835,-0.0350011749999999,-2.667873,0.82099152,1.494299,10.1383586,-30.8,-45.2,-298.8,82.4,217.6,70.6,-1098.6,13.6,293.0,1018.659,-3.6378436,3139.2,0.14655835,0.1950422545,-0.0350011749999999,0.0480834,-2.667873,-0.007914015,57820.0,20708.0,30290.0,-468.0,-243.0,21.0,0,None
2023-01-02 09:26:33.300,288.42633333333333,0.1066666666666643,100.0,907.0,24336.0,4883.0,99.0,1003.5,127.33333333333331,4877.166666666667,94.97554333333332,1.7336444999999998,0.1664394,-0.0653246866666666,-2.7712183333333336,57.74000000000001,0.1699052,-0.06265993,-2.6804140000000003,0.8184259166666666,1.6382368333333333,11.548616666666666,-19.666666666666668,-29.83333333333333,-318.0,29.666666666666668,14.5,65.83333333333333,-1049.3333333333333,-27.166666666666668,291.0,1018.6911666666666,-3.6057943333333338,3140.5,0.1699052,-0.0048474908,-0.06265993,-0.0021980966666666,-2.6804140000000003,-0.01647395,57725.0,20640.5,30195.0,-352.5,-190.5,25.0,0,None
2023-01-02 09:26:33.850,288.987,0.1039999999999963,100.0,1119.0,24234.0,4869.0,99.0,1136.6,129.0,4878.6,94.267722,1.7802833999999996,0.1366376,-0.06797278,-2.7803540000000004,57.59333333333333,0.1433423666666666,-0.0624874266666666,-2.6879670000000004,0.7265816,1.484056,12.715642,2.7,13.5,-317.8,43.8,-130.7,43.7,-1061.5,21.5,269.7,1018.7328,-3.5638200000000007,3141.4,0.1433423666666666,-0.1529812066666666,-0.0624874266666666,0.00639016,-2.6879670000000004,0.0125012256666666,57540.0,20623.0,30010.0,-241.0,-132.0,24.0,0,None
2023-01-02 09:26:34.400,289.55316666666664,0.1000000000000037,100.0,1175.0,24246.0,4879.0,99.0,1181.0,130.83333333333334,4873.5,93.61295666666666,1.827681,0.10191729,-0.06708962,-2.7570273333333333,57.49333333333334,0.1122127033333333,-0.0611024,-2.6628190000000003,0.5703105666666666,1.3219486666666669,12.14638,20.0,7.333333333333333,-297.3333333333333,61.0,64.66666666666667,62.333333333333336,-1080.0,46.333333333333336,300.8333333333333,1018.7233333333334,-3.573411333333333,3142.833333333333,0.1122127033333333,0.0652599966666666,-0.0611024,0.0196429433333333,-2.6628190000000003,0.04646085,57490.0,20772.0,29960.0,-204.0,-115.0,38.0,0,None
2023-01-02 09:26:34.950,290.1112,0.1042000000000029,100.0,1236.0,24206.0,4881.5,99.0,1198.8,132.6,4879.2,92.979842,1.8761518,0.15867305,-0.069787975,-2.7434390000000004,57.48,0.17026695,-0.063485115,-2.646584,0.54569946,1.3397422,12.42308,33.6,15.4,-310.4,64.6,98.0,62.4,-1083.2,11.2,269.0,1018.6926,-3.6041094,3144.2,0.17026695,0.13990285,-0.063485115,0.013347511,-2.646584,0.0128291775,57480.0,20842.0,29950.0,-158.0,-92.0,32.0,0,None
2023-01-02 09:26:35.500,290.6232,0.0999999999999999,100.0,1226.0,24178.0,4871.0,99.0,1213.0,134.6,4877.2,92.427642,1.919097,0.2052096999999999,-0.0614940066666666,-2.747893,57.49,0.2179191333333333,-0.05444487,-2.649078333333333,0.5684911,1.2704692000000002,12.452418000000002,33.2,-13.0,-330.8,62.6,117.2,64.0,-1041.4,-12.6,258.4,1018.6438,-3.6529062,3145.2,0.2179191333333333,0.1177028466666666,-0.05444487,0.0017078133333333,-2.649078333333333,-0.0029003693333333,57500.0,20817.0,29970.0,-95.0,-59.0,38.0,0,None
2023-01-02 09:26:36.050,291.183,0.1031666666666618,100.0,1167.0,24191.0,4885.0,99.0,1226.6666666666667,136.5,4879.0,91.79624333333334,1.9704066666666664,0.2162837666666666,-0.0716887666666666,-2.7547986666666664,57.580000000000005,0.2281661333333333,-0.0641510699999999,-2.654517,0.5421100833333333,1.3088769,11.477976166666664,58.0,-32.166666666666664,-339.3333333333333,77.0,-142.83333333333334,74.33333333333333,-1085.6666666666667,-12.833333333333334,251.3333333333333,1018.6321666666668,-3.664492,3146.5,0.2281661333333333,-0.120247287,-0.0641510699999999,-0.0398009666666666,-2.654517,-0.0136033946666666,57580.0,20786.0,30050.0,-8.0,-22.0,33.0,0,None
2023-01-02 09:26:36.600,291.7432,0.0999999999999999,100.0,929.0,24278.0,4874.0,99.0,936.0,138.2,4879.8,91.070184,2.0243368,0.1191963533333333,-0.0871377866666666,-2.7539386666666665,57.68666666666667,0.1353091666666666,-0.0789190066666666,-2.653474333333333,0.7065980599999999,1.4465632,12.8482036,45.0,-18.2,-303.8,39.2,-116.8,66.6,-1005.8,-8.6,291.2,1018.6282,-3.6683906,3147.6,0.1353091666666666,-0.1282371266666666,-0.0789190066666666,-0.02715357,-2.653474333333333,-0.00646284,57670.0,20797.0,30140.0,42.0,7.0,50.0,0,None
2023-01-02 09:26:37.150,292.259,0.1040000000000076,100.0,1045.0,24252.0,4887.0,99.0,1037.6,139.4,4875.2,90.162504,2.0813110000000004,0.06970585,-0.08023768,-2.753398,57.71,0.08896941,-0.072579465,-2.651717,0.785708925,1.41890425,9.797078,58.0,43.6,-290.6,36.0,-83.6,64.8,-1094.6,-5.4,304.8,1018.6518,-3.6446718,3148.6,0.08896941,-0.06621977,-0.072579465,0.0165048725,-2.651717,0.009837557,57720.0,20804.0,30190.0,55.0,26.0,25.0,0,None
2023-01-02 09:26:37.700,292.81300000000005,0.0999999999999942,100.0,931.0,24285.0,4869.0,99.0,959.1666666666666,141.0,4885.833333333333,89.25423,2.142932333333333,0.0491312933333333,-0.06448669,-2.750746,57.64000000000001,0.0700588833333333,-0.0583700266666666,-2.6480170000000003,0.87030385,1.660125,10.958915166666666,76.5,63.833333333333336,-280.8333333333333,9.833333333333334,35.833333333333336,67.66666666666667,-1036.1666666666667,3.333333333333333,320.3333333333333,1018.6583333333334,-3.638281333333333,3149.6666666666665,0.0700588833333333,0.0353883586666666,-0.0583700266666666,0.04364386,-2.6480170000000003,0.01954251,57660.0,20832.0,30130.0,52.0,33.0,21.0,0,None
2023-01-02 09:26:38.250,293.383,0.1040000000000076,100.0,1064.0,24263.0,4887.0,99.0,1015.2,142.4,4886.6,88.481322,2.2022702,0.0620500166666666,-0.05128952,-2.752291666666667,57.54666666666666,0.0817235366666666,-0.0471748433333333,-2.648204666666667,0.87890426,1.3903108000000002,11.443054,50.8,-27.2,-288.2,35.2,-7.6,76.8,-1119.2,0.4,298.2,1018.6786,-3.6181404,3150.8,0.0817235366666666,-0.01759367,-0.0471748433333333,-0.0278600233333333,-2.648204666666667,-0.0093335733333333,57570.0,20826.0,30040.0,56.0,29.0,18.0,0,None
2023-01-02 09:26:38.800,293.933,0.0999999999999942,100.0,875.0,24342.0,4871.0,99.0,956.3333333333334,144.0,4884.166666666667,87.74799666666667,2.263657333333333,0.05303768,-0.06222986,-2.7567920000000004,57.49666666666666,0.0723917266666666,-0.0591679233333333,-2.651088333333333,0.9427347333333334,1.4733280000000002,11.418974500000004,57.5,-16.333333333333332,-278.8333333333333,83.83333333333333,64.16666666666667,70.33333333333333,-982.0,-1.3333333333333333,310.8333333333333,1018.6823333333332,-3.614453166666666,3151.833333333333,0.0723917266666666,-0.021672635,-0.0591679233333333,-0.0273459133333333,-2.651088333333333,-0.0042144476666666,57500.0,20818.0,29970.0,56.5,24.5,33.0,0,None
2023-01-02 09:26:39.350,294.483,0.0999999999999999,100.0,984.0,24266.0,4888.0,99.0,1123.4,145.6,4883.4,87.057324,2.3243789999999995,0.06532045,-0.066411975,-2.759608,57.465,0.0836124199999999,-0.063744575,-2.6529285,0.7271958799999999,1.3849548,11.4457754,51.2,-4.0,-285.8,42.6,22.6,69.6,-1042.2,-24.4,311.0,1018.6598,-3.6368750000000007,3153.2,0.0836124199999999,-0.0217335395,-0.063744575,-0.0340528,-2.6529285,-0.0085487255,57450.0,20774.0,29920.0,53.0,24.0,25.0,0,None
2023-01-02 09:26:39.900,295.033,0.1000000000000037,100.0,1339.0,24142.0,4871.0,99.0,1163.0,147.5,4886.166666666667,86.44757166666666,2.3825545,0.0456532533333333,-0.0617106466666666,-2.770267333333333,57.41333333333333,0.0624427866666666,-0.0602171,-2.660263,0.6497985666666666,1.5069713333333332,10.1541335,57.0,15.5,-288.1666666666667,22.5,-27.83333333333333,44.66666666666666,-1031.0,-24.666666666666668,301.6666666666667,1018.6735,-3.623333,3154.333333333333,0.0624427866666666,-0.0364353256666666,-0.0602171,-0.0089118133333333,-2.660263,0.0065316199999999,57400.0,20760.0,29870.0,49.0,22.0,37.0,0,None
2023-01-02 09:26:40.450,295.583,0.0999999999999999,100.0,927.0,24287.0,4891.0,99.0,930.6,148.8,4886.4,85.873014,2.4403956,0.0348989166666666,-0.05509517,-2.771383333333333,57.38666666666666,0.05242935,-0.0545482366666666,-2.6602036666666664,0.87831572,1.3682424000000002,10.9824564,31.8,-9.2,-281.8,59.0,-1366.6999999999998,65.2,-1096.4,-5.6,313.4,1018.6834,-3.613297,3155.4,0.05242935,-0.021933725,-0.0545482366666666,0.0233163633333333,-2.6602036666666664,-0.0061257499999999,57380.0,20765.0,29850.0,35.0,17.0,39.0,1,27_ygyro_avg_abrupt_-1409.1
2023-01-02 09:26:41.000,296.143,0.103333333333334,100.0,1026.5,24245.0,4880.5,99.0,944.3333333333334,150.33333333333334,4883.666666666667,85.31747333333334,2.498569666666667,0.0470484233333333,-0.05296847,-2.7666763333333333,57.34,0.06352018,-0.05298267,-2.654190666666667,1.006168883333333,1.3522533333333333,10.308347,33.583333333333336,0.4166666666666667,-282.3333333333333,77.75,-1358.0166666666667,71.41666666666667,-979.75,25.166666666666668,309.1666666666667,1018.7215,-3.57525375,3156.75,0.06352018,0.0328095383333333,-0.05298267,-0.0034301266666666,-2.654190666666667,0.0239010423333333,57350.0,20787.0,29820.0,32.0,13.0,38.0,1,27_ygyro_avg_abrupt_-1409.1
2023-01-02 09:26:41.550,296.707,0.1039999999999963,100.0,889.0,24323.0,4875.0,99.0,928.0,151.8,4887.2,84.811788,2.5541924000000003,0.049100145,-0.05340316,-2.7695955000000003,57.295,0.06483856,-0.053684535,-2.6559895,0.938919,1.4317867999999998,11.853718,6.0,-0.2,-281.4,38.6,-1407.1,77.4,-1031.0,-59.6,323.2,1018.713,-3.5837186,3157.6,0.06483856,-0.00214956,-0.053684535,-0.017091778,-2.6559895,-0.063537255,57300.0,20801.0,29770.0,30.0,13.0,41.0,1,27_ygyro_avg_abrupt_-1409.1
2023-01-02 09:26:42.100,297.2232,0.0999999999999999,100.0,883.0,24295.0,4888.0,99.0,893.0,153.4,4879.8,84.41281599999999,2.5999936000000003,0.0246373133333333,-0.0540705366666666,-2.7973276666666664,57.28666666666667,0.0392792766666666,-0.0539994366666666,-2.683300333333333,1.07936896,1.266124,9.2301126,-28.8,-0.8,-279.4,45.0,-1501.5,63.4,-1067.2,-25.6,324.4,1018.7362,-3.5603906000000003,3158.8,0.0392792766666666,-0.1029033186666666,-0.0539994366666666,0.0139229533333333,-2.683300333333333,-0.0196614933333333,57290.0,20624.0,29760.0,29.0,21.0,34.0,1,27_ygyro_avg_abrupt_-1409.1
2023-01-02 09:26:42.650,297.77316666666667,0.1000000000000037,100.0,1092.0,24228.0,4871.0,99.0,891.0,154.5,4880.0,83.99371000000001,2.651015000000001,0.0160095366666666,-0.0424513133333333,-2.802721333333333,57.25666666666666,0.0317528,-0.0423705466666666,-2.68705,1.0445809333333331,1.2924011666666666,9.150590833333334,-1.8333333333333333,10.666666666666666,-274.5,28.0,-1362.7666666666667,60.66666666666666,-1018.5,7.333333333333333,321.8333333333333,1018.7466666666668,-3.5500130000000003,3159.6666666666665,0.0317528,0.0214257999999999,-0.0423705466666666,0.0345721196666666,-2.68705,0.0145486133333333,57260.0,20596.0,29730.0,16.0,26.0,46.0,1,27_ygyro_avg_abrupt_-1409.1
2023-01-02 09:26:43.200,298.3232,0.0999999999999999,100.0,948.0,24285.0,4887.0,99.0,942.4,156.2,4883.6,83.64467199999999,2.697947,0.035870775,-0.02782446,-2.7954595,57.235,0.05009893,-0.029614425,-2.6785755,0.91417764,1.3461186,9.455839,70.8,22.4,-284.6,26.8,-1361.1,69.8,-1067.6,17.6,313.6,1018.7212,-3.57575,3161.0,0.05009893,0.00634245,-0.029614425,-0.00273849,-2.6785755,0.0203056295,57240.0,20631.0,29710.0,3.0,18.0,34.0,1,27_ygyro_avg_abrupt_-1409.1
2023-01-02 09:26:43.750,298.8731666666667,0.0999999999999942,100.0,1077.0,24198.0,4875.0,99.0,1036.1666666666667,157.5,4880.5,83.34406333333332,2.7380025000000003,0.0537147,-0.0336618533333333,-2.782183,57.20666666666667,0.06708609,-0.03516534,-2.6642693333333334,0.9158300833333332,1.4347263333333335,8.8829345,56.333333333333336,-41.0,-283.1666666666667,56.333333333333336,-1387.1,78.16666666666667,-1016.1666666666666,31.666666666666668,310.1666666666667,1018.7086666666668,-3.5881379999999994,3162.0,0.06708609,0.021207389,-0.03516534,-0.017399827,-2.6642693333333334,0.034100175,57220.0,20690.0,29690.0,0.0,3.0,34.0,1,27_ygyro_avg_abrupt_-1409.1
2023-01-02 09:26:44.300,299.4352,0.1039999999999963,100.0,1075.0,24190.0,4888.0,99.0,1097.6,159.4,4876.0,83.038892,2.7738504,0.0755121966666666,-0.03810245,-2.7640810000000005,57.196666666666665,0.0872064233333333,-0.0392235033333333,-2.645337,0.7909253,1.6546759999999998,11.6798362,75.0,10.4,-287.8,53.0,-1415.8999999999999,75.4,-1045.0,-22.8,298.8,1018.6586,-3.6378592,3162.8,0.0872064233333333,-0.03030678,-0.0392235033333333,-0.0097523166666666,-2.645337,-0.025938295,57180.0,20840.0,29650.0,-2.0,-7.0,29.0,1,27_ygyro_avg_abrupt_-1409.1
2023-01-02 09:26:44.850,299.993,0.1000000000000037,100.0,812.0,24335.0,4875.0,99.0,901.1666666666666,160.66666666666666,4872.5,82.70106,2.8087066666666662,0.0848293633333333,-0.0669064933333333,-2.7736723333333333,57.28333333333333,0.0965019799999999,-0.0672982533333333,-2.653782666666667,1.0484757666666666,1.5296491666666665,13.672115,76.33333333333333,-37.16666666666666,-287.5,72.16666666666667,-1348.1,73.66666666666667,-966.0,-17.333333333333332,310.5,1018.6781666666668,-3.6185938333333336,3164.333333333333,0.0965019799999999,0.047430293,-0.0672982533333333,-0.0441078766666666,-2.653782666666667,-0.0005370613333333,57265.0,20800.5,29735.0,8.0,-16.0,41.5,1,27_ygyro_avg_abrupt_-1409.1
2023-01-02 09:26:45.400,300.543,0.0999999999999999,100.0,833.0,24331.0,4883.0,98.4,1044.8,162.2,4881.6,82.32326600000002,2.8439406,0.083817515,-0.084455605,-2.7760215,57.345,0.0965371999999999,-0.08321469,-2.6547295,0.9434266,1.3832904,10.2398928,80.6,-47.4,-292.0,70.4,-1357.1,64.0,-952.0,-4.6,302.4,1018.6414,-3.655312400000001,3165.0,0.0965371999999999,0.02555083,-0.08321469,-0.010046005,-2.6547295,0.003952805,57350.0,20784.0,29820.0,8.0,-13.0,22.0,1,27_ygyro_avg_abrupt_-1409.1
2023-01-02 09:26:45.950,301.093,0.1000000000000037,100.0,1364.0,24083.0,4879.5,98.0,1306.3333333333333,164.16666666666666,4882.166666666667,81.92681,2.8806293333333333,0.1015075233333333,-0.0700177433333333,-2.789235,57.32333333333333,0.1143017666666666,-0.0691192633333333,-2.666854333333333,0.6039129,1.33467,12.166976666666669,58.833333333333336,20.166666666666668,-302.3333333333333,50.5,-1434.2666666666667,65.83333333333333,-1097.5,-33.5,297.5,1018.645,-3.6517055,3166.333333333333,0.1143017666666666,-0.0328151333333333,-0.0691192633333333,0.04067186,-2.666854333333333,-0.0324387966666666,57320.0,20696.0,29790.0,26.0,-5.0,23.0,1,27_ygyro_avg_abrupt_-1409.1
2023-01-02 09:26:46.500,301.643,0.0999999999999999,100.0,1142.0,24170.0,4871.0,98.0,1046.8,165.8,4876.6,81.51669,2.9202182,0.0671897833333333,-0.0801347066666666,-2.789604,57.34666666666667,0.0808659433333333,-0.0791636866666666,-2.665649333333333,0.76702484,1.3477888,10.6518518,70.8,-20.8,-292.6,31.2,-1461.8999999999999,49.4,-1070.8,13.6,294.2,1018.6732,-3.6235312,3167.2,0.0808659433333333,-0.0757449089999999,-0.0791636866666666,-0.0645292166666666,-2.665649333333333,0.0129265376666666,57350.0,20742.0,29820.0,29.0,1.0,31.0,1,27_ygyro_avg_abrupt_-1409.1
2023-01-02 09:26:47.050,302.196,0.0999999999999942,100.0,1000.0,24230.0,4890.0,98.0,1128.8333333333333,167.5,4883.666666666667,81.08135,2.963907666666666,0.0555247466666666,-0.0784657066666666,-2.7862796666666667,57.35333333333333,0.0712129133333333,-0.07842223,-2.6611606666666665,0.7475641166666667,1.4328971666666668,11.307567833333332,59.0,27.83333333333333,-286.5,45.66666666666666,-1396.7666666666667,49.5,-1057.6666666666667,-10.166666666666666,304.1666666666667,1018.6655,-3.631093833333333,3168.5,0.0712129133333333,0.0084042699999999,-0.07842223,0.0906756833333333,-2.6611606666666665,-0.014055429,57350.0,20762.0,29820.0,18.0,4.0,30.0,1,27_ygyro_avg_abrupt_-1409.1
2023-01-02 09:26:47.600,302.743,0.0999999999999999,100.0,1094.0,24193.0,4874.0,98.0,995.2,169.2,4878.6,80.66544,3.009464,0.05906208,-0.076622275,-2.7910845,57.325,0.07409792,-0.0768341499999999,-2.6652275000000003,0.8094067799999998,1.4682044,11.565976,61.8,-11.2,-288.0,50.4,-1381.8999999999999,62.4,-1014.0,14.0,321.6,1018.6676,-3.6290312,3169.0,0.07409792,-0.0175334895,-0.0768341499999999,-0.0058899,-2.6652275000000003,0.02458549,57330.0,20723.0,29800.0,16.0,6.0,20.0,1,27_ygyro_avg_abrupt_-1409.1
2023-01-02 09:26:48.150,303.29299999999995,0.1000000000000037,100.0,1281.0,24130.0,4890.0,98.0,1216.6666666666667,170.83333333333334,4878.833333333333,80.297915,3.0542270000000005,0.0640590866666666,-0.0755076266666666,-2.790813,57.29,0.07927292,-0.0765647033333333,-2.663672666666667,0.6986567833333334,1.445113833333333,11.84868,65.33333333333333,4.0,-296.3333333333333,46.0,-1411.9333333333332,58.333333333333336,-1053.6666666666667,-23.33333333333333,309.5,1018.6503333333336,-3.646302166666666,3170.0,0.07927292,-0.0483931533333333,-0.0765647033333333,-0.0074257166666666,-2.663672666666667,-0.0299233099999999,57290.0,20741.0,29760.0,12.0,7.0,16.0,1,27_ygyro_avg_abrupt_-1409.1
2023-01-02 09:26:48.700,303.843,0.0999999999999999,100.0,1086.0,24219.0,4875.0,98.0,1204.2,172.6,4884.0,79.954438,3.0995052,0.0673668866666666,-0.0723827366666666,-2.793291333333334,57.27333333333333,0.08241216,-0.0736030666666666,-2.665685333333333,0.68258134,1.34541,11.3872636,53.6,20.4,-287.8,42.0,-1403.8999999999999,67.4,-1067.0,8.0,296.6,1018.6254,-3.6711408,3171.4,0.08241216,0.0127310633333333,-0.0736030666666666,0.00474114,-2.665685333333333,0.0095929433333333,57270.0,20728.0,29740.0,12.0,6.0,29.0,1,27_ygyro_avg_abrupt_-1409.1
2023-01-02 09:26:49.250,304.39300000000003,0.0999999999999942,100.0,1033.0,24222.0,4891.0,98.0,1098.8333333333333,174.5,4883.5,79.61735333333333,3.14687,0.0592863499999999,-0.0815530166666666,-2.793219666666667,57.306666666666665,0.07488612,-0.0833822799999999,-2.6647173333333334,0.7540532833333332,1.308771,12.628506666666668,66.83333333333333,-35.833333333333336,-287.3333333333333,71.66666666666667,-1421.1,56.333333333333336,-1060.0,-1.0,305.5,1018.6258333333332,-3.671015666666667,3172.5,0.07488612,-0.0208597133333333,-0.0833822799999999,0.0009595016666666,-2.6647173333333334,-0.0046535063333333,57280.0,20731.0,29750.0,12.0,4.0,26.0,1,27_ygyro_avg_abrupt_-1409.1
2023-01-02 09:26:49.800,304.94300000000004,0.0999999999999999,100.0,919.0,24242.0,4874.0,98.0,1057.2,176.2,4879.2,79.300936,3.1944704,0.062159915,-0.084998165,-2.8006005,57.325,0.07819707,-0.087139925,-2.670625,0.79773216,1.377293,11.594644,55.6,16.4,-289.4,51.8,-1344.6999999999998,54.2,-990.6,-3.2,308.6,1018.6236,-3.673047,3173.0,0.07819707,0.024457025,-0.087139925,-0.00455258,-2.670625,-0.0128537295,57320.0,20725.0,29790.0,8.0,7.0,30.0,1,27_ygyro_avg_abrupt_-1409.1
2023-01-02 09:26:50.350,305.493,0.1000000000000037,100.0,1142.0,24169.0,4890.0,98.0,1113.1666666666667,177.83333333333334,4886.833333333333,79.02833833333334,3.240595333333333,0.0698102166666666,-0.0769169166666666,-2.805341666666667,57.303333333333335,0.08567147,-0.07899107,-2.674762666666666,0.7434659666666668,1.4693066666666663,13.963850000000004,63.5,8.666666666666666,-293.6666666666667,75.66666666666667,-1417.9333333333332,53.0,-1082.3333333333333,11.333333333333334,297.3333333333333,1018.6243333333332,-3.672330666666666,3174.6666666666665,0.08567147,0.0052354059999999,-0.07899107,-0.0233877933333333,-2.674762666666666,0.0141970466666666,57300.0,20673.5,29770.0,8.5,9.5,16.0,1,27_ygyro_avg_abrupt_-1409.1
2023-01-02 09:26:50.900,306.0552,0.1039999999999963,100.0,1094.0,24206.0,4875.0,98.0,1085.8,179.4,4884.6,78.73872200000001,3.2937968,0.0568325533333333,-0.07901798,-2.804386333333333,57.26,0.07261937,-0.0816285433333333,-2.673903333333333,0.72636672,1.3874426,13.33774,70.8,-1.8,-281.2,48.0,-1405.8999999999999,64.4,-1049.6,0.4,316.4,1018.624,-3.6726562,3175.4,0.07261937,0.016394383,-0.0816285433333333,-0.02436673,-2.673903333333333,0.0074482423333333,57250.0,20684.0,29720.0,5.0,4.0,24.0,1,27_ygyro_avg_abrupt_-1409.1
2023-01-02 09:26:51.450,306.56319999999994,0.0999999999999999,100.0,805.0,24312.0,4890.0,98.0,930.6,180.8,4886.4,78.511778,3.3382794,0.0693416,-0.079393645,-2.8061215,57.27,0.085034495,-0.08154242,-2.6749035,0.9015076,1.4936728,12.773096,92.6,-3.2,-288.8,20.6,-1402.1,56.6,-1083.2,-34.6,313.4,1018.6252,-3.671484200000001,3176.2,0.085034495,0.06100688,-0.08154242,0.035123975,-2.6749035,-0.05294419,57270.0,20636.0,29740.0,0.0,10.0,29.0,1,27_ygyro_avg_abrupt_-1409.1
2023-01-02 09:26:52.000,307.11316666666664,0.1000000000000037,100.0,896.0,24265.5,4881.0,98.0,809.6666666666666,182.3333333333333,4888.166666666667,78.29385666666666,3.385673333333333,0.06609777,-0.07109853,-2.819017333333333,57.25333333333333,0.08130009,-0.0737709533333333,-2.6875296666666664,0.9586674666666668,1.4424563333333331,10.992694333333333,39.16666666666666,11.333333333333334,-292.5,32.833333333333336,-1391.7666666666667,63.0,-1037.5,-0.6666666666666666,319.1666666666667,1018.6458333333334,-3.651198,3177.1666666666665,0.08130009,-0.0013100433333333,-0.0737709533333333,-0.0292574833333333,-2.6875296666666664,0.0085379166666666,57250.0,20585.0,29720.0,4.0,18.0,34.0,1,27_ygyro_avg_abrupt_-1409.1
2023-01-02 09:26:52.550,307.6632,0.0999999999999999,100.0,921.0,24222.0,4877.0,98.0,816.0,183.4,4883.6,78.096046,3.4318452,0.0740178766666666,-0.0577692166666666,-2.827741,57.22333333333333,0.0877277,-0.0602558599999999,-2.696266,1.0535265800000002,1.5684606000000003,11.602764400000002,2.8,40.8,-297.4,42.2,-1449.5,73.2,-1037.4,-33.0,329.4,1018.6744,-3.622203,3178.0,0.0877277,-0.0523841726666666,-0.0602558599999999,0.0896013683333333,-2.696266,-0.0389529266666666,57220.0,20555.0,29690.0,21.0,28.0,11.0,1,27_ygyro_avg_abrupt_-1409.1
2023-01-02 09:26:53.100,308.21316666666667,0.1000000000000037,100.0,1156.0,24110.0,4893.0,98.0,996.5,184.66666666666663,4886.166666666667,77.90346833333332,3.473313166666667,0.0303153199999999,-0.0438934766666666,-2.841113,57.12,0.0450409866666666,-0.0458921533333333,-2.7081543333333333,0.8762867500000001,1.3174948333333332,9.677210833333334,29.5,28.0,-284.6666666666667,43.5,-1481.4333333333332,56.5,-1079.1666666666667,-15.333333333333334,308.0,1018.668,-3.62875,3179.0,0.0450409866666666,-0.1169258133333333,-0.0458921533333333,0.0233929166666666,-2.7081543333333333,-0.0176692,57120.0,20490.0,29590.0,28.0,26.0,25.0,1,27_ygyro_avg_abrupt_-1409.1
2023-01-02 09:26:53.650,308.7666,0.0999999999999999,100.0,1033.0,24257.0,4877.0,98.0,1073.6,186.4,4882.8,77.7133,3.511275,0.0080683424999999,-0.044551125,-2.84227,57.08,0.023105975,-0.04746024,-2.7072955,0.90959536,1.2060188,9.4478286,32.8,-5.8,-282.8,37.0,-1388.8999999999999,53.8,-1064.2,32.0,317.4,1018.6815,-3.61527325,3179.75,0.023105975,0.0798435395,-0.04746024,-0.0994605799999999,-2.7072955,0.05752946,57080.0,20479.0,29550.0,21.0,17.0,21.0,1,27_ygyro_avg_abrupt_-1409.1
2023-01-02 09:26:54.200,309.31316666666663,0.0999999999999942,100.0,1151.0,24147.0,4885.0,98.0,1165.0,188.16666666666663,4879.166666666667,77.55152666666667,3.545631,0.0313590733333333,-0.0345500699999999,-2.8268083333333336,57.04333333333333,0.0467581533333333,-0.0381577033333333,-2.691162333333333,0.6919434666666665,1.0445272,10.935982,36.16666666666666,-8.0,-283.0,39.833333333333336,-1357.6,59.16666666666666,-1042.1666666666667,41.16666666666666,299.8333333333333,1018.6628333333332,-3.633828,3181.0,0.0467581533333333,0.03916834,-0.0381577033333333,-0.001751191,-2.691162333333333,0.0401670313333333,57040.0,20561.0,29510.0,12.0,7.0,30.0,1,27_ygyro_avg_abrupt_-1409.1
2023-01-02 09:26:54.750,309.8666,0.0999999999999999,100.0,1120.0,24174.0,4874.0,98.0,1081.4,189.8,4876.4,77.42152200000001,3.5748076,0.02706541,-0.0455718333333333,-2.8136126666666663,57.05,0.04108733,-0.0485744966666666,-2.678044,0.59836656,1.23478,11.487086,25.8,1.8,-277.2,27.2,-1396.1,69.2,-1058.2,-12.8,316.6,1018.688,-3.608828,3181.8,0.04108733,-0.0050326899999999,-0.0485744966666666,0.0186033933333333,-2.678044,-0.0126959966666666,57050.0,20676.0,29520.0,13.0,3.0,35.0,1,27_ygyro_avg_abrupt_-1409.1
2023-01-02 09:26:55.300,310.416,0.1029999999999991,100.0,1018.0,24210.0,4882.0,98.0,1025.1666666666667,191.5,4876.666666666667,77.31748666666668,3.599161500000001,0.002976341,-0.0530156733333333,-2.814273333333334,57.06666666666666,0.0171336596666666,-0.0551090633333333,-2.678157666666667,0.6190501833333334,1.5132911666666669,11.478192666666668,19.33333333333333,9.666666666666666,-269.8333333333333,33.333333333333336,-1444.7666666666667,68.5,-1034.5,-6.166666666666667,316.5,1018.6954999999998,-3.6012761666666666,3182.5,0.0171336596666666,0.0087219133333333,-0.0551090633333333,0.0660920233333333,-2.678157666666667,-0.0077259976666666,57070.0,20659.5,29540.0,6.5,5.0,32.0,1,27_ygyro_avg_abrupt_-1409.1
2023-01-02 09:26:55.850,310.963,0.0964000000000055,100.0,658.0,24320.0,4877.0,98.0,856.4,192.8,4881.0,77.25958200000001,3.6198858,-0.0112196445,-0.035055505,-2.807282,57.085,0.003193795,-0.036771075,-2.671152,0.74352182,1.4635016,10.3104496,15.0,41.2,-268.0,4.6,46.4,82.2,-1082.6,18.8,332.8,1018.738,-3.5583594,3184.0,0.003193795,0.064426533,-0.036771075,-0.01182497,-2.671152,0.016274065,57090.0,20709.0,29560.0,-11.0,6.0,39.0,0,None
2023-01-02 09:26:56.400,311.5131666666667,0.0999999999999942,100.0,838.0,24256.0,4890.0,98.0,792.3333333333334,194.16666666666663,4884.166666666667,77.26410333333332,3.635835,0.0265751466666666,-0.0174291633333333,-2.807062333333333,57.06666666666666,0.0397536199999999,-0.02065552,-2.670742666666667,0.8390179000000001,1.3064593333333334,7.758699,8.833333333333334,10.0,-278.5,7.666666666666667,23.166666666666668,81.83333333333333,-1027.0,-6.833333333333333,323.8333333333333,1018.79,-3.5066406666666663,3184.5,0.0397536199999999,0.013408811,-0.02065552,-0.010522042,-2.670742666666667,-0.0079254066666666,57030.0,20685.0,29500.0,-5.0,6.0,38.0,0,None
2023-01-02 09:26:56.950,312.083,0.1040000000000077,100.0,835.0,24267.0,4869.0,98.0,845.6,195.4,4880.6,77.27174,3.6469722,0.0196084166666666,-0.0141545999999999,-2.813592,56.97666666666667,0.03111025,-0.0173432833333333,-2.6766466666666666,0.92925552,1.3120126,8.7367098,16.4,-3.6,-274.0,10.4,-6.4,83.8,-1045.8,-6.4,320.0,1018.7573999999998,-3.5392184,3185.8,0.03111025,-0.0190516433333333,-0.0173432833333333,0.0111767173333333,-2.6766466666666666,-0.0195657556666666,56960.0,20655.0,29430.0,0.0,4.0,42.0,0,None
2023-01-02 09:26:57.500,312.633,0.0999999999999942,100.0,835.0,24264.0,4885.0,98.0,901.0,196.66666666666663,4884.0,77.254555,3.653338833333333,0.012517814,-0.01724075,-2.816902666666667,56.93333333333334,0.0233802199999999,-0.0196194866666666,-2.680912,1.0638444,1.2922038333333332,8.995096,29.5,-6.833333333333333,-273.8333333333333,53.0,8.333333333333334,89.66666666666667,-1078.0,-12.0,320.5,1018.7451666666666,-3.5515755,3186.6666666666665,0.0233802199999999,0.0405453656666666,-0.0196194866666666,-0.0376095733333333,-2.680912,-0.0037573526666666,56930.0,20640.0,29400.0,0.0,-5.0,41.0,0,None
2023-01-02 09:26:58.050,313.18300000000005,0.0999999999999999,100.0,1190.0,24134.0,4896.0,98.0,1018.6,198.2,4890.4,77.22622199999999,3.6559536,0.0129629015,-0.0294181,-2.820946,56.93,0.02368373,-0.0317747399999999,-2.6838610000000003,0.97555788,1.2741728,9.0178006,7.2,-39.0,-274.0,56.6,30.8,68.4,-1053.2,8.8,304.2,1018.721,-3.5758124,3187.4,0.02368373,0.013401124,-0.0317747399999999,-0.04139665,-2.6838610000000003,0.013897313,56930.0,20625.0,29400.0,-2.0,-13.0,36.0,0,None
2023-01-02 09:26:58.600,313.733,0.1000000000000037,100.0,1012.0,24197.0,4872.0,98.0,1123.1666666666667,199.8333333333333,4887.333333333333,77.20132666666666,3.655482333333333,0.02642957,-0.03359317,-2.813066,56.93,0.0370133933333333,-0.03602108,-2.675754333333334,0.6162082,1.3062646666666666,10.754922833333332,26.666666666666668,-6.5,-282.8333333333333,20.666666666666668,26.33333333333333,69.66666666666667,-1061.6666666666667,0.3333333333333333,313.0,1018.7005,-3.596093666666667,3188.5,0.0370133933333333,0.01404638,-0.03602108,0.0239404566666666,-2.675754333333334,0.0011974033333333,56930.0,20684.0,29400.0,0.0,-14.0,38.0,0,None
2023-01-02 09:26:59.150,314.283,0.0999999999999999,100.0,1088.0,24172.0,4890.0,98.0,1097.8,201.6,4889.4,77.179768,3.6539372,0.01952679,-0.0433612333333333,-2.816018333333333,56.96,0.0303854066666666,-0.04527623,-2.6790523333333334,0.6058467000000001,1.2652937999999998,9.686717,30.8,19.2,-277.4,17.2,19.8,69.6,-1012.8,11.0,316.6,1018.6902,-3.606625,3189.0,0.0303854066666666,0.018080027,-0.04527623,-0.009190873,-2.6790523333333334,0.0055295746666666,56950.0,20639.0,29420.0,-1.0,-11.0,40.0,0,None
2023-01-02 09:26:59.700,314.833,0.1000000000000037,100.0,1071.0,24178.0,4869.0,98.0,1074.8333333333333,203.16666666666663,4886.666666666667,77.16607166666667,3.652283333333333,0.0202132399999999,-0.0425338999999999,-2.807630333333333,56.98666666666667,0.0319337366666666,-0.0449161766666666,-2.6707153333333333,0.7217089166666666,1.2311626666666668,11.144099,35.0,-25.0,-270.0,47.5,10.5,66.83333333333333,-1064.6666666666667,19.0,321.3333333333333,1018.681,-3.615664,3190.1666666666665,0.0319337366666666,0.0185721243333333,-0.0449161766666666,-0.001490084,-2.6707153333333333,0.0214743053333333,56980.0,20676.0,29450.0,-4.0,-15.0,37.0,0,None
2023-01-02 09:27:00.250,315.383,0.0999999999999999,100.0,1203.0,24126.0,4898.0,98.0,1153.0,205.0,4888.4,77.168682,3.651322,0.040138815,-0.049206375,-2.7965725,57.025,0.052675095,-0.0518479649999999,-2.659178,0.6961658999999999,1.4562924000000002,12.006132,44.0,-33.2,-279.2,67.0,68.6,64.4,-1066.6,19.8,314.8,1018.6376,-3.6590468,3191.2,0.052675095,0.04055738,-0.0518479649999999,-0.0442210105,-2.659178,0.01698383,57000.0,20754.0,29470.0,-11.0,-23.0,39.0,0,None
2023-01-02 09:27:00.800,315.933,0.0999999999999942,100.0,1152.0,24128.0,4874.0,98.0,1085.8333333333333,206.66666666666663,4891.0,77.17557333333333,3.654066666666667,0.0574709966666666,-0.0615203566666666,-2.805247,57.086666666666666,0.0691162433333333,-0.0645752,-2.6671670000000005,0.6964469333333333,1.2756393333333331,10.8175955,28.83333333333333,-17.5,-280.0,31.33333333333333,-47.0,66.33333333333333,-1016.6666666666666,-40.0,298.8333333333333,1018.6043333333332,-3.6923176666666655,3192.1666666666665,0.0691162433333333,-0.0193385766666666,-0.0645752,-0.0479591066666666,-2.6671670000000005,-0.03645384,57115.0,20696.0,29585.0,-1.0,-22.0,31.5,0,None
2023-01-02 09:27:01.350,316.483,0.0999999999999999,100.0,815.0,24291.0,4895.0,98.0,834.6,208.2,4890.0,77.16214,3.659395,0.02718464,-0.0822754466666666,-2.821510333333333,57.21,0.0391968933333333,-0.0837083466666666,-2.6839983333333333,1.01342886,1.2780968,8.943867399999998,-15.6,-30.2,-276.2,61.8,0.2,59.8,-1009.8,-25.8,315.2,1018.6552,-3.641328,3192.8,0.0391968933333333,0.0372853666666666,-0.0837083466666666,-0.0161688633333333,-2.6839983333333333,-0.0207450033333333,57220.0,20612.0,29690.0,-3.0,-3.0,18.0,0,None
2023-01-02 09:27:01.900,317.033,0.1000000000000037,100.0,984.0,24211.0,4875.0,98.0,1014.6666666666666,209.5,4883.833333333333,77.14568,3.666464666666666,0.0246229299999999,-0.0717988166666666,-2.82112,57.196666666666665,0.0392718966666666,-0.0732052333333333,-2.682132333333333,0.7999978333333333,1.4828184999999998,10.935445833333333,33.333333333333336,37.16666666666666,-275.5,25.166666666666668,3.8333333333333335,47.0,-1027.3333333333333,-2.6666666666666665,321.1666666666667,1018.6228333333332,-3.6736978333333337,3194.0,0.0392718966666666,-0.0021444406666666,-0.0732052333333333,0.06519523,-2.682132333333333,-0.004353577,57190.0,20647.0,29660.0,-11.0,7.0,26.0,0,None
2023-01-02 09:27:02.450,317.583,0.0999999999999999,100.0,920.0,24214.0,4893.0,98.0,929.2,210.8,4889.6,77.11975600000001,3.6751606,0.043226845,-0.057617785,-2.8180335,57.205,0.05854887,-0.0596021449999999,-2.679283,0.90460158,1.3782884000000002,9.1888054,-12.4,23.2,-279.0,13.4,27.4,66.2,-1016.6,17.4,316.0,1018.6472,-3.6495782,3194.8,0.05854887,-0.0057685555,-0.0596021449999999,0.0004797999999999,-2.679283,0.022316295,57200.0,20667.0,29670.0,-11.0,14.0,19.0,0,None
2023-01-02 09:27:03.000,318.133,0.0999999999999942,100.0,963.5,24210.0,4883.0,98.0,1056.3333333333333,212.5,4888.666666666667,77.08158666666667,3.684929,0.0570429766666666,-0.0461999466666666,-2.810585,57.17666666666667,0.0719780366666666,-0.0496309566666666,-2.671641,0.7989446833333332,1.4240991666666665,11.4855915,28.83333333333333,-4.166666666666667,-282.0,54.16666666666666,25.666666666666668,63.833333333333336,-1152.3333333333333,23.666666666666668,320.6666666666667,1018.626,-3.670768166666667,3195.6666666666665,0.0719780366666666,0.0313467299999999,-0.0496309566666666,0.0254871966666666,-2.671641,0.0185348316666666,57160.0,20709.0,29630.0,-6.0,13.0,15.0,0,None
2023-01-02 09:27:03.550,318.69500000000005,0.1040000000000076,100.0,1117.0,24156.0,4879.0,98.0,1071.4,214.2,4889.4,77.028748,3.6955448,0.0699093666666666,-0.0524703,-2.7962493333333334,57.15,0.0845607,-0.0554697566666666,-2.657581,0.75731198,1.427792,10.935019,43.9,-1.9,-284.5,42.0,27.1,82.5,-1055.6,-5.7,305.4,1018.6163,-3.6804374,3196.4,0.0845607,0.0481556116666666,-0.0554697566666666,-0.0572738110333333,-2.657581,-0.0011585136666666,57150.0,20786.0,29620.0,-3.0,15.0,23.0,0,None
2023-01-02 09:27:04.100,319.25333333333333,0.1001666666666664,100.0,1024.0,24163.0,4858.0,98.0,957.4,215.8,4879.0,76.96003333333334,3.706789,0.0723727099999999,-0.0499161066666666,-2.795268333333333,57.17666666666667,0.0861675133333333,-0.0529173033333333,-2.65686,0.9183591,1.4340181666666665,10.9673875,87.33333333333333,1.0,-289.0,10.333333333333334,0.0,76.33333333333333,-1042.8333333333333,-3.5,304.5,1018.6306666666666,-3.6660285,3197.1666666666665,0.0861675133333333,-0.0218254433333333,-0.0529173033333333,-0.0094940359999999,-2.65686,-0.0090658483333333,57180.0,20780.0,29650.0,0.0,15.0,26.0,0,None
2023-01-02 09:27:04.650,319.803,0.0997999999999933,100.0,1058.0,24165.0,4877.0,98.0,1068.6,217.4,4879.8,76.87068000000001,3.719178,0.0812966266666666,-0.04290106,-2.7980986666666667,57.173333333333325,0.09433282,-0.04458603,-2.658727666666667,0.90737122,1.4132166000000002,10.0289768,53.0,27.8,-293.2,26.0,-19.4,66.6,-995.2,-38.0,296.2,1018.6544,-3.6424998,3198.2,0.09433282,0.0057216,-0.04458603,0.030113888,-2.658727666666667,-0.0360693433333333,57180.0,20784.0,29650.0,1.0,19.0,16.0,0,None
2023-01-02 09:27:05.200,320.353,0.1000000000000037,100.0,1248.0,24079.0,4883.0,98.0,1101.8333333333333,218.8333333333333,4883.833333333333,76.74984333333333,3.733369,0.0799131133333333,-0.0360746266666666,-2.802668333333333,57.123333333333335,0.0924588366666666,-0.0377498866666666,-2.663186,0.7589080166666666,1.2990408333333334,9.282165166666667,42.0,4.333333333333333,-292.5,8.333333333333334,-1.0,75.16666666666667,-1060.5,-14.5,300.6666666666667,1018.6815,-3.614921666666666,3199.1666666666665,0.0924588366666666,0.00875551,-0.0377498866666666,0.0007722933333333,-2.663186,-0.0132539333333333,57150.0,20742.0,29620.0,8.0,22.0,21.0,0,None
2023-01-02 09:27:05.750,320.9066,0.0999999999999999,100.0,1050.0,24172.0,4875.0,98.0,1043.4,220.6,4879.4,76.595894,3.748298600000001,0.0763239749999999,-0.0235158499999999,-2.804722,57.085,0.089084475,-0.024390415,-2.6651045,0.7800546200000001,1.2961720799999998,9.1749068,48.2,19.8,-291.2,6.8,-17.0,83.4,-1073.6,-18.8,298.8,1018.6712,-3.6254378,3200.0,0.089084475,0.019803713,-0.024390415,-0.012624214,-2.6651045,-0.0156461215,57100.0,20740.0,29570.0,16.0,22.0,29.0,0,None
2023-01-02 09:27:06.300,321.45300000000003,0.0999999999999942,100.0,1037.0,24160.0,4888.0,98.0,1036.1666666666667,222.16666666666663,4887.0,76.41279333333334,3.7626085,0.0682205233333333,-0.0249500733333333,-2.800447,57.080000000000005,0.08062346,-0.0261949433333333,-2.660921333333333,0.7737586499999999,1.5182533333333332,11.549104833333333,54.333333333333336,-8.666666666666666,-290.1666666666667,3.5,-28.0,81.66666666666667,-1140.6666666666667,8.833333333333334,297.0,1018.6856666666666,-3.611002333333334,3200.833333333333,0.08062346,-0.0625977766666666,-0.0261949433333333,-0.0098944133333333,-2.660921333333333,0.0066484866666666,57080.0,20759.5,29550.0,29.0,17.5,32.5,0,None
