00000_Time_epoch,00000_Time_boot_sec,00000_Span_Time_boot_sec,1_battery_remaining_avg,1_current_battery_avg,1_voltage_battery_avg,125_Vcc_avg,147_battery_remaining_avg,147_current_battery_avg,147_current_consumed_avg,165_Vcc_avg,168_direction_avg,168_speed_avg,178_pitch_avg,178_roll_avg,178_yaw_avg,182_altitude_avg,182_pitch_avg,182_roll_avg,182_yaw_avg,241_vibration_x_avg,241_vibration_y_avg,241_vibration_z_avg,27_xacc_avg,27_xgyro_avg,27_xmag_avg,27_yacc_avg,27_ygyro_avg,27_ymag_avg,27_zacc_avg,27_zgyro_avg,27_zmag_avg,29_press_abs_avg,29_press_diff_avg,29_temperature_avg,30_pitch_avg,30_pitchspeed_avg,30_roll_avg,30_rollspeed_avg,30_yaw_avg,30_yawspeed_avg,33_alt_avg,33_hdg_avg,33_relative_alt_avg,33_vx_avg,33_vy_avg,33_vz_avg,label,diagnosis
2022-12-21 12:58:08.400,263.499,0.1000000000000037,100.0,85.0,24741.0,4875.0,99.0,91.66666666666669,66.0,4893.833333333333,33.39073,0.7163462666666667,0.0112379366666666,0.0475568133333333,-1.2817553333333336,43.75,0.0208415933333333,0.06135061,-1.2853463333333333,0.0254910899999999,0.0246322583333333,0.038237945,-1.0,5.666666666666667,53.0,-65.0,7.166666666666667,279.1666666666667,-1046.5,-0.5,315.3333333333333,1011.7523333333334,-0.0659895833333333,3413.1666666666665,0.0208415933333333,0.0080411113333333,0.06135061,0.0061155696666666,-1.2853463333333333,-0.0006464919333333,43780.0,28636.0,-80.0,8.0,24.0,-37.0,0,None
2022-12-21 12:58:08.950,264.04900000000004,0.0999999999999999,100.0,88.0,24742.0,4896.0,99.0,87.6,66.0,4892.0,33.983692000000005,0.60977098,0.01137652,0.04836392,-1.2821405,43.675,0.020775065,0.061291045,-1.285583,0.026879576,0.02734894,0.037127176,-0.8,6.0,53.2,-65.4,7.2,278.6,-1047.4,-0.2,316.0,1011.7546,-0.0636718759999999,3414.0,0.020775065,0.0075178449999999,0.061291045,0.006412871,-1.285583,-0.0011111415,43700.0,28635.0,-160.0,7.0,24.0,-38.0,0,None
2022-12-21 12:58:09.500,264.61566666666664,0.1066666666666643,100.0,85.5,24746.0,4892.0,99.0,87.0,66.0,4889.0,33.82507666666667,0.6108815833333333,0.0113306666666666,0.04870707,-1.2825316666666666,43.60333333333333,0.0207889933333333,0.06133537,-1.285803,0.0268714516666666,0.0260687983333333,0.0371586816666666,0.8333333333333334,5.416666666666667,52.91666666666666,-65.08333333333333,7.75,277.3333333333333,-1050.0,6.333333333333333,317.5,1011.7544166666668,-0.0637630191666666,3415.333333333333,0.0207889933333333,0.0080437266666666,0.06133537,0.006597771,-1.285803,-0.0005891745666666,43630.0,28634.0,-230.0,7.0,24.0,-39.0,0,None
2022-12-21 12:58:10.050,265.19300000000004,0.0999999999999999,100.0,121.0,24706.0,4890.0,99.0,225.8,66.0,4882.0,33.421952,0.65806668,0.0113738166666666,0.04857722,-1.2827123333333337,43.55,0.0207023433333333,0.0615339266666666,-1.2860846666666668,0.25867476,0.20462498,1.1907956999999998,9.0,2.4,56.8,-61.2,9.4,276.0,-1042.8,47.2,309.4,1011.7792,-0.039156248,3416.6,0.0207023433333333,0.005209851,0.0615339266666666,0.0118198376666666,-1.2860846666666668,-0.04496365,43570.0,28634.0,-290.0,8.0,24.0,-39.0,0,None
2022-12-21 12:58:10.600,265.70500000000004,0.1039999999999963,100.0,129.0,24733.0,4893.0,99.0,128.2,66.8,4882.6,32.861058,0.7281351,0.01162169,0.0486205849999999,-1.282722,43.525000000000006,0.020823475,0.061456015,-1.286541,0.14507566,0.2189256799999999,1.14782032,5.6,6.6,57.2,-67.0,8.4,276.6,-1044.8,-5.2,311.2,1011.7932,-0.024953122,3417.8,0.020823475,0.008371963,0.061456015,0.004324143,-1.286541,-0.014433805,43540.0,28627.0,-320.0,8.0,24.0,-39.0,0,None
2022-12-21 12:58:11.150,266.269,0.103333333333334,100.0,1884.0,24134.0,4891.0,99.0,1309.8333333333333,67.66666666666667,4876.333333333333,32.403965,0.8148484833333334,0.0122122603333333,0.0264213033333333,-1.2827596666666663,43.52,0.0216561066666666,0.0392116326666666,-1.285795,0.3599502216666666,0.9577477833333332,4.473002666666667,-11.666666666666666,-123.0,42.0,-49.5,21.5,254.5,-1173.6666666666667,12.833333333333334,253.5,1012.0435,0.2254296999999999,3418.6666666666665,0.0216561066666666,0.0542211433333333,0.0392116326666666,-0.104967226,-1.285795,-0.0047720549999999,43550.0,28643.5,-310.0,7.5,25.5,-16.0,0,None
2022-12-21 12:58:11.700,266.865,0.1120000000000004,100.0,1565.0,24244.0,4901.0,99.0,1570.2,70.2,4892.0,32.471314,0.9215966,0.0113181662333333,-0.0339218766666666,-1.280038,43.85,0.0203047696666666,-0.0208896766666666,-1.28142,0.19011768,1.3820666,3.7987848,-10.2,-18.0,50.6,-19.6,-39.2,239.6,-1228.8,7.6,299.0,1011.9326,0.1143593759999999,3419.8,0.0203047696666666,-0.0514466433333333,-0.0208896766666666,-0.0178150866666666,-1.28142,0.00374887,44100.0,28660.0,240.0,-11.0,29.0,95.0,0,None
2022-12-21 12:58:12.250,267.393,0.1039999999999963,100.0,1777.0,24114.0,4896.0,99.0,1726.4,72.6,4885.4,33.505990000000004,0.97991776,-0.0206056033333333,-0.0030822608666666,-1.2761766666666663,44.94,-0.0112677133333333,0.0100512143333333,-1.2774506666666663,0.38540934,0.9398763,2.0527256,-13.6,81.1,57.6,-17.8,-31.9,246.0,-1216.2,14.4,292.5,1011.6441,-0.17440626,3421.0,-0.0112677133333333,-0.0271178913333333,0.0100512143333333,0.08438495,-1.2774506666666663,0.01477712,45140.0,28686.0,1280.0,-15.0,18.0,184.0,0,None
2022-12-21 12:58:12.800,267.925,0.1040000000000076,100.0,1713.0,24134.0,4896.0,99.0,1712.6,75.2,4884.0,34.33843399999999,1.0294272,-0.0256116949999999,0.022960185,-1.2681025,46.33,-0.01612014,0.034435695,-1.2687944999999998,0.44987508,0.93757306,1.9982044,-14.8,30.2,60.6,-18.4,19.4,247.8,-1163.8,14.4,277.2,1011.4926,-0.32567186,3422.2,-0.01612014,0.00735476545,0.034435695,0.016912845,-1.2687944999999998,0.009246733,46630.0,28740.0,2770.0,0.0,5.0,253.0,0,None
2022-12-21 12:58:13.350,268.453,0.1079999999999927,100.0,1681.0,24118.0,4895.0,99.0,1702.2,77.8,4889.0,34.3888,1.0691938,-0.0125651373333333,0.0182322533333333,-1.268725,48.0,-0.0023606716666666,0.0298304166666666,-1.275935,0.5648016200000001,0.3891716799999999,2.258699,-12.8,-20.4,62.2,-13.6,40.2,241.8,-1118.4,-12.6,265.2,1011.3182,-0.5001249999999999,3423.2,-0.0023606716666666,0.0490412983333333,0.0298304166666666,-0.0054400716666666,-1.275935,-0.0106630016666666,48330.0,28684.0,4470.0,16.0,-1.0,293.0,0,None
2022-12-21 12:58:13.900,269.03266666666667,0.1066666666666738,100.0,1408.0,24203.0,4902.0,99.0,1523.0,80.33333333333333,4894.333333333333,33.895450000000004,1.1061534999999998,0.0065074293333333,0.0037876393333333,-1.2783426666666668,50.04333333333333,0.0165511166666666,0.0177074433333333,-1.284752,0.5123585,0.6434590833333335,2.6239906666666664,-15.083333333333334,-14.5,51.75,-14.916666666666666,11.5,239.66666666666663,-1016.25,-29.83333333333333,288.4166666666667,1011.08075,-0.7375325416666666,3424.333333333333,0.0165511166666666,0.0141833166666666,0.0177074433333333,-0.013666664,-1.284752,-0.0031923866666666,50050.0,28642.0,6190.0,23.0,3.0,304.0,0,None
2022-12-21 12:58:14.450,269.5976,0.0999999999999999,100.0,1004.0,24311.0,4901.0,99.0,1019.8,82.4,4894.8,33.335188,1.1337946,-0.0076337385,-0.005969112,-1.285378,51.63,0.00234646865,0.0075830595,-1.291906,0.64251908,0.77361978,2.2752512,-8.4,-5.6,61.0,-9.6,-3.6,255.0,-844.4,-15.4,319.8,1010.8718,-0.94651564,3425.6,0.00234646865,-0.0250016294999999,0.0075830595,0.0032832233999999,-1.291906,0.004609393,51620.0,28600.0,7760.0,25.0,6.0,237.0,0,None
2022-12-21 12:58:15.000,270.10900000000004,0.0999999999999999,100.0,1121.0,24294.0,4901.0,99.0,1027.8,83.8,4894.0,32.908976,1.1523464,0.0008454748666666,-0.009046637,-1.2877716666666668,52.61333333333334,0.0117170886666666,0.00475858,-1.2940003333333332,0.8333761,0.8341869,1.5636434,-17.6,13.4,56.4,-1.6,41.4,248.6,-882.6,-4.0,323.0,1010.7526,-1.0656562,3426.6,0.0117170886666666,0.0306215,0.00475858,0.0068824333333333,-1.2940003333333332,-0.0160081383333333,52640.0,28588.0,8780.0,23.0,6.0,128.0,0,None
2022-12-21 12:58:15.550,270.6623333333334,0.0999999999999943,100.0,1158.0,24272.0,4901.0,99.0,1141.6666666666667,85.5,4888.333333333333,32.602018333333326,1.1625246666666669,0.0205955433333333,-0.004733367,-1.2885853333333337,53.25,0.0314459766666666,0.007671599,-1.294163333333333,0.7904262833333334,0.6090814666666666,2.5306481666666665,-8.0,1.6666666666666667,47.5,-16.0,40.5,247.5,-939.3333333333334,-3.333333333333333,317.8333333333333,1010.6836666666668,-1.134596333333333,3427.833333333333,0.0314459766666666,0.0660010466666666,0.007671599,-0.0003813176666666,-1.294163333333333,0.0136979879333333,53180.0,28582.0,9320.0,21.0,11.0,59.0,0,None
2022-12-21 12:58:16.100,271.259,0.1000000000000037,100.0,1185.0,24251.0,4891.0,99.0,1174.1666666666667,87.5,4882.666666666667,32.49693,1.1627823333333334,0.02227427,-0.0141572433333333,-1.285463,53.57666666666666,0.0322121133333333,-0.0012404373333333,-1.2900986666666665,0.6687007500000001,0.5010354,3.054089666666666,-11.333333333333334,5.0,46.16666666666666,-6.833333333333333,-20.33333333333333,237.0,-1015.1666666666666,6.166666666666667,308.0,1010.6231666666667,-1.195013,3428.833333333333,0.0322121133333333,-0.0130845626666666,-0.0012404373333333,0.0132863156666666,-1.2900986666666665,0.0012480476666666,53490.0,28598.0,9630.0,17.0,22.0,23.0,0,None
2022-12-21 12:58:16.650,271.809,0.0999999999999999,100.0,1148.0,24283.0,4901.0,99.0,1167.8,89.4,4895.0,32.722558,1.1551956,0.0053350145,-0.006757114,-1.282047,53.76,0.014555695,0.005838547,-1.2858185,0.40075554,0.60252978,3.397002,-15.2,25.4,53.6,-7.6,-20.8,251.6,-1003.6,5.0,323.8,1010.5964,-1.2219528,3430.0,0.014555695,-0.02753342,0.005838547,0.03077384,-1.2858185,-0.004947505,53700.0,28627.0,9840.0,10.0,31.0,2.0,0,None
2022-12-21 12:58:17.200,272.359,0.0999999999999942,100.0,1164.0,24272.0,4906.0,99.0,1174.8333333333333,91.16666666666669,4887.5,33.21545666666666,1.142512,-0.0076802979999999,0.0003343566666666,-1.2837946666666666,53.88333333333333,0.0029647286666666,0.0131393066666666,-1.2863983333333333,0.5136545166666667,0.6411285999999999,3.5897515,-13.5,7.0,58.0,-13.666666666666666,-2.1666666666666665,250.0,-1038.1666666666667,0.0,308.3333333333333,1010.5793333333336,-1.2388671666666666,3431.5,0.0029647286666666,-0.0029652,0.0131393066666666,0.02101617,-1.2863983333333333,-0.004310674,53890.0,28630.5,10030.0,9.5,30.0,-15.5,0,None
2022-12-21 12:58:17.750,272.95019999999994,0.1081999999999993,100.0,1179.0,24253.0,4871.0,99.0,1196.0,93.0,4894.0,33.740698,1.1260254,-0.0428768443333333,0.0011532356999999,-1.2863396666666669,53.98,-0.032626476,0.0128552933333333,-1.28774,0.7190762800000001,0.47305392,3.1772432000000004,-11.4,8.6,68.4,-6.2,-223.8,264.0,-1036.6,6.8,326.2,1010.5705999999998,-1.2476092,3432.4,-0.032626476,-0.1840707833333333,0.0128552933333333,0.0147378933333333,-1.28774,-0.0008411875333333,54000.0,28617.0,10140.0,17.0,14.0,-27.0,0,None
2022-12-21 12:58:18.300,273.47400000000005,0.108000000000004,100.0,1245.0,24219.0,4901.0,99.0,1215.4,94.6,4898.0,34.138602,1.1142458000000002,-0.1890666,0.0001813466666666,-1.2879136666666666,54.03333333333334,-0.1769577999999999,0.0110655449999999,-1.2889153333333334,0.4466026399999999,0.5555561800000001,2.718654,-22.2,9.6,109.2,-14.4,-145.2,249.2,-1057.0,0.0,278.8,1010.5656,-1.2527656,3434.0,-0.1769577999999999,-0.1087032866666666,0.0110655449999999,0.0233873353333333,-1.2889153333333334,0.0124618766666666,54040.0,28613.0,10180.0,41.0,-65.0,-29.0,0,None
2022-12-21 12:58:18.850,273.99800000000005,0.1039999999999963,100.0,1211.0,24244.0,4901.0,99.0,1202.2,96.6,4894.2,34.683374,1.103161,-0.1940427499999999,0.00286949873,-1.2849475,54.07,-0.18200985,0.01155732,-1.2844475,0.3011458,0.7200721800000001,5.590452,-30.3,-8.9,114.0,-9.5,55.6,246.4,-1070.3,6.1,286.4,1010.5482,-1.2698592999999998,3435.0,-0.18200985,0.073454205,0.01155732,0.0017996039999999,-1.2844475,-0.019770725,54070.0,28645.0,10210.0,74.0,-160.0,-32.0,0,None
2022-12-21 12:58:19.400,274.534,0.108000000000004,100.0,1200.0,24229.0,4901.0,99.0,1170.4,98.4,4890.8,35.250376,1.0843410000000002,-0.1658604666666666,-0.0101387533333333,-1.2849306666666669,54.10333333333333,-0.1571917666666666,-0.0009054113666666,-1.284048,0.4720135799999999,0.8879225399999999,5.7866474000000006,-41.0,-4.6,109.2,-8.4,29.2,248.4,-1051.0,2.8,289.8,1010.523,-1.2952968000000002,3436.0,-0.1571917666666666,0.020435392,-0.0009054113666666,0.0051355766666666,-1.284048,-0.0185465036666666,54110.0,28650.0,10250.0,96.0,-237.0,-32.0,0,None
2022-12-21 12:58:19.950,275.0541999999999,0.1039999999999963,100.0,1122.0,24233.0,4895.0,99.0,1126.2,99.6,4892.4,35.637228,1.0575102,-0.1656737,-0.008389144,-1.289939,54.135000000000005,-0.1586467,0.00093348125,-1.2890055,0.6090494200000001,0.95273246,8.260839800000001,-45.0,5.4,109.8,-6.4,25.0,240.8,-1063.6,-18.2,282.2,1010.5748,-1.2434842,3436.8,-0.1586467,0.042095935,0.00093348125,-0.0017888849999999,-1.2890055,-0.003238361,54140.0,28604.0,10280.0,114.0,-303.0,-37.0,0,None
2022-12-21 12:58:20.500,275.6276666666667,0.1036666666666689,100.0,1083.5,24260.0,4895.5,99.0,1096.3333333333333,101.66666666666669,4884.5,35.68640333333333,1.0292768333333333,-0.1588969666666666,-0.0110675526666666,-1.2936726666666667,54.12,-0.1533534666666667,-0.0020727939999999,-1.2927183333333334,0.87689955,1.08181385,7.171353333333333,-71.16666666666667,-2.1666666666666665,107.08333333333331,-7.666666666666667,0.0833333333333333,247.75,-1055.25,-5.583333333333333,299.6666666666667,1010.61825,-1.1999153333333334,3438.1666666666665,-0.1533534666666667,-0.0131569427333333,-0.0020727939999999,-0.0203933513333333,-1.2927183333333334,0.0065665166666666,54110.0,28586.0,10250.0,130.0,-356.0,-36.0,0,None
2022-12-21 12:58:21.050,276.1958,0.0999999999999999,100.0,1045.0,24263.0,4895.0,99.0,1012.0,103.4,4889.4,35.494328,0.99899808,-0.08392325,-0.0183455466666666,-1.2981233333333333,54.07,-0.078389458,-0.0090195293333333,-1.2974776666666668,0.86238822,1.0360936400000005,7.0941616,-72.2,-10.0,95.2,-14.4,375.6,256.8,-1050.8,-10.6,322.8,1010.653,-1.1652342,3440.0,-0.078389458,0.3503114666666667,-0.0090195293333333,-0.0055747703333333,-1.2974776666666668,-0.0088026213333333,54070.0,28554.0,10210.0,139.0,-403.0,-28.0,0,None
2022-12-21 12:58:21.600,276.7076,0.1077999999999974,100.0,1094.0,24268.0,4888.0,99.0,1023.0,104.8,4889.8,34.938342,0.96724478,0.098541605,-0.01795945,-1.296102,54.03,0.10030857,-0.007916471,-1.295365,1.12655196,1.4400028,8.2738948,-93.0,34.4,37.6,-26.8,228.2,244.2,-1040.8,-6.6,332.6,1010.6447999999998,-1.1734064,3440.8,0.10030857,0.17621631,-0.007916471,0.023275825,-1.295365,-0.0215912105,54030.0,28583.0,10170.0,124.0,-375.0,-23.0,0,None
2022-12-21 12:58:22.150,277.23920000000004,0.1042000000000029,100.0,1070.0,24265.0,4901.0,99.0,1124.0,106.4,4889.6,34.123694,0.9362885,0.1189602666666666,-0.0063773318666666,-1.2982060000000002,53.99333333333334,0.1192968666666666,0.0049047722333333,-1.297904333333333,0.8111639199999999,1.7169704000000003,5.5454452,-45.6,42.4,19.8,-22.0,-41.6,241.2,-1060.2,-6.4,330.4,1010.611,-1.2073747999999995,3441.6,0.1192968666666666,-0.0229329466666666,0.0049047722333333,0.04544484,-1.297904333333333,-0.009792575,53990.0,28562.0,10130.0,95.0,-289.0,-24.0,0,None
2022-12-21 12:58:22.700,277.8111666666666,0.1031666666666713,100.0,1187.0,24221.0,4896.0,99.0,1139.6666666666667,108.16666666666669,4892.833333333333,32.908753333333344,0.90207445,0.0809130266666666,0.0143027933333333,-1.2986966666666666,54.00333333333334,0.0840789466666666,0.0255957433333333,-1.2983116666666668,0.9324254666666668,1.11468135,8.136940166666667,-59.66666666666666,31.666666666666668,25.166666666666668,-4.666666666666667,-54.5,248.8333333333333,-1072.1666666666667,-3.6666666666666665,321.6666666666667,1010.5513333333332,-1.2669661666666665,3442.833333333333,0.0840789466666666,-0.0404493483333333,0.0255957433333333,0.0272195806666666,-1.2983116666666668,-0.0071595433333333,54000.0,28574.0,10140.0,75.0,-212.0,-27.0,0,None
2022-12-21 12:58:23.250,278.371,0.0999999999999999,100.0,1081.0,24234.0,4901.0,99.0,1093.8,109.6,4896.8,31.708312,0.87464216,0.068974165,-0.0001990964999999,-1.312268,54.07,0.075465955,0.0097330815,-1.3112565,0.75333004,1.25632066,7.1914164,-49.0,-38.0,33.0,-21.4,17.6,256.4,-1039.4,-32.2,324.2,1010.5096,-1.3087032,3443.8,0.075465955,0.0351911725,0.0097330815,-0.0313446899999999,-1.3112565,-0.043237375,54050.0,28509.0,10190.0,67.0,-153.0,-29.0,0,None
2022-12-21 12:58:23.800,278.935,0.1034999999999968,100.0,1160.0,24219.0,4898.0,99.0,1115.8333333333333,111.66666666666669,4896.333333333333,30.375903333333337,0.8490140666666667,0.09065897,-0.006697485,-1.3128406666666663,54.13999999999999,0.0983043099999999,0.0057612281333333,-1.310145,0.7032029833333334,1.1030809166666666,7.9927986666666655,-27.33333333333333,104.33333333333331,23.33333333333333,11.083333333333334,-43.0,252.66666666666663,-1037.9166666666667,21.916666666666668,318.9166666666667,1010.4819166666666,-1.3365885833333335,3445.1666666666665,0.0983043099999999,0.0431055633333333,0.0057612281333333,0.0486186083333333,-1.310145,0.01107859,54155.0,28514.0,10295.0,48.0,-77.5,-39.0,0,None
2022-12-21 12:58:24.350,279.4958,0.0999999999999999,100.0,1029.0,24266.0,4903.0,99.0,1129.2,113.6,4897.4,29.014506,0.8250405800000001,0.023736089,0.1042987233333333,-1.303548,54.20333333333334,0.0330272199999999,0.1146983799999999,-1.300367,0.7402799,0.8492173000000001,6.0823682,-30.0,229.0,43.2,-12.6,-102.8,276.2,-1045.2,4.6,276.0,1010.4994,-1.318953,3446.8,0.0330272199999999,-0.1222852833333333,0.1146983799999999,0.2690212333333333,-1.300367,0.0038322466666666,54220.0,28543.0,10360.0,92.0,-19.0,-47.0,0,None
2022-12-21 12:58:24.900,280.012,0.1039999999999963,100.0,1192.0,24196.0,4901.0,99.0,1157.8,115.0,4884.6,28.017402,0.80554594,0.003011978,0.1378048499999999,-1.300131,54.225,0.0135175675,0.14643455,-1.2960885,0.4896175399999999,0.8125043200000001,5.846130199999999,-29.2,-345.6,51.0,-24.6,48.0,293.8,-1041.4,26.2,274.4,1010.5226,-1.295625,3447.6,0.0135175675,0.072033645,0.14643455,-0.277090415,-1.2960885,0.02336332,54220.0,28629.0,10360.0,144.0,3.0,-49.0,0,None
2022-12-21 12:58:25.450,280.56199999999995,0.1000000000000037,100.0,1185.5,24208.0,4903.0,99.0,1187.0,116.83333333333331,4892.833333333333,26.83264,0.7859385666666666,0.0257848499999999,-0.102348333,-1.2858483333333333,54.21,0.0339480666666666,-0.0902773055,-1.2791623333333335,0.5971673166666666,0.794992,5.597125833333333,-26.0,-237.0,54.5,-9.5,47.333333333333336,197.8333333333333,-1060.8333333333333,28.666666666666668,330.6666666666667,1010.521,-1.297474,3448.833333333333,0.0339480666666666,0.0381972333333333,-0.0902773055,-0.3776404,-1.2791623333333335,0.020168144,54200.0,28714.0,10340.0,84.0,4.0,-44.0,0,None
2022-12-21 12:58:26.000,281.112,0.0999999999999999,100.0,1234.0,24184.0,4896.0,99.0,1145.0,118.6,4883.8,25.422684000000004,0.77079228,0.0760512933333333,-0.0944996499999999,-1.2800123333333333,54.20000000000001,0.0849291466666666,-0.0774250933333333,-1.2729076666666663,0.67416732,0.64182534,6.7963774,-25.2,308.2,37.6,-15.2,225.4,212.0,-1067.8,-10.4,356.4,1010.5308,-1.2873750000000002,3450.0,0.0849291466666666,0.1926486366666666,-0.0774250933333333,0.3244463666666666,-1.2729076666666663,-0.0101455956666666,54200.0,28700.0,10340.0,20.0,20.0,-46.0,0,None
2022-12-21 12:58:26.550,281.619,0.1045999999999935,100.0,1238.0,24184.0,4896.0,99.0,1231.6,120.4,4881.2,24.183968000000004,0.7557044000000002,0.1757413,0.0130587465,-1.2915275,54.185,0.18277185,0.023706515,-1.284951,0.43005188,0.76086346,7.271650200000001,-4.6,67.6,1.0,-19.4,14.4,239.8,-1061.4,-40.0,306.6,1010.5388,-1.2796092,3451.0,0.18277185,0.08623224,0.023706515,0.08900414,-1.284951,-0.0268091749999999,54180.0,28599.0,10320.0,-3.0,98.0,-46.0,0,None
2022-12-21 12:58:27.100,282.215,0.1066666666666738,100.0,1281.0,24138.0,4896.0,99.0,1169.8333333333333,122.16666666666669,4894.5,22.718825,0.7324018166666667,-0.01834776,0.0075187328525,-1.300882,54.1625,-0.009620205,0.0165924925,-1.295052,0.5126248166666667,0.6577622333333334,4.636975,-14.833333333333334,-28.33333333333333,53.66666666666666,-7.166666666666667,-485.3333333333333,251.8333333333333,-1045.5,35.666666666666664,299.8333333333333,1010.5426666666668,-1.2754686666666666,3452.333333333333,-0.009620205,-0.395099125,0.0165924925,-0.01300710475,-1.295052,0.00611239305,54160.0,28576.0,10300.0,-3.0,130.0,-42.0,0,None
2022-12-21 12:58:27.650,282.791,0.1079999999999927,100.0,1186.0,24158.0,4900.0,99.0,1167.4,124.0,4889.6,21.707306,0.7143496199999999,-0.096140055,-0.009343769,-1.2866905,54.155,-0.082413355,-0.0008749895,-1.2811534999999998,0.34230676,0.7236101,5.0098892,-21.0,-11.4,96.8,-2.8,197.9,247.9,-1055.5,29.5,312.6,1010.5551,-1.2631875,3453.3,-0.08585197,0.330068,-0.0010218065,-0.0056175195,-1.2812785,0.0137566049999999,54160.0,28659.0,10300.0,14.0,63.0,-42.0,0,None
2022-12-21 12:58:28.200,283.327,0.1040000000000076,100.0,1191.0,24181.0,4901.0,99.0,1185.8,126.0,4887.8,20.81611,0.70067104,0.0147725966666666,-0.0139306933333333,-1.2842346666666666,54.13,0.0240847361333333,-0.0057960966666666,-1.2775136666666669,0.5396938400000001,0.6355698200000001,6.2697936,-17.2,5.4,49.0,-2.2,121.0,230.8,-1041.0,4.0,311.6,1010.5532,-1.2651406,3455.0,0.0240847361333333,0.1183715833333333,-0.0057960966666666,0.0061283596666666,-1.2775136666666669,-0.0053645279999999,54130.0,28682.0,10270.0,17.0,39.0,-38.0,0,None
2022-12-21 12:58:28.750,283.855,0.1079999999999926,100.0,1182.0,24181.0,4901.0,99.0,1177.8,127.6,4895.2,19.762988,0.6873685400000001,0.0272447899999999,-0.014202645,-1.2795055,54.115,0.03377138,-0.0057655634999999,-1.2738045,0.63791044,0.4933158599999999,5.188726399999999,-4.8,4.6,51.2,-10.8,-35.2,242.0,-1079.8,12.6,327.6,1010.5604,-1.2579686,3455.4,0.03377138,-0.042709805,-0.0057655634999999,0.0002707704999999,-1.2738045,0.0184212,54120.0,28701.0,10260.0,8.0,48.0,-36.0,0,None
2022-12-21 12:58:29.300,284.4413333333333,0.103333333333334,100.0,1162.0,24160.0,4895.0,99.0,1180.5,129.66666666666666,4894.666666666667,18.555321666666668,0.6704844166666667,0.0061599946333333,-0.0091357036666666,-1.270589,54.10999999999999,0.0130229963333333,-0.0012767158333333,-1.2661870000000002,0.3705415999999999,0.7596931333333333,5.797113500000001,-16.5,15.916666666666666,62.083333333333336,-5.916666666666667,-18.916666666666668,249.91666666666663,-1038.1666666666667,16.916666666666668,320.9166666666667,1010.55875,-1.2593292500000002,3456.833333333333,0.0130229963333333,-0.02298919,-0.0012767158333333,0.01587574,-1.2661870000000002,0.0033020466666666,54110.0,28751.0,10250.0,3.0,53.0,-36.0,0,None
2022-12-21 12:58:29.850,285.0268,0.108000000000004,100.0,1166.0,24172.0,4901.0,99.0,1177.4,131.6,4885.6,17.605566,0.6549661199999999,-0.0050608756666666,-0.0072835706666666,-1.265564,54.10999999999999,0.0023416739999999,0.0005075309666666,-1.2624193333333331,0.4237229799999999,0.74537742,5.511366600000001,-6.6,-5.6,67.0,0.6,-4.0,243.0,-1062.2,10.2,311.6,1010.5712,-1.2468438000000002,3458.0,0.0023416739999999,-0.0055404933333333,0.0005075309666666,-0.0062005737666666,-1.2624193333333331,-0.0018667898666666,54110.0,28773.0,10250.0,3.0,50.0,-37.0,0,None
2022-12-21 12:58:30.400,285.555,0.1039999999999963,100.0,1191.0,24181.0,4896.0,99.0,1183.2,133.4,4890.0,16.642936000000002,0.6376296800000001,-0.005262037,-0.011534235,-1.2685415,54.1,0.0020967945,-0.003942542,-1.2669565,0.5703399200000001,0.55950636,2.7097088,-0.6,-2.0,65.8,-1.6,11.4,248.8,-1062.2,-7.2,313.6,1010.5612,-1.2571562,3459.4,0.0020967945,0.013619855,-0.003942542,-0.0038915233,-1.2669565,-0.0086748855,54100.0,28750.0,10240.0,4.0,43.0,-36.0,0,None
2022-12-21 12:58:30.950,286.091,0.1120000000000004,100.0,1179.5,24170.5,4891.0,99.0,1178.4,134.8,4888.4,15.850972,0.6225796600000001,-0.0033731613333333,-0.0114738566666666,-1.2766586666666668,54.09,0.0039518216666666,-0.003506273,-1.2759163333333332,0.33102206,0.80886392,4.609137200000001,-13.6,12.8,59.4,-19.1,9.4,247.6,-1072.4,-23.7,316.7,1010.5831,-1.2351406,3460.4,0.0039518216666666,0.0243035866666666,-0.003506273,0.01582319,-1.2759163333333332,-0.01541505,54090.0,28700.0,10230.0,4.0,38.0,-35.0,0,None
2022-12-21 12:58:31.500,286.619,0.1039999999999963,100.0,1187.0,24170.0,4885.0,99.0,1178.0,136.6,4885.8,15.097372000000002,0.6083629,-0.0029638629999999,-0.009099615,-1.2784505,54.09,0.003379427,-0.0015581625,-1.2785685,0.33394604,0.7198352400000001,4.3624796,-5.4,13.4,61.6,-3.6,9.8,248.8,-1070.0,16.4,327.8,1010.5756,-1.2426096,3461.0,0.003379427,-0.0012267089999999,-0.0015581625,0.01938036,-1.2785685,-0.0178306749999999,54090.0,28677.0,10230.0,3.0,35.0,-34.0,0,None
2022-12-21 12:58:32.050,287.151,0.108000000000004,100.0,1185.0,24152.0,4896.0,99.0,1200.0,138.4,4891.6,14.257018,0.5916104,-8.055146333333339e-05,-0.00640035,-1.2786726666666668,54.080000000000005,0.007100774,0.0022401043333333,-1.2799383333333332,0.61405214,0.50248666,5.196770600000001,-17.2,9.4,57.6,-13.0,14.2,244.4,-1058.4,-9.6,316.4,1010.5484,-1.2698434,3462.4,0.007100774,0.0228928366666666,0.0022401043333333,0.01998905,-1.2799383333333332,-0.0034635323333333,54080.0,28675.0,10220.0,3.0,32.0,-34.0,0,None
2022-12-21 12:58:32.600,287.735,0.103333333333334,100.0,1171.0,24159.0,4895.0,99.0,1180.3333333333333,140.16666666666666,4894.333333333333,13.374516666666665,0.5736829666666667,-0.0049136546666666,-0.00402001,-1.2826873333333333,54.09,0.0027019030666666,0.0033122163333333,-1.2847536666666668,0.6717926333333333,0.4908586666666666,4.841402666666667,-8.5,4.833333333333333,59.25,-10.833333333333334,-7.916666666666667,246.91666666666663,-1030.8333333333333,-3.583333333333333,313.0833333333333,1010.569,-1.2491144166666668,3463.5,0.0027019030666666,0.0065101208666666,0.0033122163333333,0.0110794463333333,-1.2847536666666668,-0.002961988,54090.0,28639.5,10230.0,5.5,31.0,-33.5,0,None
2022-12-21 12:58:33.150,288.327,0.108000000000004,100.0,1186.0,24144.0,4901.0,99.0,1193.2,142.4,4884.2,12.57049,0.55726946,-0.0122048033333333,-0.0078129976666666,-1.2826626666666667,54.1,-0.0043722023333333,0.0001604501333333,-1.286028333333333,0.64651678,0.4758676999999999,4.9617678,-21.4,7.8,61.0,-3.6,8.0,241.8,-1057.6,-2.2,310.0,1010.5596,-1.2588122,3464.4,-0.004313991,0.0073733193333333,0.0001419025333333,0.0118925456666666,-1.2859806666666669,-0.0004878106666666,54100.0,28629.0,10240.0,9.0,25.0,-35.0,0,None
2022-12-21 12:58:33.700,288.84680000000003,0.1039999999999963,100.0,1216.0,24144.0,4901.0,99.0,1209.2,144.0,4890.8,11.827880000000002,0.54238438,-0.0105665725,-0.0064627869999999,-1.2831585,54.095,-0.002646104,0.0019294685,-1.2876029999999998,0.51994016,0.60734606,5.3079672,-10.6,7.8,64.2,-8.0,11.8,243.6,-1046.0,-15.4,308.8,1010.5698,-1.2485936,3466.0,-0.002646104,0.02307501,0.0019294685,0.0016051299999999,-1.2876029999999998,-0.0029169699999999,54090.0,28613.0,10230.0,12.0,19.0,-36.0,0,None
2022-12-21 12:58:34.250,289.38700000000006,0.108000000000004,100.0,1186.0,24139.0,4895.0,99.0,1189.2,145.8,4892.2,10.93936,0.52656592,-0.008079306,-0.0064145063333333,-1.2867113333333335,54.09,-0.0004121949666666,0.002555204,-1.2920936666666665,0.30303008,0.71317964,5.8436438,-16.5,5.7,57.8,-4.6,12.4,252.3,-1053.6,0.1,321.7,1010.5527,-1.2657500000000002,3466.8,-0.0004121949666666,0.0048703373333333,0.002555204,0.0048617657,-1.2920936666666665,-0.0055614458333333,54090.0,28592.0,10230.0,13.0,15.0,-35.0,0,None
2022-12-21 12:58:34.800,289.911,0.1039999999999963,100.0,1201.0,24149.0,4896.0,99.0,1195.2,147.6,4882.4,10.0257416,0.5121083799999999,-0.0045151589999999,-0.0051145725,-1.2895705,54.105,0.003253561,0.0033960429999999,-1.295998,0.4641613,0.6702383599999999,5.799032,-13.4,11.2,57.6,-9.4,16.8,236.6,-1044.8,-6.0,294.6,1010.5614000000002,-1.2566718,3467.8,0.003253561,-0.00179983885,0.0033960429999999,-0.0018338125,-1.295998,-0.0199936195,54110.0,28558.0,10250.0,13.0,14.0,-35.0,0,None
2022-12-21 12:58:35.350,290.451,0.1079999999999926,100.0,1187.0,24140.0,4904.0,99.0,1197.4,149.4,4896.8,8.947618799999999,0.49683604,-0.0027252628666666,-0.0032849806666666,-1.2948803333333332,54.10999999999999,0.0049667539999999,0.004981167,-1.3022753333333332,0.4223577200000001,0.7552798199999999,6.2377186,-23.2,10.0,54.0,5.8,0.2,253.6,-1037.6,-3.8,323.8,1010.552,-1.2660314,3468.8,0.0049050076666666,-0.0019871566666666,0.005095883,0.0149775306666666,-1.3022376666666666,-0.0015104639999999,54110.0,28533.0,10250.0,15.0,15.0,-34.0,0,None
2022-12-21 12:58:35.900,291.02833333333336,0.1100000000000041,100.0,1493.5,24035.0,4897.0,99.0,1370.6666666666667,151.33333333333334,4894.0,7.722299500000001,0.4812358166666667,-0.0788095933333333,-0.0017889217,-1.2917506666666665,54.16333333333333,-0.07018418,0.006484096,-1.300388,0.4562509333333333,0.8541871999999998,6.115567333333332,-16.166666666666668,0.0,71.41666666666667,11.75,-202.25,240.0,-1128.9166666666667,21.416666666666668,306.9166666666667,1010.5496666666668,-1.268665333333333,3470.0,-0.07018418,-0.2240519333333333,0.006484096,0.0011349767666666,-1.300388,0.0081473123333333,54170.0,28560.0,10310.0,24.0,-3.0,-2.0,0,None
2022-12-21 12:58:36.450,291.6188,0.1039999999999963,100.0,1575.0,23994.0,4888.0,99.0,1673.8,154.2,4875.4,6.575828399999999,0.46428322,-0.18771215,-0.014104025,-1.284986,54.5,-0.1758077499999999,-0.0060294705,-1.294841,0.3455072199999999,1.5804102,5.750511,-25.4,-24.6,114.6,2.2,-52.4,238.4,-1227.0,5.4,279.8,1010.4978,-1.3204064,3471.2,-0.1758077499999999,-0.0841253999999999,-0.0060294705,-0.02591289,-1.294841,-0.00132959,54590.0,28582.0,10730.0,50.0,-92.0,82.0,0,None
2022-12-21 12:58:37.000,292.14300000000003,0.108000000000004,100.0,1471.0,24022.0,4888.0,99.0,1538.2,156.4,4888.4,6.106747,0.44623486,-0.184024,-0.0300939533333333,-1.2818736666666666,55.32333333333333,-0.1729407666666667,-0.02272405,-1.2924516666666666,0.4077434,1.22189162,5.691124200000001,-22.6,-41.6,119.8,17.2,57.2,243.8,-1164.8,30.8,301.4,1010.4136,-1.4046094,3472.2,-0.1729407666666667,0.0686094966666666,-0.02272405,-0.0221065533333333,-1.2924516666666666,-0.0009080466666666,55470.0,28603.0,11610.0,77.0,-196.0,141.0,0,None
2022-12-21 12:58:37.550,292.679,0.0999999999999999,100.0,1491.0,24038.0,4888.0,99.0,1435.0,158.6,4884.8,5.8877606,0.42569616,-0.1646657666666666,-0.0562438533333333,-1.2741066666666667,56.48666666666666,-0.1569599333333333,-0.0470782633333333,-1.286227,0.4646817399999999,0.8680684599999999,6.839935199999999,-33.2,-9.2,114.4,-11.0,18.0,235.0,-1043.6,-1.0,304.0,1010.2932,-1.5252656,3473.2,-0.1569599333333333,0.0221499266666666,-0.0470782633333333,-0.0122579673333333,-1.286227,-0.014337629,56450.0,28636.0,12590.0,87.0,-278.0,149.0,0,None
2022-12-21 12:58:38.100,293.191,0.108000000000004,100.0,1457.0,24046.0,4901.0,99.0,1450.2,160.6,4893.4,5.629770199999999,0.40908692,-0.1688546,-0.058003795,-1.2724035,57.415,-0.161529,-0.04809644,-1.286381,0.4902919600000001,1.03509144,7.945319,-62.2,5.1,111.8,4.8,-3.4,223.0,-1055.1,14.4,308.7,1010.1552,-1.6629765,3474.4,-0.161529,0.0084552,-0.04809644,0.04474993,-1.286381,0.004685715,57380.0,28628.0,13520.0,91.0,-347.0,148.0,0,None
2022-12-21 12:58:38.650,293.77500000000003,0.103333333333334,100.0,1491.0,23991.0,4885.0,98.0,1522.1666666666667,163.0,4882.666666666667,5.007316666666667,0.3883987333333333,-0.1914244666666666,-0.0614844166666666,-1.272924333333333,58.39666666666667,-0.1852775666666666,-0.0531840733333333,-1.2876563333333333,0.5230228666666666,1.19251195,7.929372666666667,-75.0,-38.66666666666666,122.33333333333331,53.5,-25.33333333333333,232.66666666666663,-1086.5,22.5,307.0,1009.9723333333336,-1.8459895,3475.5,-0.1852775666666666,-0.0267307033333333,-0.0531840733333333,-0.06224459,-1.2876563333333333,0.0016646733333333,58340.0,28619.0,14480.0,96.0,-410.0,145.0,0,None
2022-12-21 12:58:39.200,294.35900000000004,0.1079999999999926,100.0,1552.0,24002.0,4864.0,98.0,1530.6,165.4,4890.2,3.7597354,0.36441614,-0.2144921666666666,-0.0750230633333333,-1.277715333333333,59.60999999999999,-0.2082715666666666,-0.0664940033333333,-1.293249,0.59420958,1.345076,8.1970742,-95.0,17.2,118.0,20.6,-57.6,225.2,-974.4,-35.8,317.0,1009.1188999999999,-1.992703,3476.4,-0.2073911,-0.0075199233333333,-0.06655304,0.01856895,-1.293471,-0.0106979066666666,59340.0,28598.0,15480.0,104.0,-479.0,140.0,1,29_press_abs_avg_abrupt_-0.7065000000000055
2022-12-21 12:58:39.750,294.8908,0.1040000000000076,100.0,1610.0,23981.0,4883.0,98.0,1630.2,168.0,4881.6,1.85344524,0.34099894,-0.2284127,-0.06333228,-1.274354,60.615,-0.2227109,-0.05365387,-1.29149,0.76382558,1.1589558,11.6394986,-121.1,17.3,129.0,2.9,-28.1,227.2,-1066.0,-3.2,293.6,1008.939,-2.1728357000000003,3477.7,-0.2227109,-0.00682581,-0.05365387,-0.0692212975,-1.29149,-0.0005318249999999,60350.0,28595.0,16490.0,105.0,-548.0,138.0,1,29_press_abs_avg_abrupt_-0.7065000000000055
2022-12-21 12:58:40.300,295.4228,0.1077999999999974,100.0,1404.0,24036.0,4890.0,98.0,1673.2,170.2,4886.4,-0.4703209600000001,0.3210505,-0.2347133666666666,-0.0529345866666666,-1.2739183333333333,61.67,-0.2287297666666666,-0.04303758,-1.2918373333333333,0.60523624,1.5292856,9.7153042,-121.2,62.0,134.8,-35.2,68.4,233.2,-1094.0,6.8,279.0,1008.8251,-2.2866094,3478.4,-0.2287297666666666,0.0771867333333333,-0.04303758,0.0560257966666666,-1.2918373333333333,-0.0147760566666666,61420.0,28575.0,17560.0,111.0,-617.0,132.0,1,29_press_abs_avg_abrupt_-0.7065000000000055
2022-12-21 12:58:40.850,296.0016666666667,0.1034999999999967,100.0,1032.0,24139.0,4883.0,98.0,1309.8333333333333,172.66666666666666,4889.333333333333,-4.071916333333333,0.2983913333333333,-0.2183701333333333,-0.0423783766666666,-1.2667413333333333,62.906666666666666,-0.2134126666666666,-0.0325626666666666,-1.285724,0.7483783,1.3711512833333332,10.211014166666669,-134.83333333333334,11.166666666666666,131.33333333333334,14.833333333333334,-5.0,226.16666666666663,-1015.5,-7.333333333333333,291.3333333333333,1008.7526666666666,-2.359010333333333,3479.5,-0.2134126666666666,0.1158936566666666,-0.0325626666666666,-0.04661346,-1.285724,-0.0160231846666666,62440.0,28652.0,18580.0,126.0,-679.0,139.0,1,29_press_abs_avg_abrupt_-0.7065000000000055
2022-12-21 12:58:41.400,296.595,0.1120000000000004,100.0,1297.5,24051.5,4892.0,98.0,1538.0,175.0,4883.6,-9.4522062,0.27481894,-0.22173035,-0.044157795,-1.269291,63.88,-0.21793395,-0.03405896,-1.288279,0.7174636000000001,1.4087732,9.4840416,-136.7,-5.7,129.7,73.8,23.6,226.1,-1053.0,10.0,275.4,1008.558,-2.5537265,3480.7,-0.21793395,0.064965425,-0.03405896,0.0655174915999999,-1.288279,0.005492775,63920.0,28613.0,20060.0,154.5,-745.0,124.5,1,29_press_abs_avg_abrupt_-0.7065000000000055
2022-12-21 12:58:41.950,297.119,0.1039999999999963,100.0,553.0,24278.0,4890.0,98.0,1468.6,177.2,4887.8,-14.886864,0.25775644,-0.1856321666666666,-0.06510425,-1.272786,64.80999666666666,-0.1813181333333333,-0.05489158,-1.2917686666666668,0.68974934,1.7088434,12.5540274,-165.6,-11.0,121.8,27.2,167.4,226.6,-1014.6,-29.2,301.2,1008.4929,-2.6186718,3481.6,-0.1813181333333333,0.0145253166666666,-0.05489158,-0.05757809,-1.2917686666666668,-0.0037431220666666,65390.0,28564.0,21530.0,163.0,-785.0,131.0,1,29_press_abs_avg_abrupt_-0.7065000000000055
2022-12-21 12:58:42.500,297.6548,0.108000000000004,100.0,733.0,24248.0,4890.0,98.0,646.8,178.6,4892.0,-21.442902,0.2435984399999999,-0.0553036359999999,-0.0586148633333333,-1.2931063333333337,65.90999666666666,-0.0534265196666666,-0.0474138466666666,-1.3110753333333334,1.02753724,2.0319338,13.127218,-148.0,62.6,90.8,-16.6,252.6,233.8,-934.8,-42.4,335.2,1008.7061,-2.4055466,3482.6,-0.0534265196666666,0.2047654,-0.0474138466666666,0.0460622666666666,-1.3110753333333334,-0.0193162149999999,66150.0,28439.0,22290.0,134.0,-745.0,63.0,1,29_press_abs_avg_abrupt_-0.7065000000000055
2022-12-21 12:58:43.050,298.195,0.108000000000004,100.0,680.0,24262.0,4898.0,98.0,655.4,179.8,4893.0,-28.809936,0.22937818,0.021232065,-0.01805755,-1.2930615,66.235,0.0213527999999999,-0.00628444295,-1.3101205,1.11907792,3.3171662,17.772758,-116.5,101.4,55.2,19.5,121.0,247.7,-969.6,6.5,341.8,1008.7905,-2.3213829,3483.4,0.0213527999999999,-0.04868183,-0.00628444295,0.14381045,-1.3101205,0.01742289,66190.0,28545.0,22330.0,120.0,-677.0,6.0,1,29_press_abs_avg_abrupt_-0.7065000000000055
2022-12-21 12:58:43.600,298.74300000000005,0.1079999999999926,100.0,1146.0,24144.0,4896.0,98.0,917.8,180.8,4887.6,-34.019354,0.20818394,0.0701153966666666,0.0124698703333333,-1.2835186666666667,66.00333333333333,0.0704546133333333,0.0227975433333333,-1.2982293333333337,1.13910956,2.3109012,13.954206000000005,-116.6,16.8,33.0,13.6,112.8,251.8,-1154.6,-16.2,314.8,1008.7597,-2.352125,3484.8,0.0704546133333333,-0.0121010199999999,0.0227975433333333,0.0011414433333333,-1.2982293333333337,-0.0133112566666666,65900.0,28560.0,22040.0,122.0,-597.0,-4.0,1,29_press_abs_avg_abrupt_-0.7065000000000055
2022-12-21 12:58:44.150,299.26300000000003,0.1040000000000076,100.0,1159.0,24114.0,4896.0,98.0,1023.8,182.2,4896.2,-37.420192,0.18646672,0.091656245,0.01301285,-1.2938205,65.785,0.094175375,0.02277651,-1.306199,1.01177878,1.8116460000000003,10.8706994,-75.8,13.6,24.4,88.8,12.6,248.2,-1106.4,-15.4,330.8,1008.6709,-2.4408281999999994,3485.4,0.094175375,0.01779149,0.02277651,0.044348515,-1.306199,-0.042217505,65750.0,28488.0,21890.0,116.0,-507.0,3.0,1,29_press_abs_avg_abrupt_-0.7065000000000055
2022-12-21 12:58:44.700,299.85816666666665,0.1064999999999921,100.0,1056.0,24148.0,4901.0,98.0,1030.6666666666667,184.16666666666663,4894.333333333333,-41.935758333333325,0.1585511333333333,0.0956902366666666,0.0073745706666666,-1.304707,65.79,0.0998160533333333,0.0178845166666666,-1.3148003333333331,0.8617294166666666,1.3886996666666669,12.414050166666668,-48.91666666666666,-5.833333333333333,21.33333333333333,47.083333333333336,-43.25,256.8333333333333,-1069.75,-17.416666666666668,323.4166666666667,1008.5459166666668,-2.5660219166666667,3486.6666666666665,0.0998160533333333,0.0079453566666666,0.0178845166666666,-0.0384988846666666,-1.3148003333333331,-0.0032709596666666,65830.0,28449.0,21970.0,108.0,-421.0,6.0,1,29_press_abs_avg_abrupt_-0.7065000000000055
2022-12-21 12:58:45.250,300.435,0.1081999999999993,100.0,1002.0,24162.0,4903.0,98.0,988.8,185.6,4896.0,-46.765998,0.13672934,0.0780842533333333,-0.0037348417,-1.319484,65.96333333333332,0.0836825766666666,0.0069411593333333,-1.325977,0.96414606,1.3733,11.688322,-88.4,-12.8,23.4,-5.6,20.4,246.0,-1004.8,-29.6,318.2,1008.4901,-2.6215,3487.8,0.0836825766666666,-0.0218605466666666,0.0069411593333333,-0.0199048133333333,-1.325977,-0.0385879933333333,65990.0,28391.0,22130.0,100.0,-350.0,-5.0,1,29_press_abs_avg_abrupt_-0.7065000000000055
2022-12-21 12:58:45.800,300.971,0.1040000000000077,100.0,1125.0,24104.0,4903.0,98.0,1075.4,187.0,4899.2,-53.782572,0.11590478,0.098843595,-0.0108205235,-1.322329,66.08,0.10517476,0.0001103437499999,-1.325792,0.81840844,1.2674612,11.688924000000002,-51.2,3.6,16.8,43.8,56.2,248.6,-1066.0,-3.2,326.0,1008.4715,-2.6402656,3488.8,0.10517476,0.0396608725,0.0001103437499999,0.00039716,-1.325792,0.006856118,66100.0,28410.0,22240.0,88.0,-283.0,-17.0,1,29_press_abs_avg_abrupt_-0.7065000000000055
2022-12-21 12:58:46.350,301.499,0.1079999999999927,100.0,1001.0,24173.0,4891.0,98.0,1087.2,188.6,4892.0,-61.512440000000005,0.101586282,0.1206119,-0.0090189426666666,-1.3267713333333333,66.16000000000001,0.1271974,0.0011417014333333,-1.3282326666666666,0.96183568,1.3075622,10.93906,-47.8,37.5,9.1,-12.0,7.2,241.8,-1031.9,-12.3,331.9,1008.4749,-2.6370701,3489.9,0.1271974,-0.0123354919999999,0.0011417014333333,0.0471808306666666,-1.3282326666666666,0.0041801344333333,66170.0,28387.0,22310.0,69.0,-209.0,-20.0,1,29_press_abs_avg_abrupt_-0.7065000000000055
2022-12-21 12:58:46.900,302.0388,0.1040000000000076,100.0,1195.0,24081.0,4895.0,98.0,1193.0,190.4,4894.0,-69.93773200000001,0.091837718,0.1084361,0.0031612583666666,-1.3209683333333333,66.19999666666666,0.1149927666666666,0.0125523746666666,-1.3209533333333334,0.73479382,1.16754032,8.6960164,-36.6,5.8,9.0,-1.8,-5.6,249.6,-1068.4,31.4,313.0,1008.4069,-2.7046874,3490.8,0.1149927666666666,-0.0063744692333333,0.0125523746666666,2.1739333333332944e-05,-1.3209533333333334,0.0394430121999999,66190.0,28418.0,22330.0,56.0,-143.0,-32.0,1,29_press_abs_avg_abrupt_-0.7065000000000055
2022-12-21 12:58:47.450,302.563,0.1079999999999926,100.0,1162.0,24127.0,4908.0,98.0,1174.0,192.0,4895.0,-81.257788,0.0843742199999999,0.1159603999999999,0.020399935,-1.297222,66.275,0.1231986,0.0279206899999999,-1.2964185,0.4941453799999999,1.0310323,10.195222,-11.8,29.0,15.6,-9.8,50.6,266.8,-1005.8,33.2,320.4,1008.4343,-2.6775936,3491.6,0.1231986,0.063835675,0.0279206899999999,0.0127719755,-1.2964185,0.0224098525,66280.0,28576.0,22420.0,52.0,-84.0,-36.0,1,29_press_abs_avg_abrupt_-0.7065000000000055
2022-12-21 12:58:48.000,303.1516666666667,0.1066666666666738,100.0,1203.5,24098.0,4903.5,98.0,1199.6666666666667,194.16666666666663,4893.166666666667,-94.42003666666666,0.0808844466666666,0.1249710333333333,0.0055341398666666,-1.287833,66.30333333333333,0.1310914,0.0137703333333333,-1.286490666666667,0.4196859333333333,1.3085959166666667,10.9022995,-1.1666666666666667,-23.75,16.5,-23.0,-49.5,247.0833333333333,-987.0,9.416666666666666,304.5833333333333,1008.4334166666666,-2.678365666666666,3492.9166666666665,0.1310914,-0.01840095,0.0137703333333333,-0.0303918233333333,-1.286490666666667,-0.009329626,66300.0,28636.0,22440.0,49.0,-20.0,-39.0,1,29_press_abs_avg_abrupt_-0.7065000000000055
2022-12-21 12:58:48.550,303.7348,0.1079999999999926,100.0,1180.0,24099.0,4900.0,98.0,1165.8,196.0,4893.2,-106.60902000000002,0.080887494,0.06798058,-0.0159171993333333,-1.2869693333333334,66.32666666666665,0.0748395566666666,-0.0067730559,-1.285273,0.426267,1.2550123999999998,9.4586726,-3.8,-25.0,26.6,-12.0,-76.6,243.4,-1053.0,-14.8,328.0,1008.4513000000002,-2.6606096,3494.0,0.0750612066666666,-0.08240362,-0.0064444759,-0.0352228566666666,-1.2851866666666667,-0.0136540033333333,66330.0,28642.0,22470.0,40.0,28.0,-38.0,1,29_press_abs_avg_abrupt_-0.7065000000000055
2022-12-21 12:58:49.100,304.26300000000003,0.1040000000000076,100.0,1125.0,24111.0,4903.0,98.0,1151.8,197.6,4899.2,-118.1565,0.0828117759999999,0.04577836,-0.021728835,-1.2893225,66.32499999999999,0.0542099999999999,-0.014296845,-1.2879565,0.44099168,1.18973378,9.021075800000002,-12.0,4.4,36.4,29.8,5.0,240.8,-1034.4,-1.8,328.6,1008.4317,-2.6799844,3494.6,0.0542099999999999,0.011991423,-0.014296845,0.010530135,-1.2879565,-0.037109905,66320.0,28630.0,22460.0,32.0,48.0,-38.0,1,29_press_abs_avg_abrupt_-0.7065000000000055
2022-12-21 12:58:49.650,304.799,0.1079999999999926,100.0,1112.0,24109.0,4895.0,98.0,1111.0,199.4,4894.2,-131.14003999999997,0.087384714,0.0487882166666666,-0.0293426866666666,-1.2900863333333332,66.33666666666667,0.0558742533333333,-0.02213344,-1.2899976666666666,0.4464278,1.2337908,10.042213999999998,-3.5,-3.6,39.3,-16.4,-7.0,233.2,-1056.3,-5.1,328.0,1008.4422,-2.669664,3495.8,0.0558742533333333,-0.0202304933333333,-0.02213344,-0.0284175533333333,-1.2899976666666666,0.0163664348666666,66330.0,28608.0,22470.0,21.0,61.0,-37.0,1,29_press_abs_avg_abrupt_-0.7065000000000055
2022-12-21 12:58:50.200,305.327,0.1040000000000076,100.0,1159.0,24093.0,4901.0,98.0,1154.6,201.2,4892.0,-142.64166,0.095866168,0.03598958,-0.0365505899999999,-1.289157,66.33,0.042993355,-0.02985755,-1.2902985,0.4266378599999999,1.2772416,9.6257426,-12.6,-7.6,42.4,19.8,-40.6,242.8,-1098.2,-13.4,329.2,1008.4525,-2.6591874,3496.8,0.042993355,-0.03032162,-0.02985755,-0.02525349,-1.2902985,0.0285826049999999,66330.0,28606.0,22470.0,7.0,73.0,-42.0,1,29_press_abs_avg_abrupt_-0.7065000000000055
2022-12-21 12:58:50.750,305.85900000000004,0.1079999999999926,100.0,1205.0,24115.0,4896.0,98.0,1152.0,202.6,4891.2,-151.91692,0.1092043,0.0138374773333333,-0.02534034,-1.287696333333333,66.31333333333333,0.0211586066666666,-0.018860494,-1.2906513333333334,0.44645266,1.07974688,9.0503266,-4.2,51.0,58.8,15.6,-17.6,253.6,-1036.0,11.0,326.0,1008.4439,-2.6677498,3497.6,0.0211586066666666,-0.0389885766666666,-0.018860494,0.0457484166666666,-1.2906513333333334,0.0025512766666666,66320.0,28611.0,22460.0,-6.0,75.0,-39.0,1,29_press_abs_avg_abrupt_-0.7065000000000055
2022-12-21 12:58:51.300,306.43833333333333,0.103333333333334,100.0,1182.0,24110.0,4893.0,98.0,1161.1666666666667,204.66666666666663,4887.0,-158.88826666666668,0.12485485,0.0048613729999999,-0.0058433903333333,-1.2906453333333334,66.30333333333334,0.0113044963333333,-0.000546626,-1.295144,0.4383518333333333,1.1461141833333337,7.624521166666668,3.6666666666666665,0.1666666666666666,50.91666666666666,-9.333333333333334,7.0,249.91666666666663,-1070.3333333333333,-3.583333333333333,318.75,1008.44775,-2.663841,3498.6666666666665,0.0113044963333333,0.0200592596666666,-0.000546626,0.0020071233333333,-1.295144,0.0044788853333333,66305.0,28580.0,22445.0,-3.5,68.0,-36.5,1,29_press_abs_avg_abrupt_-0.7065000000000055
2022-12-21 12:58:51.850,307.0308,0.108000000000004,100.0,1140.0,24121.0,4895.0,98.0,1148.8,206.6,4889.4,-163.68478,0.1398556,0.0067900623333333,-0.0225431333333333,-1.288416,66.3,0.01247124,-0.01592512,-1.2933143333333332,0.38479014,1.3283604,8.693588199999999,-10.0,-7.4,52.0,15.4,8.2,244.8,-1089.4,12.6,328.0,1008.4393,-2.6724842,3499.6,0.01247124,-0.0037675433333333,-0.01592512,0.0007895816666666,-1.2933143333333332,0.00658758,66300.0,28603.0,22440.0,-3.0,60.0,-38.0,1,29_press_abs_avg_abrupt_-0.7065000000000055
2022-12-21 12:58:52.400,307.5588,0.1039999999999963,100.0,1208.0,24080.0,4888.0,98.0,1207.0,208.4,4892.6,-167.24374,0.15421198,0.004895103,-0.021119,-1.277419,66.305,0.0098246825,-0.014585,-1.2831665,0.3693876,0.98634888,8.315061799999999,-3.2,37.2,54.2,-4.2,4.4,244.6,-1056.4,36.6,326.6,1008.4211,-2.6904531999999994,3500.8,0.0098246825,0.011313265,-0.014585,0.038471835,-1.2831665,0.00151908365,66310.0,28677.0,22450.0,-3.0,54.0,-39.0,1,29_press_abs_avg_abrupt_-0.7065000000000055
2022-12-21 12:58:52.950,308.09900000000005,0.1120000000000004,100.0,1229.0,24072.5,4902.0,98.0,1236.8,210.2,4886.8,-170.45208,0.17112826,-0.0013918986666666,-0.0069261203333333,-1.269591,66.32333333333332,0.004120585,-0.0009355644666666,-1.2760073333333333,0.46470094,1.01529432,7.357866,2.4,14.4,57.4,-25.5,-4.5,254.0,-1023.2,-9.5,314.4,1008.4366,-2.6751405,3501.6,0.004120585,0.007932701,-0.0009355644666666,0.0031686683333333,-1.2760073333333333,-0.0152287999999999,66330.0,28691.0,22470.0,3.0,48.0,-36.0,1,29_press_abs_avg_abrupt_-0.7065000000000055
2022-12-21 12:58:53.500,308.619,0.1039999999999963,100.0,1201.0,24055.0,4895.0,98.0,1213.6,212.0,4889.6,-172.52132,0.1843558599999999,0.0090032525,-0.0207772349999999,-1.2711295,66.33,0.01457096,-0.0138355819999999,-1.278117,0.5135306,1.11163428,9.8551774,0.8,-25.2,60.2,-22.2,32.0,254.6,-1065.8,-13.6,316.8,1008.4373,-2.6745622,3502.6,0.01457096,0.040516839,-0.0138355819999999,-0.0203137249999999,-1.278117,-0.013349219,66330.0,28673.0,22470.0,3.0,47.0,-36.0,1,29_press_abs_avg_abrupt_-0.7065000000000055
2022-12-21 12:58:54.050,309.159,0.108000000000004,100.0,1172.0,24076.0,4901.0,98.0,1190.6,213.6,4899.2,-174.4009,0.1991464399999999,-0.0118657123333333,-0.0215927566666666,-1.2838196666666666,66.32,-0.0063734663333333,-0.014157345,-1.2913593333333333,0.39487538,0.8274614,6.9286526,-10.0,23.2,56.8,-11.0,-54.0,261.2,-1042.6,-35.0,343.2,1008.4481,-2.6637188000000003,3503.6,-0.0063734663333333,-0.0584521899999999,-0.014157345,0.0210404566666666,-1.2913593333333333,-0.023160416,66320.0,28542.0,22460.0,-1.0,40.0,-36.0,1,29_press_abs_avg_abrupt_-0.7065000000000055
2022-12-21 12:58:54.600,309.735,0.1066666666666643,100.0,1149.0,24085.0,4903.0,98.0,1169.5,215.66666666666663,4897.333333333333,-175.96743333333333,0.2148838,-0.03123093,-0.0088693306666666,-1.309515,66.31333333333333,-0.02485273,-0.0015524199999999,-1.3180953333333334,0.4695531166666667,1.0231530666666668,6.071804666666668,-8.583333333333334,24.75,56.66666666666666,-7.916666666666667,1.3333333333333333,245.66666666666663,-1044.8333333333333,-27.0,315.0833333333333,1009.1464166666668,-2.6720116666666667,3504.5,-0.02485273,0.018406508,-0.0015524199999999,0.0310357533333333,-1.3180953333333334,-0.0249427766666666,66320.0,28426.0,22460.0,1.0,24.0,-37.0,0,None
2022-12-21 12:58:55.150,310.327,0.1040000000000076,100.0,1215.0,24069.0,4903.0,98.0,1194.6,217.6,4897.8,-177.1273,0.2290293,-0.025774525,1.8676000000000022e-05,-1.305533,66.31,-0.01924603,0.0081890805,-1.3148705,0.4193452599999999,1.2253062,5.524406,-12.0,15.4,57.4,-17.0,25.8,246.2,-1058.8,15.0,310.2,1009.1432,-2.6750622,3505.8,-0.01924603,0.01689183725,0.0081890805,0.0029150979999999,-1.3148705,0.008411711,66310.0,28481.0,22450.0,10.0,9.0,-38.0,0,None
2022-12-21 12:58:55.700,310.851,0.1079999999999927,100.0,1143.0,24084.0,4896.0,98.0,1168.6,219.4,4893.0,-177.80832,0.24090138,-0.0071630073333333,-0.0068373626666666,-1.2907453333333334,66.30666666666667,-0.0008807786999999,0.0023066673333333,-1.3006650000000002,0.38092152,1.1286552,9.2927206,-16.0,-23.6,55.0,19.2,52.8,244.0,-1067.0,55.0,300.0,1009.1442,-2.6741094,3506.4,-0.0012031246999999,0.05781648,0.0025112273333333,-0.0260283233333333,-1.3008796666666669,0.0508306633333333,66300.0,28562.0,22440.0,17.0,2.0,-37.0,0,None
2022-12-21 12:58:56.250,311.38700000000006,0.1040000000000076,100.0,1224.0,24083.0,4877.0,98.0,1274.8,221.2,4898.8,-178.11612,0.2523469,0.00300524275,-0.01428797,-1.2748315,66.305,0.0098436075,-0.0065246179999999,-1.2852355,0.487477,0.8048664799999999,8.2683844,-18.6,13.0,53.7,16.0,-2.0,239.1,-1040.7,12.0,308.2,1009.1387,-2.6794375,3507.4,0.0098436075,0.001273425,-0.0065246179999999,0.022281485,-1.2852355,0.0014489849999999,66310.0,28643.0,22450.0,18.0,3.0,-41.0,0,None
2022-12-21 12:58:56.800,311.915,0.1079999999999927,100.0,1312.0,24027.0,4896.0,98.0,1289.6,223.0,4892.6,-178.24705999999998,0.26215234,0.0003738212666666,-0.0046133936666666,-1.2713856666666663,66.3,0.0071967923333333,0.0042478936666666,-1.2828783333333331,0.36859472,1.16590822,7.108507400000001,-18.4,13.4,64.6,7.4,21.8,226.8,-1063.0,17.8,299.6,1009.1414,-2.6767342,3508.4,0.0071967923333333,-0.0039821399999999,0.0042478936666666,0.0354501236666666,-1.2828783333333331,-0.0175200086666666,66300.0,28659.0,22440.0,22.0,4.0,-38.0,0,None
2022-12-21 12:58:57.350,312.5048333333333,0.103333333333334,100.0,1243.0,24009.0,4908.0,98.0,1243.6666666666667,225.0,4900.833333333333,-178.33118333333334,0.2716301166666666,0.0026762887999999,-0.0115699013333333,-1.275328,66.31,0.0091865283333333,-0.0025614756666666,-1.2880533333333333,0.4454803166666667,1.1312641666666667,6.827240666666666,-5.0,-14.333333333333334,56.333333333333336,-14.333333333333334,8.166666666666666,252.5,-1017.1666666666666,-16.833333333333332,319.3333333333333,1009.1434999999998,-2.674739666666667,3509.5,0.0091865283333333,-0.0024069536666666,-0.0025614756666666,-0.0124992696666666,-1.2880533333333333,-0.0043818503333333,66310.0,28612.0,22450.0,27.0,5.0,-36.0,0,None
2022-12-21 12:58:57.900,313.091,0.1120000000000004,100.0,1297.0,24037.0,4906.0,98.0,1274.4,227.2,4901.8,-178.35870000000003,0.2823627199999999,0.0082661853333333,-0.0226834433333333,-1.272835333333333,66.29666666666667,0.0158207099999999,-0.0128268336666666,-1.284204,0.4661883199999999,0.99303896,8.2542234,-11.6,4.7,47.1,13.2,21.1,240.3,-1088.0,12.5,317.8,1009.1444,-2.6739296,3510.4,0.0158207099999999,0.04585619,-0.0128268336666666,0.0264313586666666,-1.284204,0.0140922999999999,66300.0,28641.0,22440.0,25.0,3.0,-34.0,0,None
2022-12-21 12:58:58.450,313.6188,0.1039999999999963,100.0,1235.0,24054.0,4901.0,98.0,1282.8,229.0,4888.6,-178.3937,0.29013124,0.0195730299999999,-0.012196235,-1.2730985,66.29,0.02674633,-0.0021585675,-1.284053,0.3777747,0.97488614,7.3059888,4.0,16.2,44.0,1.0,9.8,239.8,-999.2,-4.2,299.8,1009.129,-2.6890156000000003,3511.4,0.02674633,0.0200451759999999,-0.0021585675,0.0050201949999999,-1.284053,-0.0044937165,66290.0,28644.0,22430.0,22.0,3.0,-35.0,0,None
2022-12-21 12:58:59.000,314.1508,0.108000000000004,100.0,1318.0,24047.0,4908.0,98.0,1274.6,230.8,4900.4,-178.51907999999997,0.29877122,0.0232201233333333,-0.0136596699999999,-1.281228,66.3,0.0309311766666666,-0.0041240926666666,-1.2923790000000002,0.3967212599999999,1.2594168,8.4446046,-7.2,0.0,47.4,8.6,34.4,247.8,-1008.8,-13.6,331.0,1009.128,-2.6900312,3512.4,0.0309311766666666,0.0193895216666666,-0.0041240926666666,-0.0049138466666666,-1.2923790000000002,-0.0268272233333333,66300.0,28609.0,22440.0,24.0,8.0,-36.0,0,None
2022-12-21 12:58:59.550,314.679,0.1039999999999963,100.0,1293.0,24034.0,4900.0,98.0,1298.6,232.6,4900.4,-178.89316000000002,0.3088147,0.02677495,-0.023732395,-1.286395,66.305,0.03522811,-0.014447405,-1.296969,0.36848054,0.9384468,7.2674858,-11.0,-8.9,41.2,7.1,5.8,241.0,-1056.7,-1.3,314.1,1009.1301,-2.6880235,3513.0,0.03522811,0.010103992,-0.014447405,-0.0120960205,-1.296969,0.004393205,66300.0,28566.0,22440.0,22.0,20.0,-35.0,0,None
2022-12-21 12:59:00.100,315.2148,0.1078000000000087,100.0,1271.0,24044.0,4909.0,98.0,1289.2,234.6,4899.4,-179.38936,0.31718718,0.0185364566666666,-0.02200615,-1.2806656666666667,66.31666666666666,0.0273257766666666,-0.0125207893333333,-1.2915393333333334,0.39950912,0.78778796,6.153383600000001,-23.2,9.8,50.6,18.4,-2.2,242.6,-1036.6,17.4,326.6,1009.1292,-2.6891404000000003,3514.4,0.0273257766666666,-0.0036845753333333,-0.0125207893333333,0.01622307,-1.2915393333333334,0.0321219233333333,66320.0,28584.0,22460.0,14.0,30.0,-37.0,0,None
2022-12-21 12:59:00.650,315.7948333333334,0.1033333333333245,100.0,1349.0,24010.0,4903.0,98.0,1316.5,236.8333333333333,4896.666666666667,59.98226666666668,0.3275088666666667,0.0061359987,-0.0225522966666666,-1.2749083333333333,66.32666666666665,0.015065871,-0.0133806633333333,-1.2857246666666666,0.43506375,0.94207425,8.648800333333332,-28.166666666666668,6.166666666666667,51.5,20.666666666666668,-21.83333333333333,239.66666666666663,-1060.6666666666667,19.0,329.6666666666667,1009.1146666666668,-2.703593833333333,3515.1666666666665,0.015065871,-0.0300249239999999,-0.0133806633333333,0.003620718,-1.2857246666666666,0.0070559666666666,66320.0,28623.0,22460.0,10.0,41.0,-36.0,0,None
2022-12-21 12:59:01.200,316.3868,0.1120000000000004,99.0,1170.0,24045.0,4903.0,98.0,1234.4,238.8,4896.6,179.3862,0.3397501,-0.012885125,-0.017192845,-1.2750915,66.35,-0.003872557,-0.008056175,-1.2858175,0.43322572,0.9845394200000002,9.0320346,-31.9,17.6,64.3,26.9,-13.9,247.3,-1038.5,14.9,310.4,1009.1097,-2.7085155,3516.5,-0.003872557,0.01851652,-0.008056175,0.05176823,-1.2858175,0.01005605,66350.0,28636.0,22490.0,10.5,49.0,-36.5,0,None
2022-12-21 12:59:01.750,316.911,0.1002000000000065,99.0,1091.0,24081.0,4904.0,98.0,1124.2,240.6,4892.4,179.07548,0.34964254,-0.0233948333333333,-0.0149448433333333,-1.279607333333333,66.38,-0.0139919193333333,-0.0058749743333333,-1.2900453333333333,0.5012620400000001,1.0771312199999998,11.99233,-23.8,-9.2,64.2,5.0,-19.8,250.4,-1090.8,-30.8,323.8,1009.0784,-2.7397032,3517.0,-0.0139919193333333,-0.0213677346666666,-0.0058749743333333,0.0028231276666666,-1.2900453333333333,-0.0265710466666666,66400.0,28568.0,22540.0,20.0,46.0,-39.0,0,None
2022-12-21 12:59:02.300,317.447,0.1079999999999927,99.0,1075.0,24068.0,4903.0,98.0,1101.4,242.4,4892.2,178.93392,0.35833094,-0.03725634,-0.0315624033333333,-1.296919,66.40666666666667,-0.0273309199999999,-0.0225841499999999,-1.3070733333333335,0.6120510400000001,1.2392952000000002,12.776402,-27.4,-32.0,61.8,5.0,-4.6,240.8,-1015.6,-14.6,312.6,1009.0824,-2.7358752,3518.0,-0.02699384,-0.00018206,-0.02223867,-0.0182034836666666,-1.306474,-0.024316127,66410.0,28495.0,22550.0,27.0,36.0,-49.0,0,None
2022-12-21 12:59:02.850,317.9748,0.1040000000000076,99.0,1203.0,24062.0,4896.0,98.0,1192.2,244.0,4893.0,178.97994,0.3688558599999999,-0.030189,-0.0475902599999999,-1.3000995,66.41,-0.021270815,-0.0376597149999999,-1.3100524999999998,0.58776902,1.2367624,11.0702014,-25.2,-12.8,66.4,24.2,18.2,238.8,-1069.8,21.8,324.6,1009.0644,-2.754,3518.8,-0.021270815,0.042054875,-0.0376597149999999,-0.009693131,-1.3100524999999998,0.010766647,66410.0,28504.0,22550.0,22.0,26.0,-44.0,0,None
2022-12-21 12:59:03.400,318.515,0.1079999999999926,99.0,1127.0,24068.0,4895.0,98.0,1155.6,245.6,4895.2,179.26698000000002,0.37844688,-0.0312350933333333,-0.0526702033333333,-1.2951436666666665,66.41333333333333,-0.0222961166666666,-0.04401045,-1.304861,0.5621576000000001,1.1981404000000002,12.06349,-39.4,11.8,62.1,33.3,6.8,236.8,-1089.3,26.5,326.9,1009.1013,-2.7169609,3519.9,-0.0221184066666666,0.0104984119999999,-0.0438095633333333,0.0108728426666666,-1.3052226666666666,0.0151177942736666,66410.0,28531.0,22550.0,15.0,17.0,-51.0,0,None
2022-12-21 12:59:03.950,319.035,0.1040000000000077,99.0,1205.0,24064.0,4906.0,98.0,1164.8,247.4,4894.4,179.6701,0.38831828,-0.02628428,-0.04676718,-1.2952865,66.4,-0.018016505,-0.0367489149999999,-1.304862,0.5963583,1.199549,12.13215,-44.8,0.8,60.6,36.2,27.0,235.4,-1024.8,-12.4,336.8,1009.1004,-2.7177966,3520.8,-0.018016505,0.00470884,-0.0367489149999999,0.0055156349999999,-1.304862,-0.0481573349999999,66400.0,28496.0,22540.0,9.0,12.0,-42.0,0,None
2022-12-21 12:59:04.500,319.6248333333333,0.1066666666666643,99.0,1194.0,24047.5,4904.0,98.0,1134.8333333333333,249.16666666666663,4900.666666666667,-179.46778333333336,0.40345075,-0.0227298266666666,-0.0441607233333333,-1.3040133333333332,66.39333333333333,-0.0141697766666666,-0.0358087866666666,-1.313408,0.6331908,1.1572570000000002,11.939595,-38.333333333333336,31.5,54.16666666666666,24.166666666666668,-3.333333333333333,235.16666666666663,-1030.8333333333333,1.3333333333333333,335.5,1009.0993333333332,-2.7190366666666663,3522.0,-0.0141697766666666,0.0082220833333333,-0.0358087866666666,0.0418698706666666,-1.313408,0.0017160416666666,66390.0,28472.0,22530.0,1.0,13.0,-49.0,0,None
2022-12-21 12:59:05.050,320.179,0.1039999999999963,99.0,1150.0,24087.0,4877.0,98.0,1200.6,251.0,4897.2,-178.68395999999998,0.41478514,-0.0337853366666666,-0.0239704366666666,-1.301850333333333,66.37333333333333,-0.0250836566666666,-0.0152770233333333,-1.3109616666666666,0.5551331,1.2188466,11.3731126,-40.7,26.7,61.4,20.9,-1.7,244.7,-1050.0,-12.0,328.9,1009.0755,-2.7429375,3522.4,-0.0250836566666666,0.0121248986666666,-0.0152770233333333,0.0218972133333333,-1.3109616666666666,0.007992319,66370.0,28493.0,22510.0,1.0,8.0,-39.0,0,None
2022-12-21 12:59:05.600,320.75500000000005,0.103333333333334,99.0,1147.0,24100.0,4908.0,98.0,1147.6666666666667,253.16666666666663,4893.666666666667,-177.4071,0.4307109666666666,-0.0245083466666666,-0.0145217036666666,-1.296827333333333,66.39,-0.01591879,-0.0066042006666666,-1.3058203333333331,0.5735079833333333,1.1654095000000002,12.07099,-31.33333333333333,27.5,61.833333333333336,16.833333333333332,32.833333333333336,250.16666666666663,-1025.1666666666667,22.5,323.6666666666667,1009.1016666666668,-2.716666666666667,3523.6666666666665,-0.01591879,0.0316901,-0.0066042006666666,0.0308055936666666,-1.3058203333333331,0.017700576,66390.0,28520.0,22530.0,6.0,8.0,-46.0,0,None
2022-12-21 12:59:06.150,321.335,0.108000000000004,99.0,1161.0,24051.0,4906.0,98.0,1095.4,254.6,4897.2,-176.21434,0.4436631199999999,-0.0078230385,-0.0139991749999999,-1.2959095,66.39500000000001,0.0003088609999999,-0.0060459204999999,-1.3041495,0.66507922,1.266105,13.431797999999995,-60.4,2.6,51.8,21.2,26.2,249.2,-1040.4,-8.0,331.8,1009.106,-2.7122186,3524.6,0.0003088609999999,0.0327190927,-0.0060459204999999,-0.033381355,-1.3041495,0.017423,66390.0,28526.0,22530.0,12.0,12.0,-39.0,0,None
2022-12-21 12:59:06.700,321.867,0.1039999999999963,99.0,1089.0,24063.0,4891.0,98.0,1076.4,256.4,4892.2,-175.21822000000003,0.4535907999999999,-0.01705693,-0.02139327,-1.3019916666666669,66.37666666666667,-0.0084490949999999,-0.0131704166666666,-1.3095823333333332,0.78250056,1.2648566,12.967208,-59.4,-2.2,51.8,31.2,-24.6,256.2,-1037.8,-16.2,333.8,1009.127,-2.6913124,3525.4,-0.0084490949999999,-0.03831665,-0.0131704166666666,-0.0249660446666666,-1.3095823333333332,-0.0225598766666666,66380.0,28492.0,22520.0,17.0,21.0,-39.0,0,None
2022-12-21 12:59:07.250,322.38300000000004,0.1040000000000076,99.0,1094.0,24078.0,4908.0,98.0,1109.2,257.8,4905.0,-174.08769999999998,0.46420282,-0.0291012166666666,-0.0276662333333333,-1.302096666666667,66.35,-0.0199258166666666,-0.0199312333333333,-1.3083376666666666,0.74453522,1.325757,11.7848142,-25.4,-10.2,57.6,48.2,-6.5,249.6,-1040.2,11.1,333.0,1009.1328,-2.6854609,3526.3,-0.0199258166666666,-0.0080941706666666,-0.0199312333333333,-0.01982626,-1.3083376666666666,0.0069378373333333,66350.0,28502.0,22490.0,19.0,20.0,-41.0,0,None
