00000_Time_epoch,00000_Time_boot_sec,00000_Span_Time_boot_sec,1_battery_remaining_avg,1_current_battery_avg,1_voltage_battery_avg,125_Vcc_avg,147_battery_remaining_avg,147_current_battery_avg,147_current_consumed_avg,165_Vcc_avg,168_direction_avg,168_speed_avg,178_pitch_avg,178_roll_avg,178_yaw_avg,182_altitude_avg,182_pitch_avg,182_roll_avg,182_yaw_avg,241_vibration_x_avg,241_vibration_y_avg,241_vibration_z_avg,27_xacc_avg,27_xgyro_avg,27_xmag_avg,27_yacc_avg,27_ygyro_avg,27_ymag_avg,27_zacc_avg,27_zgyro_avg,27_zmag_avg,29_press_abs_avg,29_press_diff_avg,29_temperature_avg,30_pitch_avg,30_pitchspeed_avg,30_roll_avg,30_rollspeed_avg,30_yaw_avg,30_yawspeed_avg,33_alt_avg,33_hdg_avg,33_relative_alt_avg,33_vx_avg,33_vy_avg,33_vz_avg,label,diagnosis
2023-01-01 12:34:32.700,293.207,0.108000000000004,100.0,56.0,24907.0,4890.0,99.0,57.2,57.0,4871.8,-162.37364000000002,0.3189813199999999,0.001747233,-0.0237025166666666,-1.1128893333333334,37.52666666666666,0.0068037163333333,-0.0237951366666666,-1.1450626666666668,0.024178144,0.025319846,0.038753914,-10.0,0.2,102.0,8.6,4.8,240.6,-1058.4,-1.2,336.8,1020.2072,-0.22271876,3230.0,0.0068037163333333,0.0052330943333333,-0.0237951366666666,0.0001322916999999,-1.1450626666666668,-0.0020043606666666,37500.0,29440.0,80.0,-2.0,4.0,24.0,0,None
2023-01-01 12:34:33.250,293.723,0.0999999999999999,100.0,53.0,24926.0,4869.0,99.0,58.2,57.0,4879.0,-161.86176,0.2980495399999999,0.0016422955,-0.02323604,-1.1131785,37.58,0.0069733895,-0.0237836599999999,-1.1450875,0.024514898,0.026168132,0.037314752,-9.0,0.2,102.8,8.4,5.0,240.8,-1058.2,-1.4,337.4,1020.2004,-0.22954688,3230.8,0.0069733895,0.005571303,-0.0237836599999999,0.00010101629,-1.1450875,-0.002332534,37570.0,29440.0,150.0,-2.0,5.0,25.0,0,None
2023-01-01 12:34:33.800,294.30299999999994,0.1066666666666643,100.0,100.0,24900.0,4883.0,99.0,86.16666666666667,57.333333333333336,4877.333333333333,-161.16403333333335,0.3178422,0.00208741,-0.02394545,-1.11354175,37.64,0.0073679509999999,-0.02395319,-1.145144,0.0737101783333333,0.1146476249999999,0.3955166383333333,-7.0,0.25,101.75,13.333333333333334,5.916666666666667,241.0833333333333,-1060.25,-5.0,333.6666666666667,1020.21525,-0.214700525,3231.833333333333,0.00748180625,0.008567841,-0.0239126125,0.00115361075,-1.1450105,-0.00819497075,37635.0,29439.5,215.0,-2.5,5.5,25.0,0,None
2023-01-01 12:34:34.350,294.875,0.1040000000000076,100.0,105.0,24897.0,4885.0,99.0,119.4,58.0,4878.8,-160.64086000000003,0.35283952,0.0021363725,-0.02401852,-1.1147155,37.695,0.007644829,-0.02403624,-1.1450235,0.15608986,0.27308174,1.34560264,-17.0,-2.0,98.4,5.2,5.8,245.2,-1059.0,4.0,338.8,1020.2342,-0.1957031199999999,3232.8,0.007644829,0.007869082,-0.02403624,0.0011073495,-1.1450235,0.00098664,37700.0,29441.0,280.0,-4.0,6.0,25.0,0,None
2023-01-01 12:34:34.900,295.39500000000004,0.1039999999999963,100.0,96.0,24974.0,4888.0,99.0,97.0,58.0,4875.8,-160.33502,0.39051188,0.0020192966666666,-0.0230562533333333,-1.115964,37.71333333333333,0.0077697206666666,-0.0239144033333333,-1.145426,0.1608549199999999,0.21702424,1.2055821,-8.8,1.6,96.8,8.6,5.2,241.2,-1069.0,-3.8,334.8,1020.2488,-0.18128122,3234.0,0.0077772336666666,0.0058053616666666,-0.0239177966666666,0.0023685886333333,-1.145419,-0.0069768466666666,37720.0,29439.0,300.0,-3.0,6.0,26.0,0,None
2023-01-01 12:34:35.450,295.963,0.103333333333334,100.0,95.0,24920.0,4882.0,99.0,99.5,58.0,4874.5,-160.04733333333334,0.4377316333333333,0.0018177983333333,-0.0236283333333333,-1.1173433333333331,37.73666666666667,0.0079263886666666,-0.0237086,-1.1456663333333332,0.1401542833333333,0.2627915666666666,1.6008671666666665,-10.0,0.1666666666666666,97.66666666666669,12.5,8.166666666666666,243.8333333333333,-1058.0,-4.333333333333333,335.8333333333333,1020.2475,-0.1825260333333333,3234.6666666666665,0.0079263886666666,0.0018111986666666,-0.0237086,0.0043122086666666,-1.1456663333333332,-0.0132038903333333,37740.0,29438.0,320.0,-3.0,7.0,25.0,0,None
2023-01-01 12:34:36.000,296.539,0.1039999999999963,100.0,91.0,24903.0,4883.0,99.0,101.0,58.0,4883.0,-159.8352,0.49415224,0.0023091655,-0.0242048,-1.1183325000000002,37.74,0.0078719055,-0.023668255,-1.1456555,0.17285538,0.34392498,2.1980194,-10.2,2.0,98.0,6.0,2.6,243.6,-1073.4,-1.8,336.8,1020.245,-0.18490624,3235.8,0.0078719055,0.0016722655,-0.023668255,0.0044614555,-1.1456555,0.0021150049999999,37750.0,29437.0,330.0,-3.0,8.0,25.0,0,None
2023-01-01 12:34:36.550,297.071,0.108000000000004,100.0,103.0,24916.0,4880.0,99.0,98.4,58.0,4870.4,-159.68918000000002,0.5399211,0.0022205813333333,-0.02360049,-1.119463,37.73,0.008089784,-0.0237489666666666,-1.1459886666666663,0.14360846,0.2503813,1.2927392,-3.1,1.0,97.1,13.5,1.9,243.8,-1067.4,-3.4,335.1,1020.2384,-0.19158593,3236.8,0.008089784,0.007104961,-0.0237489666666666,-0.0008839693333333,-1.1459886666666663,-0.0005240183333333,37730.0,29434.0,310.0,-3.0,8.0,25.0,0,None
2023-01-01 12:34:37.100,297.633,0.0999999999999942,100.0,96.0,24903.0,4883.0,99.0,96.0,58.5,4875.166666666667,-159.58806666666666,0.5872529833333334,0.0024247616666666,-0.0235601099999999,-1.1207486666666666,37.73,0.0083172493333333,-0.0236925833333333,-1.1460953333333332,0.1599397,0.2868762166666667,1.7046643333333331,-11.666666666666666,-0.3333333333333333,97.83333333333331,8.5,5.666666666666667,243.3333333333333,-1063.6666666666667,3.8333333333333335,336.6666666666667,1020.2423333333332,-0.1876041833333333,3237.833333333333,0.0083172493333333,0.0070768043333333,-0.0236925833333333,-0.0003092097,-1.1460953333333332,0.0009213834333333,37730.0,29434.0,310.0,-3.0,9.0,24.0,0,None
2023-01-01 12:34:37.650,298.187,0.0999999999999999,100.0,93.0,24903.0,4885.0,99.0,94.0,59.0,4876.6,-159.53701999999998,0.6341431200000001,0.0017090943333333,-0.0237055033333333,-1.121975333333333,37.74333333333333,0.0082273383333333,-0.02358602,-1.1465276666666666,0.19239432,0.35333148,2.1306256,-10.2,1.8,97.6,7.8,3.2,243.2,-1052.2,0.2,336.8,1020.2284,-0.2016562599999999,3239.2,0.0082273383333333,0.0041778259666666,-0.02358602,-0.0004603016666666,-1.1465276666666666,-0.0060305806666666,37740.0,29430.0,320.0,-2.0,11.0,25.0,0,None
2023-01-01 12:34:38.200,298.687,0.0999999999999999,100.0,97.0,24907.0,4888.0,99.0,93.8,59.0,4874.0,-159.5137,0.6782540599999999,0.002048029,-0.023849605,-1.122757,37.755,0.0082253439999999,-0.023585485,-1.146627,0.2076040599999999,0.2677923599999999,1.530338,-7.2,-1.0,98.0,8.8,9.4,244.4,-1042.0,-1.2,334.2,1020.2328,-0.19714062,3240.0,0.0082253439999999,0.0016401109999999,-0.023585485,0.0019407139999999,-1.146627,0.005862015,37750.0,29430.0,330.0,-2.0,11.0,24.0,0,None
2023-01-01 12:34:38.750,299.25966666666665,0.1066666666666738,100.0,1640.0,24341.0,4888.0,99.0,891.3333333333334,59.333333333333336,4868.833333333333,-159.51475000000002,0.7231600666666665,0.004290993,-0.02417379,-1.124202666666667,37.75666666666667,0.0102115233333333,-0.0233888433333333,-1.1474833333333334,0.3729968999999999,0.7255822166666667,3.677282500000001,-13.833333333333334,33.666666666666664,93.33333333333331,-2.6666666666666665,44.0,252.66666666666663,-1166.0,-9.0,307.3333333333333,1020.324,-0.1059374966666666,3241.1666666666665,0.0102115233333333,0.0384950957333333,-0.0233888433333333,0.0254582356666666,-1.1474833333333334,-0.0183570333333333,37765.0,29428.0,345.0,-5.0,12.0,42.5,0,None
2023-01-01 12:34:39.300,299.83520000000004,0.1081999999999993,100.0,1751.0,24300.0,4891.0,99.0,1592.0,61.8,4881.8,-159.5945,0.77033202,0.0132452856666666,0.0029769156666666,-1.1169779999999998,38.03666666666667,0.0195983993333333,0.003496198,-1.138301,0.41758088,1.05302816,4.3924358,-16.7,34.0,74.4,-5.9,-30.1,228.2,-1285.0,10.6,285.3,1020.4714,0.041515623,3242.1,0.0195983993333333,-0.0178628194,0.003496198,0.0124235499999999,-1.138301,0.0378899033333333,38270.0,29496.0,850.0,-8.0,21.0,172.0,0,None
2023-01-01 12:34:39.850,300.3752,0.103800000000001,100.0,2009.0,24181.0,4891.0,99.0,1759.8,64.2,4879.8,-159.99446,0.81397966,-0.000668908,0.0081229227499999,-1.106134,38.825,0.0051141875,0.00641963,-1.126205,0.4084083799999999,1.4462632,4.2811316,-8.2,-86.8,90.2,-15.0,-23.0,231.8,-1236.6,24.8,291.6,1020.099,-0.33078124,3243.0,0.0051141875,0.0309091725,0.00641963,-0.03640408,-1.126205,0.023385955,39270.0,29573.0,1850.0,2.0,24.0,277.0,0,None
2023-01-01 12:34:40.400,300.8992,0.1079999999999926,100.0,1662.0,24276.0,4885.0,99.0,1724.8,67.0,4881.0,-160.50874,0.8459498599999999,-0.0219716866666666,-0.0339080933333333,-1.1072873333333333,40.126666666666665,-0.014894727,-0.0336525166666666,-1.124199,0.33330244,1.1711146,2.1085434000000003,-11.8,-15.8,81.4,-8.6,-11.8,236.8,-1146.6,-10.4,292.8,1019.9158,-0.51421874,3244.0,-0.014894727,-0.0056031766666666,-0.0336525166666666,-0.0347829366666666,-1.124199,-0.0061884403333333,40730.0,29552.0,3310.0,-5.0,5.0,332.0,0,None
2023-01-01 12:34:40.950,301.4352,0.1042000000000029,100.0,1676.0,24252.0,4885.0,99.0,1617.0,69.2,4875.8,-160.77983999999998,0.8763923200000001,-0.014334063,-0.02219004,-1.1093134999999998,41.69,-0.006823308,-0.020069055,-1.1990555,0.3555244,1.3812909,2.843094,-10.6,-2.2,93.8,-13.8,-1.4,238.8,-1054.8,23.2,315.0,1019.7434,-0.68645308,3245.0,-0.006823308,0.08206591,-0.020069055,0.087452752,-1.1990555,0.0120870049999999,42330.0,29162.0,4910.0,-14.0,-11.0,329.0,0,None
2023-01-01 12:34:41.500,302.014,0.1068333333333365,100.0,1514.0,24297.0,4885.0,99.0,1810.8333333333333,72.33333333333333,4875.333333333333,-160.727,0.9113221666666668,0.016339405,-0.0070443939999999,-1.08874,43.585,0.021776665,-0.00619805575,-1.1751435,0.4847052166666667,1.30107445,3.7926858333333335,-5.416666666666667,57.91666666666666,80.66666666666667,-27.0,59.083333333333336,224.0,-1027.5,36.833333333333336,288.9166666666667,1019.4265833333332,-1.0033463083333332,3246.333333333333,0.021776665,-0.0833931424999999,-0.00619805575,0.166552205,-1.1751435,0.0379243725,43890.0,29300.0,6470.0,-32.0,-14.0,301.0,0,None
2023-01-01 12:34:42.050,302.6084,0.1039999999999963,100.0,925.0,24478.0,4875.0,99.0,992.2,74.6,4862.2,-160.78352,0.93038106,-0.0274297055,-0.058210015,-1.0970205000000002,45.295,-0.0216995015,-0.05560469,-1.180307,0.4199106599999999,1.19761158,4.196948399999999,-9.0,-239.6,103.8,-34.4,-114.8,239.2,-865.2,-71.4,312.2,1019.292,-1.1378594,3247.2,-0.0216995015,-0.02517358,-0.05560469,-0.2439667999999999,-1.180307,-0.0834347,45310.0,29244.0,7890.0,-50.0,-16.0,230.0,0,None
2023-01-01 12:34:42.600,303.12080000000003,0.1039999999999963,100.0,1055.0,24436.0,4871.0,99.0,1140.8,76.0,4877.6,-161.12086,0.92846244,-0.0246152816666666,-0.1574395666666666,-1.222965,46.13666666666666,-0.0172431712,-0.1557298,-1.3041746666666667,0.5814630399999999,0.9708093000000002,3.4834414,8.4,-98.4,95.6,-29.4,137.4,197.4,-988.4,-358.4,339.2,1019.2254,-1.2046094,3248.0,-0.0172431712,0.10221608,-0.1557298,-0.1092944866666666,-1.3041746666666667,-0.3405544,46150.0,28526.0,8730.0,-97.0,-61.0,168.0,0,None
2023-01-01 12:34:43.150,303.675,0.1000000000000037,100.0,1283.0,24347.5,4879.5,99.0,1268.8333333333333,77.83333333333333,4879.166666666667,-161.66891666666666,0.9181686333333332,0.0262906383333333,-0.1419762666666666,-1.4398796666666664,46.81666666666666,0.0327044366666666,-0.1408981333333333,-1.5189143333333333,0.4885409833333333,1.05973435,5.890947333333333,16.666666666666668,58.333333333333336,19.83333333333333,-34.0,130.5,212.66666666666663,-1036.3333333333333,-333.5,343.6666666666667,1019.1505,-1.279362,3249.333333333333,0.0327044366666666,0.1616263666666666,-0.1408981333333333,0.0820787833333333,-1.5189143333333333,-0.3366123,46720.0,27494.0,9300.0,-165.0,-92.0,133.0,0,None
2023-01-01 12:34:43.700,304.2416,0.1042000000000029,100.0,993.0,24447.0,4871.0,99.0,1134.8,79.6,4872.2,-162.73036000000002,0.90507006,0.0267955299999999,-0.0797644999999999,-1.6209639999999998,47.28,0.03234212,-0.079678985,-1.6986435,0.4877307999999999,1.18757354,3.668809,31.4,158.8,-36.4,-15.8,-11.2,226.8,-1056.8,-378.4,332.8,1019.0824,-1.3476094,3250.4,0.03234212,0.0038713049999999,-0.079678985,0.118609625,-1.6986435,-0.3782645,47190.0,26485.0,9770.0,-228.0,-92.0,125.0,0,None
2023-01-01 12:34:44.250,304.766,0.1039999999999963,100.0,1089.0,24416.0,4890.0,99.0,1058.2,81.4,4870.6,-164.0974,0.89487194,0.0506913399999999,-0.0325460966666666,-1.821297,47.74333333333333,0.05512942,-0.03688025,-1.894888,0.5529508,1.00865508,5.3368704000000005,27.0,92.8,-106.5,16.1,105.3,225.8,-1015.1,-350.2,328.9,1018.9822,-1.4476092,3251.4,0.05512942,0.1470278166666666,-0.03688025,0.0929667499999999,-1.894888,-0.368164,47660.0,25354.0,10240.0,-246.0,-103.0,116.0,0,None
2023-01-01 12:34:44.800,305.29,0.1079999999999926,100.0,844.0,24518.0,4871.0,99.0,1037.0,83.0,4866.4,-165.86492000000004,0.88507324,0.1155925499999999,0.03390417,-1.9114375,48.18,0.11732485,0.0306533775,-1.980271,0.47178492,1.1244051600000002,6.3631082,16.4,138.2,-154.2,29.4,183.4,229.8,-989.4,33.2,315.2,1018.92,-1.510031,3252.6,0.11732485,0.192077905,0.0306533775,0.17993604,-1.980271,0.062148115,48100.0,24618.0,10680.0,-228.0,-97.0,102.0,0,None
2023-01-01 12:34:45.350,305.85599999999994,0.1000000000000037,100.0,877.0,24502.0,4883.0,99.0,936.0,84.5,4865.333333333333,-168.00226666666666,0.8734556166666666,0.1544169,0.0629249033333333,-1.892857,48.5,0.1552908,0.0605166666666666,-1.9590033333333328,0.6205222,1.1049819333333335,7.094252999999999,30.33333333333333,-10.0,-169.66666666666666,5.666666666666667,14.333333333333334,252.66666666666663,-1044.5,47.16666666666666,288.0,1018.9125,-1.5173828333333332,3253.6666666666665,0.1552908,0.0255979866666666,0.0605166666666666,-0.0668709266666666,-1.9590033333333328,0.0564648633333333,48460.0,24719.0,11040.0,-170.0,-71.0,78.0,0,None
2023-01-01 12:34:45.900,306.4182,0.1039999999999963,100.0,1089.0,24431.0,4853.0,99.0,1031.4,86.2,4868.8,-170.46875999999995,0.8607503399999998,0.1579085666666666,0.0601672333333333,-1.886802,48.66666666666666,0.1581796333333333,0.0595261433333333,-1.948915333333333,0.65202224,1.07781208,8.048329200000001,19.2,13.0,-173.0,9.2,-66.2,245.2,-1079.0,-24.4,281.4,1018.9214,-1.5085,3254.8,0.1581796333333333,-0.1613402933333333,0.0595261433333333,0.0121908296666666,-1.948915333333333,-0.0137723233333333,48640.0,24870.0,11220.0,-107.0,-39.0,52.0,0,None
2023-01-01 12:34:46.450,306.927,0.1002000000000065,100.0,1235.0,24373.0,4877.0,99.0,1011.6,87.4,4874.2,-173.35617999999997,0.8475830200000001,0.13192065,0.03254022,-1.870744,48.73,0.1325373,0.03307625,-1.928757,0.7129565000000001,1.2226304,7.784184200000001,39.0,-83.4,-157.2,-15.0,-40.0,253.4,-1035.4,65.6,296.2,1018.9296,-1.5001408,3255.6,0.1325373,-0.05300378,0.03307625,-0.070191705,-1.928757,0.07278199,48700.0,24844.0,11280.0,-43.0,8.0,48.0,0,None
2023-01-01 12:34:47.000,307.4976666666667,0.1034999999999967,100.0,1385.0,24332.0,4869.0,99.0,1164.5,89.16666666666667,4877.833333333333,-177.5791,0.8283347666666668,0.0729946633333333,-0.0044560378,-1.851408333333333,48.75666666666666,0.0774373366666666,-0.00126742,-1.9041346666666668,0.6001077499999999,1.2759406666666668,9.642491833333333,55.333333333333336,-89.66666666666667,-134.16666666666666,-3.1666666666666665,-76.33333333333333,236.3333333333333,-1021.8333333333334,26.666666666666668,315.5,1018.9073333333332,-1.5225650000000002,3256.6666666666665,0.0774373366666666,-0.0872523173333333,-0.00126742,-0.0271174966666666,-1.9041346666666668,0.03526644,48760.0,25073.5,11340.0,-3.0,35.0,34.5,0,None
2023-01-01 12:34:47.550,308.052,0.1039999999999963,100.0,1043.0,24438.0,4890.0,99.0,1172.2,91.0,4882.4,178.08802000000003,0.8109137799999999,0.05089288,-0.0206265009666666,-1.8613356666666665,48.78,0.0591596,-0.0170821346666666,-1.909132,0.5753204199999999,1.2378888,7.2794134,41.5,78.8,-128.1,2.4,48.2,233.3,-1065.1,-40.3,318.1,1018.9387,-1.4910782,3257.9,0.0591596,-0.0054776099999999,-0.0170821346666666,0.0743304166666666,-1.909132,-0.047935895,48780.0,25019.0,11360.0,-16.0,33.0,37.0,0,None
2023-01-01 12:34:48.100,308.625,0.1000000000000037,100.0,715.0,24540.0,4880.0,99.0,912.5,92.66666666666669,4884.833333333333,173.37533333333332,0.7982293,-0.0144080299999999,0.0359013933333333,-1.8876133333333327,48.82333333333333,-0.0065589096666666,0.0369618733333333,-1.931115,0.6923573,1.1961425,7.5320375,69.33333333333333,-15.333333333333334,-112.16666666666669,4.0,-196.66666666666663,252.8333333333333,-1033.3333333333333,26.83333333333333,314.6666666666667,1018.8531666666668,-1.576875,3259.1666666666665,-0.0065589096666666,-0.1797923566666666,0.0369618733333333,0.09723829,-1.931115,0.002545783,48850.0,24947.0,11430.0,0.0,-5.0,44.0,0,None
2023-01-01 12:34:48.650,309.1888,0.108000000000004,100.0,1233.5,24338.5,4881.0,99.0,1060.4,94.4,4878.0,168.10506,0.79150562,-0.1116734666666666,0.0030954713333333,-1.8821923333333328,48.9,-0.1018690033333333,0.002820774,-1.9225306666666664,0.79704876,1.2163278,8.9430922,9.4,-46.0,-83.4,9.2,-22.6,251.4,-1097.0,4.8,321.8,1018.8712,-1.5586406,3260.0,-0.1018690033333333,-0.0681586666666666,0.002820774,-0.0936424066666666,-1.9225306666666664,0.01829264,48900.0,24972.0,11480.0,-7.0,-83.0,35.0,0,None
2023-01-01 12:34:49.200,309.73900000000003,0.0968333333333267,100.0,1186.0,24373.0,4890.0,99.0,1088.5,96.0,4880.166666666667,162.0583,0.7949204666666666,-0.0733088666666666,-0.0329256933333333,-1.8801733333333333,48.92666666666667,-0.0648321666666666,-0.0340498166666666,-1.918302333333333,0.7440903666666667,1.2673409999999998,9.891629833333331,61.833333333333336,-34.333333333333336,-81.66666666666667,20.83333333333333,68.66666666666667,233.8333333333333,-1069.0,23.33333333333333,336.8333333333333,1018.8256666666666,-1.6042576666666666,3261.1666666666665,-0.0648321666666666,-0.0670798333333333,-0.0340498166666666,-0.022068268,-1.918302333333333,0.0314121366666666,48930.0,25015.0,11510.0,-30.0,-164.0,27.0,0,None
2023-01-01 12:34:49.750,310.313,0.108000000000004,100.0,1190.0,24348.0,4871.0,99.0,977.4,97.6,4873.6,155.92188,0.8128137799999999,-0.026457925,-0.06634894,-1.8724655,48.96,-0.01991295,-0.06836348,-1.9079425,0.75380064,1.20973962,9.0633482,62.4,-46.2,-94.8,21.6,84.6,225.0,-1027.8,32.8,334.6,1018.83,-1.5996874,3262.0,-0.01991295,0.135577575,-0.06836348,-0.066011065,-1.9079425,0.03296259,48950.0,25065.0,11530.0,-56.0,-224.0,24.0,0,None
2023-01-01 12:34:50.300,310.865,0.108000000000004,100.0,1358.0,24307.0,4888.0,99.0,1047.8,99.0,4880.2,149.5181,0.8482608800000001,0.0687744493333333,-0.0672338166666666,-1.8699423333333327,48.97,0.0747912696666666,-0.0679107066666666,-1.903066,0.7555101599999999,1.4368572,8.611829400000001,48.0,10.7,-120.2,16.0,359.9,224.1,-1024.9,36.1,332.9,1018.7904,-1.6395,3263.0,0.0747912696666666,0.3559399666666666,-0.0679107066666666,0.0143696966666666,-1.903066,0.03313915,48970.0,25077.0,11550.0,-85.0,-263.0,22.0,0,None
2023-01-01 12:34:50.850,311.369,0.0999999999999999,100.0,1674.0,24172.0,4871.0,99.0,1562.0,100.8,4880.2,144.7955,0.887086,0.25684595,-0.049987985,-1.873017,48.945,0.25979085,-0.049684835,-1.904271,0.51993204,1.3145354,8.9464866,51.0,43.6,-184.4,2.4,164.4,225.2,-1119.4,-33.2,301.4,1018.8114,-1.6185936,3264.0,0.25979085,0.236157395,-0.049684835,0.1396545,-1.904271,-0.03252570565,48950.0,25116.0,11530.0,-90.0,-233.0,6.0,0,None
2023-01-01 12:34:51.400,311.91900000000004,0.0999999999999942,100.0,1701.0,24175.0,4888.0,99.0,1615.0,103.33333333333331,4884.333333333333,139.95406666666665,0.9411166666666668,0.2636349666666666,-0.04136476,-1.8987873333333336,48.92666666666667,0.2639748,-0.03958316,-1.9272313333333333,0.4000401666666667,1.4764256666666666,8.200619333333332,74.83333333333333,-8.666666666666666,-200.66666666666663,26.5,-123.0,221.3333333333333,-1099.1666666666667,-3.8333333333333335,272.0,1018.7516666666668,-1.678229,3265.333333333333,0.2639748,-0.0776434333333333,-0.03958316,-0.0007728366666666,-1.9272313333333333,-0.0091569666666666,48920.0,24965.0,11500.0,-57.0,-132.0,11.0,0,None
2023-01-01 12:34:51.950,312.47380000000004,0.1042000000000029,100.0,1598.0,24209.0,4875.0,99.0,1400.6,105.6,4880.8,135.29968000000002,1.00499624,0.1908875333333333,-0.0233886666666666,-1.9067433333333328,49.00999999999999,0.1988573,-0.019849679,-1.933124,0.44178806,1.14082656,8.920553,84.8,167.2,-181.0,44.6,-97.4,225.8,-1030.8,-51.8,299.4,1018.6954,-1.7344686,3266.2,0.1988573,-0.1140651166666666,-0.019849679,0.1615751066666666,-1.933124,-0.0359300433333333,48970.0,24972.0,11550.0,-28.0,-51.0,17.0,0,None
2023-01-01 12:34:52.500,313.04,0.1000000000000037,100.0,1518.0,24201.0,4887.0,99.0,1051.6666666666667,107.83333333333331,4879.666666666667,131.02904999999998,1.0762558333333334,0.0820219833333333,0.08866739,-1.9303596666666667,49.16,0.0922879033333333,0.08981336,-1.9534720000000003,0.5708031833333335,1.11820045,7.693970166666666,61.833333333333336,211.0,-160.0,43.16666666666666,-140.83333333333334,240.3333333333333,-1040.0,19.5,284.3333333333333,1018.7411666666668,-1.6889585000000005,3267.333333333333,0.0922879033333333,-0.0929176433333333,0.08981336,0.2584745,-1.9534720000000003,0.0109111219666666,49135.0,24826.0,11715.0,33.0,-11.0,19.0,0,None
2023-01-01 12:34:53.050,313.59000000000003,0.0999999999999999,100.0,1049.0,24393.0,4866.0,99.0,943.0,109.4,4878.6,127.09609999999998,1.1559024,0.02629006,0.14966635,-1.9200895,49.21,0.037161415,0.1488973499999999,-1.940844,0.91435436,1.2007287999999998,10.946189999999998,47.4,-88.2,-135.4,44.2,-11.0,275.4,-1047.2,39.0,267.4,1018.8314,-1.5985468,3268.2,0.037161415,-0.084291945,0.1488973499999999,-0.089791175,-1.940844,0.0420130499999999,49210.0,24913.0,11790.0,137.0,-61.0,1.0,0,None
2023-01-01 12:34:53.600,314.14033333333333,0.1003333333333292,100.0,1072.0,24375.0,4888.0,99.0,1339.0,111.0,4873.333333333333,123.82386666666667,1.243829,0.0525163866666666,0.0566278832333333,-1.903554,49.120000000000005,0.0617855699999999,0.057783039,-1.9216366666666669,0.6395348833333333,1.3636136666666667,8.855761666666668,53.5,-333.5,-126.33333333333331,-34.333333333333336,63.833333333333336,264.5,-1099.3333333333333,-3.1666666666666665,299.8333333333333,1018.8628333333336,-1.5671093333333337,3269.1666666666665,0.0617855699999999,-0.0434008233333333,0.057783039,-0.3446872,-1.9216366666666669,0.01813282,49060.0,25017.0,11640.0,172.0,-77.0,2.0,0,None
2023-01-01 12:34:54.150,314.692,0.0999999999999999,100.0,1308.0,24293.0,4846.0,99.0,1278.0,113.2,4878.8,121.20854,1.3285424,0.0754123199999999,-0.1370384166666666,-1.929071,48.99,0.08449626,-0.1324234766666666,-1.9427706666666669,0.54249438,1.3356743999999998,6.0046534000000005,59.0,-147.8,-141.2,-5.8,58.4,204.6,-1062.4,-66.6,328.6,1018.8476,-1.5822499999999995,3270.4,0.08449626,0.0296793608999999,-0.1324234766666666,-0.17996444,-1.9427706666666669,-0.0668836633333333,48980.0,24850.0,11560.0,129.0,-58.0,15.0,0,None
2023-01-01 12:34:54.700,315.192,0.0999999999999999,100.0,1167.0,24325.0,4890.0,99.0,1179.4,114.8,4877.2,119.24486,1.398476,0.0919930599999999,-0.1833392999999999,-1.940888,48.965,0.1033721,-0.17713505,-1.9523955,0.56326718,1.0876148200000002,7.943123,73.2,30.6,-139.0,-21.4,-68.8,173.2,-1089.0,42.2,350.6,1018.819,-1.6107814,3271.0,0.1033721,-0.1055332149999999,-0.17713505,-0.0250774999999999,-1.9523955,0.050158965,48970.0,24843.0,11550.0,50.0,-20.0,24.0,0,None
2023-01-01 12:34:55.250,315.742,0.1000000000000037,100.0,1086.0,24344.5,4882.0,99.0,776.6666666666666,116.16666666666669,4878.666666666667,117.20766666666664,1.481441,0.0789185766666666,-0.0837204833333333,-1.920761,49.03,0.09164871,-0.0796825366666666,-1.9323493333333333,1.0343601166666667,1.5971458333333333,13.24019016666667,116.66666666666669,233.3333333333333,-125.83333333333331,-2.0,132.5,222.3333333333333,-1005.5,8.333333333333334,351.6666666666667,1018.8038333333334,-1.6259635,3272.333333333333,0.09164871,0.11318084,-0.0796825366666666,0.2990754666666667,-1.9323493333333333,0.0029621633333333,49050.0,24945.0,11630.0,-17.0,-9.0,36.0,0,None
2023-01-01 12:34:55.800,316.29200000000003,0.0999999999999999,100.0,517.0,24548.0,4879.0,99.0,1025.4,117.6,4880.6,115.33182000000002,1.569277,0.1334744666666666,0.0248349193333333,-1.9292643333333328,49.05,0.1465342333333333,0.0237895486666666,-1.9382253333333328,0.9854805,1.4759886000000002,11.940868,99.6,58.2,-157.2,-19.4,90.2,245.8,-1058.8,-41.8,296.0,1018.8552,-1.5749376,3273.0,0.1465342333333333,0.1897948466666666,0.0237895486666666,0.03088384,-1.9382253333333328,-0.0103460583333333,49050.0,24887.0,11630.0,-24.0,-13.0,10.0,0,None
2023-01-01 12:34:56.350,316.84200000000004,0.0999999999999942,100.0,1303.0,24295.0,4887.0,99.0,1172.8333333333333,119.5,4877.666666666667,113.59945,1.654211833333333,0.1623087666666667,0.0282636633333333,-1.9363663333333327,48.98333333333333,0.1712571333333333,0.0260757699999999,-1.9425593333333333,0.8661783166666668,1.3367913333333334,10.008259166666669,108.5,-58.333333333333336,-158.66666666666666,20.5,-34.666666666666664,254.5,-1093.8333333333333,4.0,285.5,1018.8403333333332,-1.5898045000000005,3274.0,0.1712571333333333,0.0472718966666666,0.0260757699999999,-0.0914682733333333,-1.9425593333333333,-0.0051805666666666,48990.0,24874.0,11570.0,8.0,-3.0,11.0,0,None
2023-01-01 12:34:56.900,317.392,0.0999999999999999,100.0,1040.0,24369.0,4875.0,99.0,1042.6,121.0,4870.4,111.90716,1.7398403999999998,0.1391967499999999,-0.029707365,-1.9376015,48.96,0.1482699,-0.029893905,-1.940224,0.8093456800000001,1.3031768,9.9833784,86.8,-94.6,-162.4,-15.4,-43.2,225.0,-996.2,6.0,306.6,1018.8608,-1.5693594000000002,3274.8,0.1482699,-0.0548604480499999,-0.029893905,-0.17021319,-1.940224,0.03675926,48970.0,24865.0,11550.0,39.0,11.0,15.0,0,None
2023-01-01 12:34:57.450,317.942,0.1000000000000037,100.0,1509.0,24206.0,4866.0,99.0,1131.5,122.83333333333331,4875.166666666667,110.25466666666668,1.830119,0.1166444833333333,-0.04361358,-1.9251963333333333,48.93333333333334,0.1270430333333333,-0.04179265,-1.9254773333333333,0.7298844333333334,1.3567685,10.679552666666666,87.5,13.833333333333334,-143.5,30.166666666666668,-14.5,236.3333333333333,-1108.1666666666667,-11.166666666666666,321.3333333333333,1018.8225,-1.6077603333333332,3276.0,0.1270430333333333,0.10785825,-0.04179265,-0.0344099133333333,-1.9254773333333333,0.0145177399999999,48940.0,24958.0,11520.0,39.0,15.0,14.0,0,None
2023-01-01 12:34:58.000,318.492,0.0999999999999999,100.0,1306.0,24310.0,4880.0,99.0,926.6,124.4,4879.8,108.74458,1.9216456,0.10560467,-0.0620090133333333,-1.9296606666666667,48.96666666666667,0.1153606666666666,-0.0596130633333333,-1.9278976666666667,0.7904234800000001,1.4499232000000002,9.310546400000002,85.0,-15.6,-144.4,0.8,-43.8,229.6,-1033.4,-17.6,329.4,1018.869,-1.5609532,3277.2,0.1153606666666666,-0.0388377593333333,-0.0596130633333333,-0.0019610213333333,-1.9278976666666667,-0.0223487146666666,48950.0,24946.0,11530.0,33.0,22.0,20.0,0,None
2023-01-01 12:34:58.550,319.042,0.0999999999999942,100.0,1077.0,24346.0,4885.0,99.0,1036.5,125.83333333333331,4877.166666666667,107.4682,2.0108955,0.09285721,-0.0261368466666666,-1.9371156666666665,48.96333333333333,0.10334144,-0.0239738066666666,-1.9325533333333336,0.9146505333333332,1.2400818333333332,9.2552055,85.5,75.83333333333333,-144.5,-6.0,20.166666666666668,227.5,-1048.0,-0.8333333333333334,319.5,1018.8835,-1.546614333333333,3277.833333333333,0.10334144,-0.0056678,-0.0239738066666666,0.0133191666666666,-1.9325533333333336,0.0202154066666666,48970.0,24919.5,11550.0,5.5,44.5,26.0,0,None
2023-01-01 12:34:59.100,319.592,0.0999999999999999,100.0,1525.0,24200.0,4875.0,99.0,1062.6,127.6,4878.2,106.36646,2.0984538,0.07876062,-0.0122543235,-1.932447,48.93,0.089871835,-0.011118745,-1.9260245,0.8961708999999999,1.2783137999999998,9.0891444,92.6,-28.4,-136.6,-13.4,-29.8,238.8,-1035.6,7.8,303.4,1018.8364,-1.5934376,3278.6,0.089871835,-0.086762455,-0.011118745,-0.0315622179999999,-1.9260245,0.0237670433,48930.0,24987.0,11510.0,2.0,33.0,30.0,0,None
2023-01-01 12:34:59.650,320.142,0.1000000000000037,100.0,987.0,24373.0,4885.0,99.0,1201.6666666666667,129.0,4880.833333333333,105.30323333333332,2.184537333333333,0.1099342333333333,-0.0062461199999999,-1.928473,48.94333333333333,0.1201609233333333,-0.0052903733333333,-1.920429,0.9625988166666668,1.3578365,11.210960666666669,145.16666666666666,54.333333333333336,-146.5,-7.833333333333333,15.166666666666666,238.66666666666663,-1028.6666666666667,-28.5,305.5,1018.7823333333334,-1.6474736666666665,3279.6666666666665,0.1201609233333333,0.1294542066666666,-0.0052903733333333,0.0818007033333333,-1.920429,-0.0108639833333333,48940.0,24998.0,11520.0,-4.0,16.0,23.0,0,None
2023-01-01 12:35:00.200,320.692,0.0999999999999999,100.0,1464.0,24201.0,4882.0,99.0,1316.6,131.2,4882.2,104.27368,2.2667948,0.1322766,-0.0083828333333333,-1.946522,48.97333333333333,0.1408199666666666,-0.0088207366666666,-1.9358593333333327,0.6239482,1.4881514,11.5086224,164.6,-40.2,-150.6,-21.4,23.6,249.0,-1090.2,-20.6,295.8,1018.6748,-1.755297,3280.8,0.1408199666666666,0.0073194633333333,-0.0088207366666666,0.0257780333333333,-1.9358593333333327,-0.0274322866666666,48970.0,24913.0,11550.0,5.0,-6.0,22.0,0,None
2023-01-01 12:35:00.750,321.242,0.1000000000000037,100.0,1311.5,24227.5,4879.5,99.0,1185.6666666666667,133.0,4880.5,103.30715000000002,2.3435843333333337,0.1638306333333333,-0.0408413533333333,-1.953506,49.11333333333334,0.1717186666666666,-0.04038819,-1.94035,0.7545246333333334,1.3033231666666667,10.1480085,142.83333333333334,6.0,-164.66666666666666,7.166666666666667,103.16666666666669,225.66666666666663,-1053.3333333333333,1.8333333333333333,304.6666666666667,1018.7056666666668,-1.7244008333333332,3281.6666666666665,0.1717186666666666,0.0421132836666666,-0.04038819,-0.0423322766666666,-1.94035,0.0052803466666666,49120.0,24883.0,11700.0,6.0,-15.0,12.0,0,None
2023-01-01 12:35:01.300,321.79200000000003,0.0999999999999999,100.0,79.0,24690.0,4891.0,99.0,1382.6,135.2,4875.2,102.35094,2.4217116,0.158822,-0.0764229449999999,-1.9513465,49.135000000000005,0.16658095,-0.07367119,-1.935335,0.71421552,1.175868,10.518244,130.6,10.0,-174.4,-49.2,-46.6,221.6,-1158.8,-16.0,307.6,1018.7348,-1.6951405999999998,3282.4,0.16658095,-0.11956866,-0.07367119,0.076075,-1.935335,0.0004666,49120.0,24909.0,11700.0,-18.0,10.0,4.0,0,None
2023-01-01 12:35:01.850,322.34200000000004,0.0999999999999942,100.0,1890.0,24064.0,4866.0,99.0,1553.0,137.0,4881.666666666667,101.29993333333331,2.5055223333333334,0.1613074,0.0077231896666666,-1.9656543333333327,49.16,0.1716545,0.0119270323333333,-1.9493800000000003,0.7205163333333333,1.1493590333333332,9.865950166666666,125.16666666666669,203.16666666666663,-173.16666666666666,-30.83333333333333,-28.0,240.0,-1050.3333333333333,5.666666666666667,268.3333333333333,1018.7358333333332,-1.6943491666666668,3283.6666666666665,0.1716545,-0.0212774166666666,0.0119270323333333,0.2164876,-1.9493800000000003,-0.0251655216666666,49180.0,24826.0,11760.0,-55.0,41.0,-7.0,0,None
2023-01-01 12:35:02.400,322.892,0.0999999999999999,100.0,452.0,24514.0,4891.0,99.0,1127.8,139.2,4884.8,100.209642,2.5910946000000004,0.1152433666666666,0.09764071,-1.953947,49.14666666666667,0.1262954666666666,0.0981710733333333,-1.936505666666667,0.8836439800000001,1.3788178,11.77719,121.8,-64.2,-157.8,-58.4,-105.4,267.0,-1098.2,36.8,277.2,1018.7293999999998,-1.7007656,3284.0,0.1262954666666666,-0.0892280333333333,0.0981710733333333,0.072232,-1.936505666666667,0.0278463323333333,49110.0,24890.0,11690.0,-22.0,41.0,22.0,0,None
2023-01-01 12:35:02.950,323.442,0.1000000000000037,100.0,740.0,24460.0,4869.0,99.0,730.5,140.5,4884.0,99.180235,2.6721171666666668,0.1157861333333333,0.0356559166666666,-1.973050333333333,49.21333333333333,0.1262164333333333,0.0359133133333333,-1.9536973333333327,1.4879121666666666,1.4858426666666666,11.2337885,110.33333333333331,-11.5,-153.33333333333334,-18.83333333333333,34.333333333333336,251.0,-971.0,-54.333333333333336,316.0,1018.8405,-1.589336,3285.333333333333,0.1262164333333333,0.0069942133333333,0.0359133133333333,-0.0161651233333333,-1.9536973333333327,-0.0528377563333333,49220.0,24887.0,11800.0,9.0,31.0,19.0,0,None
2023-01-01 12:35:03.500,324.042,0.0999999999999942,100.0,601.0,24463.0,4891.0,99.0,1116.8333333333333,142.33333333333334,4879.833333333333,98.10772333333334,2.7552548333333333,0.0853849133333333,0.0192682506666666,-1.9721743333333333,49.07333333333333,0.0953316666666666,0.0201379026666666,-1.9493463333333327,0.9403752333333334,1.3701258333333337,11.336965,126.0,-80.5,-153.83333333333334,-10.5,-59.66666666666666,238.16666666666663,-1139.8333333333333,65.66666666666667,303.6666666666667,999.936939999998,-1.5846353333333332,3286.1666666666665,0.0953316666666666,-0.0305076866666666,0.0201379026666666,-0.1357494666666666,-1.9493463333333327,0.0663384133333333,49100.0,24805.5,11680.0,33.5,21.0,3.0,1,29_press_abs_avg_drift_-0.33756357142860705
2023-01-01 12:35:04.050,324.6082,0.1040000000000076,100.0,1030.0,24328.0,4883.0,99.0,1007.6,143.8,4886.4,97.238044,2.825647,0.091008575,-0.00453082945,-1.9604705,48.99,0.1016283799999999,-0.002285391,-1.935715,0.95153936,1.4621078,11.208190599999998,125.6,0.4,-144.4,19.6,30.6,234.6,-1113.6,-1.2,303.6,999.5993764285694,-1.5847032,3286.8,0.1016283799999999,0.1551268,-0.002285391,-0.037398335,-1.935715,0.010393485,48960.0,24895.0,11540.0,35.0,-8.0,20.0,1,29_press_abs_avg_drift_-0.33756357142860705
2023-01-01 12:35:04.600,325.1156,0.0999999999999999,100.0,817.0,24375.0,4893.0,99.0,1190.6,145.4,4881.0,96.476814,2.8903026,0.1180144333333333,-0.0289976333333333,-1.9624946666666665,48.95,0.1283845333333333,-0.02665185,-1.9365166666666669,0.8204556000000001,1.482205,10.6184,148.8,-45.8,-147.0,-1.8,84.8,232.6,-1028.6,16.6,297.6,999.2618128571409,-1.6014222,3287.8,0.1283845333333333,0.10362915,-0.02665185,-0.0778733933333333,-1.9365166666666669,0.011666279,48940.0,24912.0,11520.0,23.0,-15.0,19.0,1,29_press_abs_avg_drift_-0.33756357142860705
2023-01-01 12:35:05.150,325.63199999999995,0.1039999999999963,100.0,1249.0,24230.0,4888.0,99.0,1069.4,147.0,4886.8,95.670358,2.9633286,0.13394055,-0.03611822,-1.963538,48.95,0.1453004,-0.03299974,-1.935519,0.8267022199999999,1.3729396,8.4221252,135.8,13.2,-161.4,-14.4,83.2,231.6,-1025.6,-4.2,311.8,998.9242492857122,-1.6324686,3288.4,0.1453004,0.035739575,-0.03299974,-0.07284555,-1.935519,0.0003917439999999,48960.0,24904.0,11540.0,4.0,-11.0,15.0,1,29_press_abs_avg_drift_-0.33756357142860705
2023-01-01 12:35:05.700,326.19216666666665,0.1066666666666643,100.0,1450.0,24167.0,4888.5,99.0,1188.5,148.66666666666666,4885.333333333333,94.99711166666668,3.0292316666666665,0.1439006666666666,-0.0177772559999999,-1.9569363333333327,48.97666666666667,0.1563459,-0.0144247953333333,-1.927402,0.8124553,1.4022511666666668,9.624562833333334,121.25,38.083333333333336,-163.0,1.5,-2.25,232.25,-1049.9166666666667,16.416666666666668,305.5,998.5866857142836,-1.5758331666666665,3289.1666666666665,0.1563459,-0.0331302266666666,-0.0144247953333333,0.0591925333333333,-1.927402,0.0189750499999999,48990.0,24969.0,11570.0,-4.0,1.0,23.0,1,29_press_abs_avg_drift_-0.33756357142860705
2023-01-01 12:35:06.250,326.7832,0.1040000000000077,100.0,1287.0,24204.0,4862.0,99.0,1213.6,150.8,4880.8,94.350536,3.0959186,0.1489131666666666,0.0100504111333333,-1.959506333333333,48.946666666666665,0.1608602333333333,0.0114918663333333,-1.9285376666666665,0.71996646,1.3477148,9.7948132,155.4,-10.0,-159.4,16.6,-6.6,244.0,-1063.6,7.0,304.0,998.249122142855,-1.6534842,3290.0,0.1593531,0.0302099096666666,0.0122380569333333,-0.1216961366666666,-1.9286813333333328,0.0024881166666666,48930.0,24936.0,11510.0,16.0,2.0,21.0,1,29_press_abs_avg_drift_-0.33756357142860705
2023-01-01 12:35:06.800,327.296,0.1039999999999963,100.0,955.0,24320.0,4888.0,99.0,1460.4,152.8,4880.6,93.75642,3.1613394,0.13876195,-0.015967915,-1.9576925,48.96,0.15090475,-0.0146376499999999,-1.924593,0.7391458,1.322899,13.0583694,135.0,-96.0,-160.8,29.8,-56.0,219.0,-1115.6,-19.0,290.2,997.9115585714264,-1.7597656000000002,3291.0,0.15090475,0.03051255,-0.0146376499999999,-0.032173895,-1.924593,-0.0010705199999999,48960.0,24980.0,11540.0,31.0,-11.0,17.0,1,29_press_abs_avg_drift_-0.33756357142860705
2023-01-01 12:35:07.350,327.86516666666665,0.1000000000000037,100.0,577.0,24433.0,4887.0,99.0,942.1666666666666,154.5,4879.166666666667,93.182535,3.230658833333333,0.128022,-0.0607248133333333,-1.9614563333333328,49.116666666666674,0.1408284,-0.0578972,-1.926341,0.9255572833333332,1.3561046666666667,9.793654833333331,112.33333333333331,-44.5,-152.5,16.666666666666668,52.0,222.5,-1044.6666666666667,29.166666666666668,305.6666666666667,997.5739949999978,-1.6516666666666666,3292.0,0.1408284,-0.18256702,-0.0578972,0.1366748999999999,-1.926341,0.0100862563333333,49150.0,24958.0,11730.0,42.0,1.0,26.0,1,29_press_abs_avg_drift_-0.33756357142860705
2023-01-01 12:35:07.900,328.42400000000004,0.1039999999999963,100.0,869.0,24312.0,4883.0,99.0,996.8,156.2,4875.2,92.639368,3.3047536,0.1040683766666666,-0.0853695466666666,-1.9484906666666664,49.14333333333334,0.1169675866666666,-0.08067702,-1.9124903333333327,0.92620326,1.3964279999999998,10.340144,45.6,-11.6,-141.6,23.2,-98.0,220.6,-1038.8,11.0,333.2,997.2364314285692,-1.6121876,3292.6,0.1169675866666666,-0.1709702666666666,-0.08067702,0.1160727333333333,-1.9124903333333327,-0.0039295333333333,49150.0,25026.0,11730.0,36.0,26.0,14.0,1,29_press_abs_avg_drift_-0.33756357142860705
2023-01-01 12:35:08.450,328.9440000000001,0.1039999999999963,100.0,1136.0,24301.0,4893.0,99.0,1003.2,157.4,4887.0,92.214194,3.3737368,0.074139525,-0.1028815999999999,-1.9524265,49.075,0.08798847,-0.09808697,-1.9156955,1.02365474,1.3980102,10.7214084,124.25,4.75,-129.0,-6.75,22.5,196.5,-1069.0,-27.5,324.75,996.8988678571405,-1.5987344,3293.0,0.08798847,-0.13811525,-0.09808697,0.015168356,-1.9156955,-0.02132819,49090.0,25039.0,11670.0,13.0,46.0,8.0,1,29_press_abs_avg_drift_-0.33756357142860705
2023-01-01 12:35:09.000,329.51550000000003,0.1035000000000062,100.0,978.0,24333.0,4885.0,99.0,992.8333333333334,159.0,4886.166666666667,91.89250666666668,3.4381440000000008,0.05450482,-0.0701274066666666,-1.9624723333333327,49.01666666666666,0.0704009633333333,-0.0669931066666666,-1.9248463333333328,0.9508638333333334,1.3899535,11.391418333333334,98.83333333333331,88.75,-126.66666666666669,10.916666666666666,-54.833333333333336,218.3333333333333,-1055.0833333333333,3.6666666666666665,337.75,996.5613042857119,-1.5601628333333333,3294.1666666666665,0.0704009633333333,-0.0009343966666666,-0.0669931066666666,0.1013121533333333,-1.9248463333333328,-0.0093346966666666,49010.0,24964.0,11590.0,-25.0,25.0,12.0,1,29_press_abs_avg_drift_-0.33756357142860705
2023-01-01 12:35:09.550,330.0884,0.1039999999999962,100.0,1023.0,24283.0,4890.0,99.0,1163.4,160.8,4885.6,91.642508,3.4979842,0.0018189563333333,-0.0271146166666666,-1.9487063333333328,49.04333333333333,0.016399769,-0.0268758033333333,-1.9102676666666667,0.8379255999999999,1.4459598,12.0553698,70.8,3.0,-112.4,5.4,-77.6,243.2,-1172.0,19.4,319.6,996.2237407142834,-1.5460467999999998,3295.0,0.016399769,-0.13393342,-0.0268758033333333,0.0187013866666666,-1.9102676666666667,0.033461836,49010.0,25033.0,11590.0,-41.0,6.0,38.0,1,29_press_abs_avg_drift_-0.33756357142860705
2023-01-01 12:35:10.100,330.608,0.103800000000001,100.0,1617.0,24084.0,4859.0,98.0,1878.8,163.2,4884.4,91.486336,3.5422614,-0.015751225,-0.0548781,-1.951926,49.335,-0.0008600235,-0.054034515,-1.9119905,0.50241188,1.2603238,7.640991,81.0,18.8,-105.4,-24.2,49.4,218.8,-1186.2,-31.8,316.8,995.8861771428548,-1.6046094,3295.8,-0.0008600235,0.0239773,-0.054034515,-0.059104643,-1.9119905,-0.033903265,49190.0,25079.0,11770.0,-55.0,-36.0,99.0,1,29_press_abs_avg_drift_-0.33756357142860705
2023-01-01 12:35:10.650,331.1522,0.1079999999999926,100.0,1919.0,23973.0,4893.0,98.0,1786.6,165.8,4890.6,91.365442,3.5825524,-0.0080350546666666,-0.0018845766666666,-1.9736106666666664,50.07333333333333,0.0066670230333333,-0.0009649436666666,-1.9324386666666664,0.48761284,1.3112066,8.802727999999998,97.4,159.4,-108.2,-18.8,59.2,230.8,-1126.2,-30.6,293.8,995.5486135714261,-1.7837188000000002,3296.6,0.0066670230333333,0.1102812766666666,-0.0009649436666666,0.1825525333333333,-1.9324386666666664,-0.04324993,49780.0,24956.0,12360.0,-108.0,-78.0,172.0,1,29_press_abs_avg_drift_-0.33756357142860705
2023-01-01 12:35:11.200,331.6922,0.108000000000004,100.0,1690.0,24051.0,4877.0,98.0,1543.8,168.2,4888.8,91.294168,3.6071974,0.02766225,0.0634000666666666,-1.973169,51.27333333333333,0.0402405266666666,0.0607685933333333,-1.930248,0.3852452199999999,1.3284922,9.8889816,70.1,24.1,-119.2,-5.6,49.1,244.6,-1084.0,2.9,284.1,995.2110499999975,-1.8375548,3297.6,0.0402405266666666,0.0756324233333333,0.0607685933333333,0.06438216,-1.930248,-0.00598388,50820.0,24900.0,13400.0,-120.0,-132.0,202.0,1,29_press_abs_avg_drift_-0.33756357142860705
2023-01-01 12:35:11.750,332.1924,0.0999999999999999,100.0,1360.0,24152.0,4896.0,98.0,1331.6,170.4,4884.2,91.236408,3.626123,0.03925527,0.04396905,-1.9943425,52.19,0.048726065,0.0408839349999999,-1.9493955,0.38715844,1.492099,10.0046372,54.8,-114.0,-133.0,2.2,-23.2,257.4,-1060.2,-58.4,300.6,994.8734864285689,-1.9059844,3298.0,0.048726065,0.102309465,0.0408839349999999,-0.2729861,-1.9493955,-0.057937945,51750.0,24920.0,14330.0,-91.0,-172.0,205.0,1,29_press_abs_avg_drift_-0.33756357142860705
2023-01-01 12:35:12.300,332.782,0.1066666666666643,100.0,1232.0,24176.5,4889.0,98.0,1122.1666666666667,172.16666666666666,4893.833333333333,91.14273,3.651244833333333,-0.0146002776666666,-0.01666716,-2.0053953333333334,53.09666666666666,-0.00554672,-0.015937651,-1.957985,0.491376,0.9721691333333332,7.003860833333333,56.833333333333336,-4.0,-121.16666666666669,-21.666666666666668,-108.16666666666669,226.3333333333333,-1083.5,-14.0,320.6666666666667,994.5359228571403,-1.971237,3299.1666666666665,-0.00554672,-0.1637994666666666,-0.015937651,-0.0307032866666666,-1.957985,-0.0236515799999999,53110.0,24756.0,15690.0,-87.0,-209.0,203.5,1,29_press_abs_avg_drift_-0.33756357142860705
2023-01-01 12:35:12.850,333.34400000000005,0.108000000000004,100.0,1099.0,24250.0,4885.0,98.0,1202.2,174.2,4888.8,91.047584,3.6715552,-0.02750554,0.02371529,-2.005304,54.13666666666666,-0.0168350866666666,0.0232590833333333,-1.956991666666667,0.46999832,1.23083004,7.028259800000001,39.6,34.0,-109.0,-0.2,48.6,237.8,-1062.9,56.3,320.6,994.1983592857117,-2.0950154,3300.0,-0.0168350866666666,0.0061425199999999,0.0232590833333333,0.0304964506666666,-1.956991666666667,0.0467315733333333,54430.0,24851.0,17010.0,-97.0,-268.0,221.0,1,29_press_abs_avg_drift_-0.33756357142860705
2023-01-01 12:35:13.400,333.88019999999995,0.1039999999999963,100.0,1141.0,24228.0,4891.0,98.0,1045.4,175.8,4883.4,90.947964,3.6907384,-0.0115907415,0.006372487,-1.9830725,55.09,-0.00137377,0.0067448235,-1.933387,0.58238576,1.1722206,5.5899402,47.8,-40.6,-105.4,-16.6,83.0,241.4,-1007.4,3.0,322.2,993.8607957142831,-2.1975312,3301.0,-0.00137377,0.082277825,0.0067448235,-0.01323197,-1.933387,0.028600175,55340.0,24923.0,17920.0,-97.0,-300.0,217.0,1,29_press_abs_avg_drift_-0.33756357142860705
2023-01-01 12:35:13.950,334.462,0.1066666666666738,100.0,1460.0,24123.0,4871.0,98.0,1417.6666666666667,178.0,4884.333333333333,90.835525,3.709922166666667,0.0093759516666666,-0.0105504563333333,-1.9866866666666667,56.02666666666667,0.0190405,-0.0102303393333333,-1.936218,0.5112544,1.0891818,5.778787333333334,49.66666666666666,17.5,-111.0,-0.8333333333333334,-2.0,229.5,-1085.1666666666667,-4.333333333333333,305.1666666666667,993.5232321428545,-2.36819,3301.333333333333,0.0190405,-0.146908189,-0.0102303393333333,-0.0522644263333333,-1.936218,0.0026347766666666,56250.0,24896.0,18830.0,-108.0,-315.0,217.0,1,29_press_abs_avg_drift_-0.33756357142860705
2023-01-01 12:35:14.500,335.06,0.1079999999999926,100.0,1448.0,24126.0,4875.0,98.0,1234.2,180.0,4890.2,90.699318,3.732013400000001,0.0120563956666666,-0.0124840833333333,-1.995201,57.25333333333333,0.0213754733333333,-0.01344602,-1.9433996666666669,0.47317708,1.0919552,8.692761999999998,58.8,-102.2,-115.3,29.8,22.0,237.1,-1060.7,6.2,322.5,993.1856685714259,-2.5233202,3302.5,0.0213754733333333,0.023223515,-0.01344602,-0.06221265,-1.9433996666666669,-0.0054249553333333,57260.0,24859.0,19840.0,-95.0,-349.0,221.0,1,29_press_abs_avg_drift_-0.33756357142860705
2023-01-01 12:35:15.050,335.588,0.1039999999999963,100.0,1491.0,24108.0,4883.0,98.0,1359.2,182.2,4888.8,90.582452,3.7518542,0.02911445,-0.05605245,-1.992247,58.265,0.03873463,-0.055167635,-1.938877,0.49054626,1.08455556,7.8021342,55.8,-4.2,-123.0,-0.6,25.6,213.2,-1048.6,-16.2,316.2,992.8481049999973,-2.6436404,3303.4,0.03873463,0.039309405,-0.055167635,-0.0901256,-1.938877,0.012660391,58270.0,24889.0,20850.0,-108.0,-368.0,214.0,1,29_press_abs_avg_drift_-0.33756357142860705
2023-01-01 12:35:15.600,336.1276,0.108000000000004,100.0,1076.0,24228.0,4871.0,98.0,1133.8,184.0,4888.2,90.467782,3.7742198,0.0489275566666666,-0.0562162233333333,-1.995717333333333,59.15,0.0602570466666666,-0.0562014233333333,-1.9417596666666668,0.6092608,1.3258474,5.887066599999999,71.6,-24.4,-121.6,47.2,98.8,220.2,-972.0,8.6,325.8,992.5105414285687,-2.7661406,3304.2,0.0602570466666666,0.0963142806666666,-0.0562014233333333,0.00672687,-1.9417596666666668,0.0196046776666666,59150.0,24867.0,21730.0,-128.0,-375.0,181.0,1,29_press_abs_avg_drift_-0.33756357142860705
2023-01-01 12:35:16.150,336.66279999999995,0.1076000000000021,100.0,1228.0,24181.0,4885.0,98.0,1006.6,185.4,4893.0,90.34246,3.8036364,0.1282995566666666,-0.0505002966666666,-1.9993046666666665,59.86666666666667,0.1392826233333333,-0.0505725266666666,-1.945412666666667,0.7020833000000001,1.0231314,6.833839599999999,54.0,43.8,-139.6,12.4,180.2,227.0,-873.4,-24.4,335.2,992.17297785714,-2.886203,3305.0,0.1392826233333333,0.1535564666666666,-0.0505725266666666,0.0276311353333333,-1.945412666666667,-0.0163395553333333,59810.0,24873.0,22390.0,-138.0,-373.0,110.0,1,29_press_abs_avg_drift_-0.33756357142860705
2023-01-01 12:35:16.700,337.2223333333333,0.1005000000000014,100.0,704.0,24367.0,4891.5,98.0,1170.6666666666667,187.3333333333333,4891.0,90.23066666666666,3.8337115,0.2307869,-0.0369870099999999,-1.999609333333333,60.07666666666666,0.2404337,-0.03773589,-1.9440853333333328,0.7099251166666667,1.1388878333333334,7.6611775,73.0,-17.666666666666668,-180.91666666666663,2.9166666666666665,94.66666666666669,230.3333333333333,-1031.3333333333333,42.91666666666666,304.1666666666667,991.8354142857114,-2.9714321666666668,3305.833333333333,0.2404337,-0.0225777833333333,-0.03773589,0.0684611,-1.9440853333333328,0.0479716713333333,60040.0,24825.0,22620.0,-128.0,-336.0,30.0,1,29_press_abs_avg_drift_-0.33756357142860705
2023-01-01 12:35:17.250,337.773,0.0999999999999999,100.0,1530.0,24117.0,4893.0,98.0,832.6,188.4,4887.4,90.111224,3.8661938,0.2576945,-0.054365035,-1.969513,60.185,0.2675228,-0.05014111,-1.9106945,1.0252082,1.489273,10.6841354,68.2,75.6,-180.4,7.0,-6.0,218.2,-1056.8,64.4,279.8,991.4978507142829,-2.9059842,3306.4,0.2675228,0.0237625999999999,-0.05014111,0.09230645,-1.9106945,0.06738555,60150.0,24973.0,22730.0,-96.0,-254.0,30.0,1,29_press_abs_avg_drift_-0.33756357142860705
2023-01-01 12:35:17.800,338.3012,0.1079999999999926,100.0,600.0,24403.0,4888.0,98.0,795.2,189.8,4883.4,89.977232,3.899577,0.2260421666666666,-0.0044324,-1.9711096666666668,60.17,0.2379875333333333,0.0007836819999999,-1.909309,1.02450884,1.6553492,12.3955934,38.2,72.2,-168.6,-32.8,10.0,236.8,-937.0,-94.0,312.8,991.1602871428543,-2.8450624,3307.2,0.2379875333333333,0.005576448,0.0007836819999999,0.0405199933333333,-1.909309,-0.0719406833333333,60170.0,25153.0,22750.0,-76.0,-156.0,15.0,1,29_press_abs_avg_drift_-0.33756357142860705
2023-01-01 12:35:18.350,338.86080000000004,0.1120000000000004,100.0,1060.0,24323.0,4888.0,98.0,969.2,191.2,4887.4,89.80604600000001,3.9361104,0.20352365,0.0055071524999999,-2.011517,60.095,0.21646985,0.0114928239999999,-1.9449945,0.90084776,1.4621292,11.4784844,86.3,-13.8,-176.8,-16.2,-76.8,249.6,-1005.4,-22.1,305.4,990.8227235714256,-2.8214688000000003,3308.2,0.21646985,0.0907001779999999,0.0114928239999999,0.00082105,-1.9449945,-0.01621538,60150.0,24897.0,22730.0,-49.0,-62.0,12.0,1,29_press_abs_avg_drift_-0.33756357142860705
2023-01-01 12:35:18.900,339.3852,0.1042000000000029,100.0,1312.0,24166.0,4856.0,98.0,1136.2,192.8,4888.6,89.61052,3.9698588,0.168751,0.0199258473333333,-2.007567,60.00333333333334,0.183521,0.0262337533333333,-1.9365283333333327,0.7541974400000001,1.4734958,9.2848884,124.8,85.2,-168.2,-30.4,-123.0,235.6,-1113.2,-5.4,295.0,1017.5198,-2.9102188,3308.6,0.183521,-0.1394264633333333,0.0262337533333333,0.0922574933333333,-1.9365283333333327,0.0134517929999999,60020.0,24875.0,22600.0,-24.0,3.0,7.0,0,None
2023-01-01 12:35:19.450,339.969,0.1031666666666713,100.0,1012.0,24280.0,4896.0,98.0,989.5,194.66666666666663,4881.166666666667,89.35089333333333,4.006523666666667,0.1161856666666666,0.0607650333333333,-2.019374,60.02666666666666,0.1329253333333333,0.0649983266666666,-1.9445563333333336,1.0087689833333335,1.3956651666666666,11.213299,118.83333333333331,23.666666666666668,-152.66666666666666,6.666666666666667,-32.333333333333336,253.8333333333333,-1092.1666666666667,-4.166666666666667,287.6666666666667,1017.5125,-2.917487,3309.833333333333,0.1329253333333333,0.0310549466666666,0.0649983266666666,0.0434586446666666,-1.9445563333333336,-0.0204307626666666,60020.0,24869.0,22600.0,-5.5,20.5,24.5,0,None
2023-01-01 12:35:20.000,340.5412,0.1081999999999993,100.0,913.0,24332.0,4879.0,98.0,999.0,196.2,4894.6,89.04761800000001,4.0453124,0.1201214999999999,0.0534976933333333,-2.026638333333333,60.09333333333333,0.1345096999999999,0.0551253366666666,-1.9504,1.1010461799999998,1.4472884,11.9892244,117.8,-44.2,-154.2,-20.6,62.6,254.6,-964.0,-25.8,288.4,1017.4743999999998,-2.955781,3310.4,0.1345096999999999,0.005603619,0.0551253366666666,0.0015438733333333,-1.9504,-0.019354762,60110.0,24821.0,22690.0,24.0,-1.0,27.0,0,None
2023-01-01 12:35:20.550,341.0802,0.1039999999999963,100.0,1407.0,24135.0,4900.0,98.0,861.4,197.6,4888.8,88.74037999999999,4.0810358,0.13317595,0.036563445,-2.032223,60.145,0.1458703,0.036186225,-1.956041,1.1739314,1.4968698000000005,15.035406,100.2,-54.8,-158.0,-9.7,34.4,257.3,-1012.7,-12.9,296.4,1017.4667,-2.9635233,3311.4,0.1458703,-0.13265604,0.036186225,0.03722626,-1.956041,-0.02422107,60160.0,24789.0,22740.0,37.0,-15.0,7.0,0,None
2023-01-01 12:35:21.100,341.6092,0.1120000000000004,100.0,454.0,24466.0,4888.0,98.0,946.0,199.2,4890.8,88.47022,4.112479,0.1533832666666666,0.009831369,-2.035394333333333,60.156666666666666,0.1643124666666666,0.0099415096666666,-1.958513333333333,1.1448306,1.2739325999999995,12.299557,115.8,-37.4,-174.8,-37.2,51.0,231.8,-1008.8,-11.2,292.6,1017.5258,-2.9041716,3312.2,0.1643124666666666,0.1089757533333333,0.0099415096666666,-0.0665024799999999,-1.958513333333333,0.0091643986666666,60160.0,24773.0,22740.0,48.0,-3.0,11.0,0,None
2023-01-01 12:35:21.650,342.1414,0.103800000000001,100.0,995.0,24288.0,4901.0,98.0,1043.8,200.6,4893.8,88.159544,4.1493642,0.1416814,-0.009506585,-2.027235,60.115,0.15323155,-0.0090736415,-1.9511655,0.90809012,1.3316684,11.1345372,108.8,-40.6,-165.0,-17.0,-6.8,248.2,-950.2,38.0,298.8,1017.5022,-2.9274684,3312.4,0.15323155,0.012588115,-0.0090736415,-0.038728805,-1.9511655,0.0235806449999999,60110.0,24825.0,22690.0,52.0,10.0,17.0,0,None
2023-01-01 12:35:22.200,342.733,0.1068333333333365,100.0,1069.5,24261.5,4890.5,98.0,1002.6666666666666,202.3333333333333,4892.5,87.82418666666666,4.188926666666666,0.126555,-0.0133339333333333,-2.0243593333333334,60.10666666666666,0.1385985666666666,-0.0121838153333333,-1.947984,1.0284568,1.3888806666666664,11.090054833333332,124.75,9.5,-156.83333333333334,-15.0,-2.4166666666666665,237.25,-1040.5833333333333,10.166666666666666,313.5,1017.50575,-2.924258083333333,3313.833333333333,0.1385985666666666,0.01172201,-0.0121838153333333,0.0173594683333333,-1.947984,-0.0170619389999999,60110.0,24838.0,22690.0,39.0,14.0,11.0,0,None
2023-01-01 12:35:22.750,343.2976,0.1037999999999896,100.0,1016.0,24285.0,4891.0,98.0,952.2,203.8,4885.6,87.511216,4.2254788,0.1274183666666666,-0.0056450280333333,-2.019807666666667,60.12,0.1392320666666666,-0.0061644453333333,-1.9432683333333327,0.9813778,1.3394938,13.3702882,118.0,8.4,-155.8,-3.2,48.4,233.4,-1101.0,8.0,305.4,1017.485,-2.9448436,3314.4,0.1392320666666666,0.0341715333333333,-0.0061644453333333,0.00303587,-1.9432683333333327,0.0106060899999999,60120.0,24858.0,22700.0,26.0,15.0,16.0,0,None
2023-01-01 12:35:23.300,343.8292,0.1081999999999993,100.0,884.0,24305.0,4871.0,98.0,985.8,205.4,4888.6,87.2205,4.258922200000001,0.13428035,0.0065341935,-2.0247520000000003,60.185,0.14639065,0.0049637994999999,-1.9484445,0.90696674,1.4168306000000002,13.1799832,130.0,26.6,-159.2,-53.6,15.2,242.2,-981.4,-29.6,298.0,1017.4542,-2.9756406,3315.2,0.14639065,0.045036875,0.0049637994999999,-0.0017126499999999,-1.9484445,-0.038556595,60240.0,24845.0,22820.0,15.0,10.0,17.0,0,None
2023-01-01 12:35:23.850,344.3648,0.103800000000001,100.0,1163.0,24225.0,4882.0,98.0,1034.8,206.8,4888.2,86.90081599999999,4.2946668,0.1434467666666666,0.009748593,-2.026581666666667,60.51,0.1551027666666666,0.008231275,-1.949749,0.9661557,1.22062582,11.680152799999998,109.4,26.2,-165.1,-65.8,-29.4,227.3,-1090.7,-12.1,293.3,1017.4955,-2.9346798,3316.2,0.1551027666666666,-0.0195399833333333,0.008231275,0.0384454,-1.949749,-0.005845278,60450.0,24845.0,23030.0,6.0,14.0,11.0,0,None
2023-01-01 12:35:24.400,344.8854,0.108000000000004,100.0,1207.0,24208.0,4871.0,98.0,1008.6,208.4,4890.6,86.595178,4.3278846,0.12586785,0.02522118,-2.030616,60.655,0.1368526,0.0235976899999999,-1.95301,0.85743346,1.1545762199999998,6.198054999999999,123.2,-28.2,-163.0,-9.0,-33.8,237.0,-1056.4,28.0,294.0,1017.5088,-2.9212498,3317.0,0.1368526,-0.077467017,0.0235976899999999,0.002480369,-1.95301,0.0082880865,60630.0,24810.0,23210.0,7.0,23.0,7.0,0,None
2023-01-01 12:35:24.950,345.4671666666666,0.1001666666666664,100.0,584.0,24407.0,4891.0,98.0,870.8333333333334,209.66666666666663,4881.333333333333,86.27402000000001,4.361960166666667,0.1158434,0.013163569,-2.0269923333333337,60.77666666666666,0.1273790333333333,0.0112127383333333,-1.9501773333333328,0.8883495833333334,1.2758788333333335,7.531793333333333,110.5,-1.6666666666666667,-150.66666666666666,-9.333333333333334,-10.166666666666666,249.16666666666663,-1051.3333333333333,-7.166666666666667,307.3333333333333,1017.4956666666668,-2.934205666666667,3317.6666666666665,0.1273790333333333,0.0733863166666666,0.0112127383333333,0.0489872399999999,-1.9501773333333328,-0.01448519,60780.0,24825.0,23360.0,10.0,18.0,20.0,0,None
2023-01-01 12:35:25.500,346.01820000000004,0.1001999999999952,100.0,983.0,24283.0,4896.0,98.0,816.6,211.2,4878.4,85.94899000000001,4.394614799999999,0.1074025333333333,0.0145747933333333,-2.026285333333333,60.88999999999999,0.1190068333333333,0.0130779666666666,-1.949204,0.8002786000000001,1.3394864,12.600792,114.6,-0.6,-153.6,-35.4,22.8,241.2,-1053.0,9.8,303.8,1017.4936,-2.9363594,3318.6,0.1190068333333333,-0.0638629766666666,0.0130779666666666,0.0533086546666666,-1.949204,0.0064226,60870.0,24822.0,23450.0,6.0,16.0,16.0,0,None
2023-01-01 12:35:26.050,346.54220000000004,0.1078000000000088,100.0,1202.0,24226.0,4890.0,98.0,876.8,212.4,4889.8,85.60498999999999,4.426682,0.1129730499999999,0.017143405,-2.019443,60.935,0.12522585,0.01708496,-1.9414445,1.0070675000000002,1.3575361999999995,13.584006,117.0,31.6,-152.0,-20.8,8.8,239.6,-1052.2,-14.4,316.0,1017.5046,-2.9253904000000004,3319.4,0.1249136,0.03854734,0.01758999,0.0014258677,-1.9414425,-0.0255976664999999,60930.0,24876.0,23510.0,4.0,11.0,4.0,0,None
2023-01-01 12:35:26.600,347.1066,0.1120000000000004,100.0,805.0,24318.0,4883.0,98.0,974.2,213.8,4881.2,85.25849000000001,4.4570584,0.1209469,0.0119658683333333,-2.018453333333333,60.96,0.1327418666666666,0.011896849,-1.9401263333333327,1.04341446,1.349655,12.9654536,121.1,-12.6,-152.4,-21.3,34.1,231.8,-1043.3,6.9,304.7,1017.5236,-2.9064922,3320.2,0.1307431333333333,-0.024883,0.012198589,-0.03046549,-1.940467,-0.0036671563333333,60950.0,24873.0,23530.0,8.0,4.0,16.0,0,None
2023-01-01 12:35:27.150,347.6382,0.1079999999999926,100.0,1088.0,24290.0,4867.0,98.0,1098.0,215.4,4878.6,84.965638,4.4820516,0.1240391,0.0019370301,-2.023041333333333,60.98,0.1347402666666667,0.0014260650333333,-1.943872,1.01279492,1.381097,11.533934599999998,109.2,-11.2,-159.4,-23.6,8.8,237.4,-1037.2,-19.2,294.4,1017.5192,-2.9110626,3321.0,0.1347402666666667,0.0167376,0.0014260650333333,-0.0031192033333333,-1.943872,0.0180809133333333,60980.0,24871.0,23560.0,12.0,6.0,18.0,0,None
2023-01-01 12:35:27.700,348.20450000000005,0.1001666666666664,100.0,990.0,24285.0,4882.0,98.0,1001.1666666666666,216.8333333333333,4882.166666666667,84.56526333333333,4.515736333333334,0.1146749666666666,-0.0111268283333333,-2.0202440000000004,61.01,0.1257907,-0.0101038563333333,-1.940105,0.98189395,1.5201823333333335,11.201505333333332,110.33333333333331,-19.666666666666668,-152.16666666666666,-46.5,-2.833333333333333,231.16666666666663,-1061.3333333333333,0.8333333333333334,296.1666666666667,1017.4986666666668,-2.9312498333333337,3321.6666666666665,0.1257907,0.0080615233333333,-0.0101038563333333,-0.0105308413333333,-1.940105,-0.0012114413333333,61000.0,24875.0,23580.0,9.5,10.0,16.5,0,None
2023-01-01 12:35:28.250,348.7664,0.103800000000001,100.0,1101.0,24238.0,4882.0,98.0,975.4,218.4,4884.6,84.242512,4.542871,0.10886745,-0.01172432,-2.0204175,61.04,0.1201996499999999,-0.01084257,-1.9397445,0.93762566,1.2978242000000002,11.8202046,109.7,20.6,-153.1,-29.7,-10.0,232.8,-997.1,1.6,311.6,1017.5068,-2.9233202,3322.5,0.1201996499999999,-0.00885695,-0.01084257,-0.003492855,-1.9397445,-0.0100730835,61050.0,24888.0,23630.0,0.0,11.0,11.0,0,None
2023-01-01 12:35:28.800,349.2902,0.1042000000000029,100.0,1145.5,24230.5,4882.0,98.0,1080.2,220.0,4880.6,83.939606,4.5684304,0.1135613333333333,-0.0033333473333333,-2.017349333333333,61.04,0.1255124,-0.0040850396666666,-1.9378696666666664,0.9358475,1.2925521999999998,11.5748774,138.2,-7.2,-154.2,-3.4,48.6,242.6,-1009.6,33.6,312.8,1017.506,-2.9238904000000003,3323.4,0.1255124,-0.0205898366666666,-0.0040850396666666,-0.0110408163333333,-1.9378696666666664,0.022780273,61030.0,24921.0,23610.0,-4.0,9.0,13.0,0,None
2023-01-01 12:35:29.350,349.82620000000003,0.1120000000000004,100.0,1173.0,24226.0,4877.0,98.0,1079.4,221.6,4880.6,83.647068,4.593314,0.1147562,0.0006572124,-2.0113415,61.025000000000006,0.12651255,-0.001081652715,-1.931055,0.8129756799999999,1.3877428,9.4806154,115.8,10.2,-158.4,-45.0,32.4,235.4,-975.8,-11.4,311.6,1017.5104,-2.9197186,3324.2,0.12651255,0.085670775,-0.001081652715,-0.0252363095,-1.931055,-0.01780064,61040.0,24930.0,23620.0,-7.0,5.0,20.0,0,None
2023-01-01 12:35:29.900,350.4211666666667,0.1065000000000016,100.0,1126.0,24228.0,4885.0,98.0,1157.3333333333333,223.5,4887.666666666667,83.31147166666668,4.622196666666667,0.1242647666666666,0.0078118306666666,-2.0134956666666666,61.04333333333333,0.1356128,0.0067354246666666,-1.9327416666666668,0.8663026333333335,1.3164114999999998,8.424299,131.58333333333334,25.75,-163.5,-18.25,-9.666666666666666,243.75,-1090.0,-3.583333333333333,312.8333333333333,1017.45825,-2.9717513333333336,3324.833333333333,0.1356128,0.0300829183333333,0.0067354246666666,0.0602451582666666,-1.9327416666666668,-0.0029885793333333,61050.0,24931.0,23630.0,-12.0,0.0,17.0,0,None
2023-01-01 12:35:30.450,350.994,0.0999999999999999,100.0,1170.0,24224.0,4882.0,98.0,1101.2,225.4,4885.2,83.02868000000001,4.646982,0.1292505333333333,0.01805665,-2.0176016666666663,61.09,0.1403931333333333,0.0174521599999999,-1.9359063333333333,0.7462842199999999,1.3442317999999998,7.5291336,104.0,-3.0,-156.6,-16.0,-32.2,237.0,-1088.6,-28.0,312.6,1017.4766,-2.9534844,3326.2,0.1403931333333333,0.03281676,0.0174521599999999,0.0916400633333333,-1.9359063333333333,-0.003950066,61090.0,24924.0,23670.0,-12.0,3.0,8.0,0,None
