00000_Time_epoch,00000_Time_boot_sec,00000_Span_Time_boot_sec,1_battery_remaining_avg,1_current_battery_avg,1_voltage_battery_avg,125_Vcc_avg,147_battery_remaining_avg,147_current_battery_avg,147_current_consumed_avg,165_Vcc_avg,168_direction_avg,168_speed_avg,178_pitch_avg,178_roll_avg,178_yaw_avg,182_altitude_avg,182_pitch_avg,182_roll_avg,182_yaw_avg,241_vibration_x_avg,241_vibration_y_avg,241_vibration_z_avg,27_xacc_avg,27_xgyro_avg,27_xmag_avg,27_yacc_avg,27_ygyro_avg,27_ymag_avg,27_zacc_avg,27_zgyro_avg,27_zmag_avg,29_press_abs_avg,29_press_diff_avg,29_temperature_avg,30_pitch_avg,30_pitchspeed_avg,30_roll_avg,30_rollspeed_avg,30_yaw_avg,30_yawspeed_avg,33_alt_avg,33_hdg_avg,33_relative_alt_avg,33_vx_avg,33_vy_avg,33_vz_avg,label,diagnosis
2022-12-29 14:55:52.600,96.27,0.519999999999996,100.0,87.0,25152.0,4885.0,99.0,83.0,19.0,4885.0,28.71615,0.5951215,0.008292324,0.053222075,-1.2564995,41.27,0.0085706955,0.059170935,-1.250249,0.02538588,0.02643276,0.03587386,-3.0,1.0,61.0,-73.0,1.0,279.0,-1066.0,0.0,316.0,1022.16,-0.03671875,3276.0,0.0085706955,0.0015258652,0.059170935,0.00126959195,-1.250249,6.214699999999986e-06,41280.0,28836.0,-10.0,-1.0,2.0,-8.0,0,None
2022-12-29 14:55:53.150,96.77,0.5,100.0,79.0,25126.0,4859.0,99.0,68.0,19.0,4891.0,28.54982,0.5809163,0.008514887,0.0531137233333333,-1.2572456666666667,41.27333333333333,0.008607392,0.0592511933333333,-1.2506803333333334,0.02610157,0.02223705,0.03628134,-4.0,1.0,63.0,-71.0,1.0,279.0,-1067.0,0.0,318.0,1022.174,-0.0234375,3277.0,0.008607392,0.001264381,0.0592511933333333,0.0010639589333333,-1.2506803333333334,0.0001677335799999,41290.0,28834.0,0.0,-1.0,2.0,-8.0,0,None
2022-12-29 14:55:53.700,97.27,0.5,100.0,82.0,25148.0,4880.0,99.0,66.0,19.0,4890.0,28.31148,0.6279963,0.0080792435,0.053276345,-1.257887,41.28,0.0086555325,0.05930322,-1.25102,0.02580469,0.02669528,0.0349567,-4.0,1.0,63.0,-74.0,0.0,277.0,-1066.0,0.0,315.0,1022.167,-0.03007812,3278.0,0.0086555325,0.0016280275,0.05930322,0.001265542,-1.25102,0.0003657152,41290.0,28829.0,0.0,-2.0,2.0,-7.0,0,None
2022-12-29 14:55:54.250,97.77,0.5,100.0,125.0,25060.0,4864.0,99.0,341.0,19.0,4885.0,28.15046,0.7146213,0.0083702376666666,0.0526204299999999,-1.2585593333333334,41.28,0.0085931476666666,0.0593454033333333,-1.2514166666666666,0.1832159,0.2951747,2.943135,11.0,0.0,69.0,-60.0,1.0,286.0,-1068.0,18.0,319.0,1022.185,-0.01257813,3278.0,0.0085931476666666,-0.0026541555,0.0593454033333333,0.0028668420666666,-1.2514166666666666,0.002725951,41290.0,28828.0,0.0,-2.0,1.0,-7.0,0,None
2022-12-29 14:55:54.800,98.29,0.5200000000000102,100.0,133.0,25131.0,4887.0,99.0,118.0,19.0,4890.0,28.02944,0.78446,0.0079037945,0.053649845,-1.258633,41.28,0.008713257,0.05928016,-1.2517955,0.1058455,0.1247788,0.5884463,-12.0,-1.0,62.0,-62.0,2.0,276.0,-1072.0,7.0,313.0,1022.205,0.007421875,3279.0,0.008713257,0.002717983,0.05928016,0.0007417433499999,-1.2517955,-0.002888467,41290.0,28827.0,0.0,-2.0,1.0,-8.0,0,None
2022-12-29 14:55:55.350,98.79,0.5,100.0,115.0,25091.0,4859.0,99.0,128.0,20.0,4888.0,27.90283,0.8981838,0.0082041416666666,0.0533200266666666,-1.2588356666666665,41.27666666666667,0.0086719686666666,0.0593867033333333,-1.2518333333333334,0.06784777,0.1630353,0.3290882,-4.0,-1.0,67.0,-57.0,1.0,282.0,-1060.0,16.0,311.0,1022.186,-0.01132812,3279.0,0.0086719686666666,0.0015683601333333,0.0593867033333333,0.0009731242999999,-1.2518333333333334,0.0021874896666666,41280.0,28826.0,-10.0,-2.0,1.0,-9.0,0,None
2022-12-29 14:55:55.900,99.541,0.5004999999999953,100.0,1465.0,24550.0,4882.5,99.0,1015.0,20.5,4874.0,27.80691,1.0292023499999998,0.0232245277499999,0.0534935666666666,-1.2579128333333334,41.35833333333333,0.0232124789166666,0.0585150875,-1.2495096666666663,0.262495855,0.7572826500000001,1.9818356,18.5,-41.5,35.0,-25.0,-12.5,277.0,-1168.0,28.0,291.5,1022.4275,0.2305858999999999,3281.5,0.0232124789166666,-0.0146050315833333,0.0585150875,-0.039850825,-1.2495096666666663,0.0039281825,41435.0,28846.0,145.0,17.0,23.0,49.5,0,None
2022-12-29 14:55:56.450,100.291,0.5,100.0,1779.0,24363.0,4885.0,99.0,1643.0,24.0,4885.0,27.73071,1.135298,-0.0010479234999999,-0.0053371274999999,-1.251583,42.075,-0.0009034289999999,-0.000852935,-1.241335,0.3857398,1.23884,2.539273,-9.0,-106.0,45.0,1.0,-97.0,259.0,-1260.0,35.0,308.0,1022.098,-0.09953125,3282.0,-0.0009034289999999,-0.09490363,-0.000852935,-0.1296917,-1.241335,0.0041562349999999,42410.0,28891.0,1120.0,32.0,44.0,194.0,0,None
2022-12-29 14:55:57.000,100.791,0.5,100.0,1699.0,24373.0,4872.0,99.0,1809.0,26.0,4858.0,27.83045,1.197346,-0.0302123666666666,-0.0352554633333333,-1.2529016666666666,43.21666666666667,-0.02859175,-0.0285414466666666,-1.2422453333333332,0.3672571,1.646941,2.672076,-12.0,3.0,68.0,-50.0,2.0,236.0,-1178.0,11.0,309.0,1021.931,-0.2657031,3283.0,-0.02859175,-0.0222299763333333,-0.0285414466666666,-0.0025135884666666,-1.2422453333333332,-0.012677787,43720.0,28871.0,2430.0,21.0,22.0,274.0,0,None
2022-12-29 14:55:57.550,101.291,0.5,100.0,1623.0,24386.0,4869.0,99.0,1624.0,28.0,4874.0,27.85204,1.225855,-0.028382775,-0.0301029999999999,-1.2573985,44.725,-0.02619063,-0.02408329,-1.2736649999999998,0.5460482,1.068202,2.331485,0.0,19.0,60.0,-8.0,34.0,225.0,-1158.0,31.0,292.0,1021.775,-0.4225781,3283.0,-0.02619063,0.030500805,-0.02408329,0.020457595,-1.2736649999999998,-0.0114036514,45320.0,28541.0,4030.0,11.0,2.0,314.0,0,None
2022-12-29 14:55:58.100,101.792,0.5010000000000048,100.0,1421.0,24402.0,4875.0,99.0,1560.0,31.0,4869.0,27.65785,1.249429,-0.0163370166666666,-0.0235613966666666,-1.2582113333333331,46.406666666666666,-0.0156518433333333,-0.0186934566666666,-1.300332,0.2688304,1.132534,2.295758,-21.0,38.0,59.0,-5.0,14.0,236.0,-1068.0,12.0,313.0,1021.561,-0.6361719,3284.0,-0.0156518433333333,0.0097436886666666,-0.0186934566666666,0.0115018287,-1.300332,0.0244478353333333,47030.0,28554.0,5740.0,1.0,-9.0,324.0,0,None
2022-12-29 14:55:58.650,102.292,0.5,100.0,1098.0,24548.0,4850.0,99.0,1341.0,33.0,4875.0,27.38633,1.250326,-0.015704625,-0.0180448,-1.259831,48.065,-0.014916645,-0.01327948,-1.300393,0.6129029,1.200765,2.135453,-39.0,-1.0,56.0,-27.0,-31.0,227.0,-940.0,-28.0,304.0,1021.404,-0.793125,3285.0,-0.014916645,-9.08654999999996e-05,-0.01327948,-0.0052865345,-1.300393,0.00602978,48600.0,28547.0,7310.0,-2.0,-16.0,269.0,0,None
2022-12-29 14:55:59.200,102.792,0.5,100.0,976.0,24591.0,4871.0,99.0,1016.0,34.0,4874.0,26.82685,1.235708,-0.009649664,-0.011806044,-1.261495,49.32333333333333,-0.008770855,-0.0075076253333333,-1.300684333333333,0.6905931,1.024839,1.373543,22.0,38.0,55.0,-28.0,46.0,245.0,-888.0,12.0,310.0,1021.248,-0.9491406,3286.0,-0.008770855,0.0388757366666666,-0.0075076253333333,0.02801484,-1.300684333333333,-0.0056193823333333,49690.0,28550.0,8400.0,-4.0,-18.0,168.0,0,None
2022-12-29 14:55:59.750,103.291,0.4989999999999952,100.0,851.0,24654.0,4871.0,99.0,941.0,35.0,4875.0,26.60693,1.218995,0.003943261,-0.004595198,-1.2614405,50.105,0.002952349,3.703599999999995e-05,-1.298741,0.5255346,1.285496,1.793874,1.0,18.0,67.0,55.0,0.0,259.0,-855.0,11.0,326.0,1021.131,-1.065625,3286.0,0.002952349,0.01714146,3.703599999999995e-05,0.0096810305,-1.298741,0.0031675705,50280.0,28563.0,8990.0,-4.0,-15.0,71.0,0,None
2022-12-29 14:56:00.300,103.814,0.5229999999999961,100.0,1116.0,24563.0,4882.0,99.0,1004.0,37.0,4890.0,26.45349,1.191093,0.008947823,-0.007232162,-1.2629593333333335,50.43333333333333,0.009693515,-0.0051679073333333,-1.2993836666666667,0.8031655,0.8835449,2.258263,-12.0,-21.0,55.0,-26.0,13.0,233.0,-1007.0,12.0,308.0,1021.082,-1.114844,3287.0,0.009693515,0.0182397,-0.0051679073333333,-0.015049502,-1.2993836666666667,-0.0057955796666666,50500.0,28547.0,9210.0,-4.0,-6.0,24.0,0,None
2022-12-29 14:56:00.850,104.314,0.5,100.0,1152.0,24553.0,4880.0,99.0,1145.0,38.0,4890.0,26.44049,1.172237,0.009306407,-0.01268638,-1.268501,50.58,0.008969277,-0.010450185,-1.3036275,0.6475093,0.8146498,2.901223,0.0,-3.0,57.0,-25.0,-28.0,240.0,-1075.0,19.0,305.0,1021.08,-1.117422,3288.0,0.008969277,-0.011767085,-0.010450185,0.00114661665,-1.3036275,-0.0085552712,50620.0,28523.0,9330.0,-7.0,0.0,9.0,0,None
2022-12-29 14:56:01.400,105.064,0.5,100.0,1147.0,24544.5,4873.0,99.0,1136.5,40.5,4876.0,26.670585,1.1302205,-0.0046829483999999,-0.0087063384166666,-1.2756754166666666,50.72583333333333,-0.0040444394166666,-0.0065465694166666,-1.308473166666667,0.60153565,0.9086398,3.145194,-18.0,10.5,54.5,17.5,5.0,248.5,-1027.5,-2.5,338.0,1021.06,-1.1371875,3289.5,-0.0040444394166666,-0.0051755261666666,-0.0065465694166666,0.0051002499166666,-1.308473166666667,-0.0053633666666667,50755.0,28499.0,9465.0,-11.5,1.5,-2.5,0,None
2022-12-29 14:56:01.950,105.814,0.5,100.0,1133.0,24518.0,4862.0,99.0,1129.0,43.0,4895.0,26.89094,1.087097,-0.0060270696666666,-0.0027038906666666,-1.2816516666666666,50.81333333333333,-0.005073925,-0.0021896619999999,-1.3118196666666668,0.38588,1.231111,4.260549,-42.0,8.0,61.0,-28.0,16.0,238.0,-1081.0,-23.0,314.0,1021.051,-1.145781,3290.0,-0.005073925,0.0185978543333333,-0.0021896619999999,0.0073479063333333,-1.3118196666666668,-0.0038220433333333,50830.0,28482.0,9540.0,-11.0,1.0,-8.0,0,None
2022-12-29 14:56:02.500,106.314,0.5,100.0,1124.0,24527.0,4883.0,99.0,1128.0,45.0,4890.0,26.96418,1.065052,-0.0015506152,-0.0033003795,-1.282264,50.845,-0.001787618,-0.0017887355,-1.3112005,0.5364248,1.052492,4.060203,-15.0,10.0,54.0,-52.0,2.0,254.0,-1045.0,12.0,312.0,1021.039,-1.158281,3292.0,-0.001787618,-0.0017300365,-0.0017887355,0.0099873765,-1.3112005,-0.0082559,50860.0,28491.0,9570.0,-10.0,3.0,-12.0,0,None
2022-12-29 14:56:03.050,106.854,0.5400000000000063,100.0,1177.0,24505.0,4888.0,99.0,1172.0,46.0,4890.0,27.04686,1.032327,-0.0052143773333333,0.0006420925,-1.2831176666666666,50.86333333333334,-0.0046040726666666,0.0020525751,-1.310713,0.3786647,1.193779,4.088298,2.0,12.0,48.0,3.0,12.0,250.0,-1074.0,24.0,311.0,1021.055,-1.141719,3292.0,-0.0046040726666666,-0.00762769,0.0020525751,0.016384982,-1.310713,0.0128510443333333,50870.0,28489.0,9580.0,-9.0,4.0,-11.0,0,None
2022-12-29 14:56:03.600,107.354,0.5,100.0,1137.0,24497.0,4887.0,99.0,1116.0,48.0,4874.0,27.05265,1.011963,-0.0079861625,0.0072249014999999,-1.2840965,50.87,-0.008127197,0.0078757869999999,-1.3101025,0.5366971,0.8240939,3.930806,-14.0,-3.0,47.0,-3.0,-13.0,255.0,-1090.0,-16.0,322.0,1021.055,-1.141641,3293.0,-0.008127197,-0.0027910804999999,0.0078757869999999,0.0086729035,-1.3101025,-0.0171166099999999,50870.0,28496.0,9580.0,-4.0,4.0,-11.0,0,None
2022-12-29 14:56:04.150,107.874,0.519999999999996,100.0,1153.0,24529.0,4888.0,99.0,1155.0,49.0,4893.0,26.9149,0.9856953,-0.010006472,0.0028154724666666,-1.2853916666666667,50.87,-0.0095112983333333,0.0032318592333333,-1.3099826666666667,0.4607814,1.191495,3.935929,-18.0,-4.0,61.0,-34.0,8.0,281.0,-1076.0,-2.0,322.0,1021.061,-1.135937,3294.0,-0.0095112983333333,0.0086058806666666,0.0032318592333333,-0.0134909283333333,-1.3099826666666667,0.006236999,50870.0,28496.0,9580.0,1.0,4.0,-13.0,0,None
2022-12-29 14:56:04.700,108.374,0.5,100.0,1162.0,24501.0,4887.0,99.0,1184.0,51.0,4888.0,26.61114,0.9627351,-0.007055165,-0.002180902,-1.2853935,50.86,-0.0065122524999999,-0.0014873257499999,-1.308727,0.6224697,0.9365823,3.575696,-14.0,-12.0,51.0,-3.0,20.0,217.0,-1061.0,23.0,296.0,1021.073,-1.124453,3295.0,-0.0065122524999999,0.0039002738,-0.0014873257499999,0.0001618435,-1.308727,0.008850193,50860.0,28502.0,9570.0,2.0,5.0,-10.0,0,None
2022-12-29 14:56:05.250,108.894,0.5200000000000102,100.0,1142.0,24514.0,4883.0,99.0,1175.0,53.0,4891.0,26.35408,0.9478251,-0.0062153403333333,-0.005963331,-1.2862856666666669,50.85,-0.00581899,-0.0045052239999999,-1.308676,0.4496933,1.131388,3.153839,-15.0,-12.0,63.0,23.0,-18.0,272.0,-1071.0,-10.0,340.0,1021.053,-1.14375,3295.0,-0.00581899,-0.0007427473333333,-0.0045052239999999,-0.0019372133333333,-1.308676,-0.0051290803333333,50850.0,28501.0,9560.0,2.0,4.0,-11.0,0,None
2022-12-29 14:56:05.800,109.394,0.5,100.0,1168.0,24503.0,4880.0,99.0,1162.0,55.0,4887.0,25.90054,0.925787,-0.0080038203333333,-0.0059511753333333,-1.2883846666666667,50.85,-0.0075618086666666,-0.0047992423333333,-1.309756666666667,0.4951395,1.129972,3.119734,-36.0,6.0,59.0,-33.0,10.0,243.0,-1066.0,-21.0,294.0,1021.07,-1.127187,3296.0,-0.0075618086666666,-0.0006985436666666,-0.0047992423333333,-0.0061707596666666,-1.309756666666667,-0.0050390533333333,50850.0,28499.0,9560.0,3.0,4.0,-10.0,0,None
2022-12-29 14:56:06.350,109.934,0.539999999999992,100.0,1171.0,24485.0,4883.0,99.0,1136.0,56.0,4890.0,25.56793,0.9105138,-0.0070748289999999,-0.0103669575,-1.2888695,50.85,-0.006825584,-0.0090093405,-1.309241,0.4701881,0.9363298,2.719246,-15.0,-11.0,61.0,-21.0,10.0,258.0,-1077.0,20.0,309.0,1021.075,-1.121953,3297.0,-0.006825584,0.00011631,-0.0090093405,-0.01321046,-1.309241,0.021927255,50850.0,28498.0,9560.0,2.0,4.0,-9.0,0,None
2022-12-29 14:56:06.900,110.434,0.5,100.0,1175.0,24480.0,4859.0,99.0,1177.0,58.0,4879.0,25.02212,0.8866262,-0.0061255523333333,-0.010314482,-1.287352,50.85,-0.0052938616666666,-0.0088037033333333,-1.3067460000000002,0.3818814,1.308535,2.605702,-9.0,-4.0,60.0,38.0,3.0,234.0,-1055.0,9.0,295.0,1021.039,-1.157656,3297.0,-0.0052938616666666,0.0093877946666666,-0.0088037033333333,0.0105573029999999,-1.3067460000000002,0.0053529333333333,50850.0,28518.0,9560.0,0.0,2.0,-10.0,0,None
2022-12-29 14:56:07.450,110.954,0.519999999999996,100.0,1162.0,24445.0,4882.0,99.0,1159.0,59.0,4875.0,24.63664,0.869931,-0.004602206,-0.0047440425,-1.283757,50.85,-0.0040904165,-0.003894545,-1.302359,0.6205376,0.8790611,3.401151,-32.0,11.0,63.0,-46.0,5.0,259.0,-1067.0,-8.0,331.0,1021.037,-1.160547,3298.0,-0.0040904165,-0.000988526,-0.003894545,0.0151853,-1.302359,-0.0012082819999999,50850.0,28546.0,9560.0,-1.0,3.0,-9.0,0,None
2022-12-29 14:56:08.000,111.454,0.5,100.0,1175.0,24471.0,4883.0,99.0,1129.0,61.0,4856.0,24.0303,0.8446873,-0.0035175523,-0.0014852129333333,-1.282376,50.86333333333334,-0.0026835281333333,-0.0004416297666666,-1.300616,0.5547043,0.9997291,3.946796,0.0,15.0,69.0,18.0,35.0,269.0,-1028.0,16.0,321.0,1021.073,-1.124141,3299.0,-0.0026835281333333,0.004046709,-0.0004416297666666,0.0095144276666666,-1.300616,0.006966789,50870.0,28548.0,9580.0,0.0,2.0,-12.0,0,None
2022-12-29 14:56:08.550,111.994,0.5400000000000063,100.0,1154.0,24466.0,4885.0,99.0,1145.0,63.0,4864.0,23.38845,0.8207212,-0.000657499,-0.0033516016,-1.2895763333333334,50.85666666666666,-0.0004110555666666,-0.0025359674,-1.3065913333333332,0.555118,0.891547,3.024531,-22.0,-16.0,51.0,-50.0,1.0,263.0,-1043.0,-16.0,353.0,1021.061,-1.135859,3300.0,-0.0004110555666666,0.0031359023333333,-0.0025359674,-0.0120007135999999,-1.3065913333333332,-0.01741632,50860.0,28515.0,9570.0,2.0,6.0,-11.0,0,None
2022-12-29 14:56:09.100,112.764,0.509999999999998,100.0,1161.0,24439.5,4882.5,99.0,1173.0,65.5,4866.5,22.643925,0.7936637,-0.0044697537499999,-0.0048011770833333,-1.2955185833333334,50.8425,-0.0043464889166666,-0.0035983832666666,-1.3113278333333334,0.50847245,1.06345465,3.798152,-19.5,1.0,61.0,7.0,-3.0,249.0,-1065.5,-7.0,308.0,1021.083,-1.114258,3300.5,-0.0043464889166666,0.0040502576916666,-0.0035983832666666,0.008044668,-1.3113278333333334,0.0044857743999999,50845.0,28488.5,9555.0,0.0,5.5,-8.0,0,None
2022-12-29 14:56:09.650,113.534,0.5200000000000102,100.0,1154.0,24429.0,4880.0,99.0,1191.0,68.0,4875.0,21.86747,0.7675148,-0.0036477259999999,-0.000282185,-1.2939015,50.84,-0.002380002,-0.000163929075,-1.3084075,0.4109628,1.116717,3.657502,-6.0,4.0,56.0,-28.0,10.0,254.0,-1048.0,11.0,346.0,1021.059,-1.138203,3302.0,-0.002380002,0.003959025,-0.000163929075,0.003107755715,-1.3084075,0.0212563,50840.0,28500.0,9550.0,0.0,6.0,-7.0,0,None
2022-12-29 14:56:10.200,114.054,0.519999999999996,100.0,1165.0,24459.0,4867.0,99.0,1154.0,69.0,4743.0,21.15555,0.7464985,-0.0006627770666666,0.00110948834,-1.2883373333333334,50.84,0.0001658197999999,0.0016710614666666,-1.302284,0.5090399,0.9510166,3.92931,-16.0,15.0,66.0,12.0,32.0,268.0,-1046.0,25.0,307.0,1021.083,-1.114219,3302.0,0.0001658197999999,-0.0029080093333333,0.0016710614666666,-0.0009794276666666,-1.302284,0.0026240172666666,50840.0,28543.0,9550.0,1.0,6.0,-9.0,0,None
2022-12-29 14:56:10.750,114.3584,0.1002000000000009,100.0,1141.0,24349.0,4882.0,99.0,1151.4,71.8,4854.0,20.866614,0.7385830200000001,-0.002178244,0.003133402,-1.2872835,50.85,-0.00122853355,0.0031543875,-1.299557,0.51278146,0.96701186,3.0458876,-25.0,0.6,52.2,-22.8,-2.6,246.4,-1074.2,-8.6,316.2,1021.0604,-1.1365938,3303.4,-0.00122853355,0.0026716795,0.0031543875,0.0033518595,-1.299557,0.0127187855,50850.0,28553.0,9560.0,1.0,9.0,-9.0,0,None
2022-12-29 14:56:11.300,114.94833333333334,0.1099999999999993,100.0,1157.5,24423.5,4880.5,99.0,1155.8333333333333,73.83333333333333,4856.833333333333,20.09402166666667,0.71716515,-0.0037741726666666,0.0031656033333333,-1.2853493333333332,50.85,-0.0029948453333333,0.0025834653333333,-1.2970296666666667,0.47981405,1.0312064333333335,3.566666833333333,-7.666666666666667,-2.583333333333333,55.0,-2.9166666666666665,-2.583333333333333,224.0,-1063.5833333333333,21.25,297.5,1021.0633333333332,-1.1339060833333334,3304.333333333333,-0.0029948453333333,-0.0026757716666666,0.0025834653333333,-0.0013317688999999,-1.2970296666666667,0.0190037593333333,50850.0,28568.0,9560.0,3.0,10.0,-9.0,0,None
2022-12-29 14:56:11.850,115.523,0.1039999999999991,100.0,1160.0,24405.0,4890.0,99.0,1135.6,75.4,4825.4,19.470212000000004,0.7001380599999999,-0.0066448693333333,-0.0014172733333333,-1.2806176666666664,50.85,-0.0057905126666666,-0.0018264968333333,-1.2916893333333332,0.55064264,1.02150416,3.3332398000000003,-11.2,-2.8,64.0,-35.8,-6.4,259.2,-1061.6,10.0,322.6,1021.0682,-1.1286406,3305.0,-0.0057905126666666,-0.0204211266666666,-0.0018264968333333,-0.0063852566666666,-1.2916893333333332,0.0075036955666666,50850.0,28595.0,9560.0,6.0,10.0,-9.0,0,None
2022-12-29 14:56:12.400,116.059,0.1080000000000012,100.0,1195.0,24418.0,4890.0,99.0,1156.8,77.0,4887.2,18.782318,0.68383762,-0.0050176855,-0.0023727124999999,-1.278203,50.845,-0.004514554,-0.0021928855,-1.289188,0.4279034,0.98443114,3.5265227999999995,-21.4,0.6,70.8,-30.4,11.2,248.6,-1065.8,-3.4,310.6,1021.0704,-1.126703,3306.0,-0.004514554,0.0002288494999999,-0.0021928855,-0.002812644,-1.289188,0.0199293845,50850.0,28608.0,9560.0,6.0,9.0,-9.0,0,None
2022-12-29 14:56:12.950,116.583,0.1039999999999991,100.0,1115.0,24266.0,4761.0,99.0,1153.0,79.0,4853.8,18.045648,0.6685071,-0.005172614,-0.0044566386666666,-1.2778063333333334,50.84666666666666,-0.0042937766666666,-0.003477213,-1.2889793333333337,0.4226626599999999,1.0449574599999998,3.3568222,-28.5,-2.8,62.6,-3.6,-1.6,245.4,-1077.3,-17.0,315.8,1021.055,-1.1422189,3306.2,-0.0042937766666666,-0.0010132,-0.003477213,0.0020534433333333,-1.2889793333333337,0.013936918,50840.0,28615.0,9550.0,5.0,9.0,-9.0,0,None
2022-12-29 14:56:13.500,117.16166666666668,0.103333333333334,100.0,1176.0,24407.0,4887.0,99.0,1169.5,80.83333333333333,4890.666666666667,17.308583333333335,0.6537231666666666,-0.004552655,-0.0027998056666666,-1.278137,50.85999999999999,-0.0042468403333333,-0.0030559416666666,-1.2887756666666668,0.4527445833333333,0.99492875,3.281483833333333,-9.833333333333334,5.0,65.16666666666667,0.0,5.5,246.5,-1056.1666666666667,10.0,313.6666666666667,1021.0586666666668,-1.1383593333333333,3307.333333333333,-0.0042468403333333,-0.0001781006666666,-0.0030559416666666,0.005115345,-1.2887756666666668,-2.7433333333332897e-05,50860.0,28614.0,9570.0,4.0,8.0,-11.0,0,None
2022-12-29 14:56:14.050,117.715,0.0999999999999999,100.0,1188.0,24383.0,4888.0,99.0,1174.4,82.6,4825.8,16.543616,0.63906474,-0.007140904,-0.0038755515,-1.281143,50.86,-0.0072067865,-0.0027516415,-1.291452,0.51916934,1.01844812,2.9770516,-11.0,-0.2,63.4,-33.8,-9.4,261.4,-1071.8,-2.0,329.8,1021.0612,-1.1359218000000002,3308.0,-0.0072067865,-0.0049390265,-0.0027516415,-0.003165489,-1.291452,-0.02278216,50860.0,28614.0,9570.0,5.0,8.0,-12.0,0,None
2022-12-29 14:56:14.600,118.235,0.1039999999999991,100.0,1173.0,24265.0,4882.0,99.0,1174.6,84.4,4882.0,15.758622,0.62588512,-0.008094391,-0.0052966243333333,-1.2848866666666667,50.85999999999999,-0.0069274156666666,-0.0042136276666666,-1.294306,0.3950821999999999,1.04274352,2.841573,-22.0,0.8,60.8,6.0,10.4,254.4,-1065.6,-9.8,313.6,1021.065,-1.1322188,3308.6,-0.0069274156666666,0.0142891673333333,-0.0042136276666666,0.0052508292,-1.294306,0.0059370773333333,50860.0,28583.0,9570.0,4.0,5.5,-10.5,0,None
2022-12-29 14:56:15.150,118.751,0.1039999999999991,100.0,1188.0,24339.0,4880.0,99.0,1182.0,86.0,4881.8,14.989566,0.61383328,-0.005300088,-0.0036990155,-1.2866685,50.86,-0.0048406905,-0.0034073289999999,-1.2956195,0.48113838,1.0292424,2.6535552,-9.4,5.0,60.0,-35.8,-1.6,241.0,-1070.0,7.2,303.4,1021.0714,-1.1255936,3309.2,-0.0048406905,0.000385551,-0.0034073289999999,-0.0010956554999999,-1.2956195,-0.016572925,50850.0,28578.0,9560.0,4.0,5.0,-10.0,0,None
2022-12-29 14:56:15.700,119.30300000000004,0.1120000000000004,100.0,1151.0,24323.0,4714.0,99.0,1171.8,87.6,4797.0,13.970498,0.5991476600000001,-0.0085086813333333,-0.0043331263333333,-1.2884400000000005,50.85,-0.0077032003333333,-0.0029913086666666,-1.297668,0.51515826,1.02076112,2.3905306,-20.3,-5.1,57.8,2.5,-1.1,230.3,-1072.4,-17.1,293.2,1021.0569,-1.1402421,3310.0,-0.0077032003333333,-0.0060727696666666,-0.0029913086666666,-0.0045318830666666,-1.297668,-0.019576549,50860.0,28555.0,9570.0,5.0,2.0,-8.0,0,None
2022-12-29 14:56:16.250,119.89166666666664,0.1066666666666667,100.0,1176.5,24388.0,4893.0,99.0,1170.0,89.5,4885.0,12.966853333333331,0.5854798333333333,-0.0060459616666666,-0.0068813156666666,-1.2962403333333334,50.85999999999999,-0.0047033536666666,-0.0051195906666666,-1.3042433333333334,0.5110796166666666,0.9922729666666666,2.406457833333334,-12.333333333333334,0.3333333333333333,55.66666666666666,-14.5,19.33333333333333,255.16666666666663,-1060.3333333333333,-1.1666666666666667,327.0,1021.079,-1.1181901666666665,3311.1666666666665,-0.0047033536666666,0.0210849,-0.0051195906666666,-0.0013513603333333,-1.3042433333333334,-0.009873328,50860.0,28514.0,9570.0,4.0,0.0,-9.0,0,None
2022-12-29 14:56:16.800,120.459,0.1039999999999991,100.0,1154.0,24266.0,4883.0,99.0,1176.8,91.4,4797.0,11.904616,0.57205608,0.002246306,-0.0057753499999999,-1.3023566666666666,50.85,0.002919464,-0.0041065833333333,-1.3097383333333334,0.44937524,1.04297414,2.4098954000000004,-19.2,7.0,55.4,-1.8,8.8,254.8,-1066.2,-11.4,313.6,1021.0658,-1.1312658,3311.8,0.0030643883333333,0.0102164215266666,-0.0040393716666666,0.007048522,-1.3097043333333334,-0.0085135636666666,50850.0,28495.0,9560.0,2.0,1.0,-8.0,0,None
2022-12-29 14:56:17.350,120.991,0.1080000000000012,100.0,1174.0,24336.0,4869.0,99.0,1178.2,93.4,4879.4,10.75402,0.5582459999999999,-0.0299208516666666,-0.0040507006666666,-1.3023923333333334,50.86000000000001,-0.0291185106666666,-0.0020667283333333,-1.3093196666666669,0.50669486,1.104893,2.2769138,-18.5,0.4,57.5,-24.1,-108.9,253.1,-1075.3,5.0,314.8,1021.0655,-1.1315704,3312.3,-0.0291185106666666,-0.1437238199999999,-0.0020667283333333,0.0048746749999999,-1.3093196666666669,0.0043754399999999,50860.0,28497.0,9570.0,2.0,2.0,-8.0,0,None
2022-12-29 14:56:17.900,121.55833333333332,0.099999999999999,100.0,1438.0,24287.0,4874.0,99.0,1349.8333333333333,95.16666666666669,4804.5,9.722210833333332,0.5451046833333333,-0.1150644033333333,-0.0037612166666666,-1.298851,50.95333333333334,-0.1128839099999999,-0.0017808216666666,-1.305855,0.4351750833333334,1.1467762833333337,2.7012211666666666,-21.666666666666668,2.0,90.33333333333331,-5.5,-86.0,250.16666666666663,-1140.3333333333333,21.33333333333333,295.8333333333333,1021.051,-1.146171833333333,3313.0,-0.1128839099999999,-0.06667936,-0.0017808216666666,0.001239385,-1.305855,0.0181862896666666,50900.0,28508.0,9610.0,10.0,-28.0,8.0,0,None
2022-12-29 14:56:18.450,122.143,0.1080000000000012,100.0,1164.0,24322.0,4883.0,99.0,1191.8,97.4,4882.0,8.795528200000001,0.53051094,-0.1252171,-0.003882681,-1.296376,51.205,-0.1218393,-0.003913267,-1.3028905000000002,0.39691236,1.1503671599999998,4.2578576,-26.8,-7.0,100.2,-17.2,18.8,256.6,-1083.8,5.6,310.6,1021.0246,-1.1723903999999998,3313.8,-0.1216542,0.020950235,-0.0037274409999999,-0.00138308455,-1.3028165,-0.0092050085,51130.0,28535.0,9840.0,28.0,-89.0,41.0,0,None
2022-12-29 14:56:19.000,122.655,0.0999999999999999,100.0,1208.0,24318.0,4882.0,99.0,1205.2,99.0,4885.2,8.0017912,0.51637594,-0.1164500333333333,-0.0135904403333333,-1.2972683333333332,51.45666666666667,-0.1142168,-0.0120996176666666,-1.3040516666666668,0.4525457999999999,1.1351804,4.5598112,-31.6,-22.8,100.2,-4.8,5.0,240.0,-1076.4,-13.2,287.2,1020.9864,-1.2107034,3314.2,-0.1142168,0.004695655,-0.0120996176666666,-0.0138627363333333,-1.3040516666666668,-0.0090077866666666,51400.0,28543.0,10110.0,45.0,-143.0,38.0,0,None
2022-12-29 14:56:19.550,123.18300000000002,0.1079999999999983,100.0,1175.0,24222.0,4735.0,99.0,1197.6,100.8,4884.4,7.0410122,0.5018277600000001,-0.11452065,-0.018100505,-1.302293,51.71,-0.1137273,-0.01629775,-1.308347,0.49124578,1.05774116,5.806305399999999,-38.9,4.4,92.7,-6.5,1.1,248.0,-1050.4,-7.5,314.4,1020.9445,-1.2525861,3315.0,-0.1137273,0.0036111909999999,-0.01629775,0.00202249075,-1.308347,-0.0119501165,51640.0,28508.0,10350.0,56.0,-192.0,39.0,0,None
2022-12-29 14:56:20.100,123.74833333333332,0.1000000000000014,100.0,1203.0,24339.0,4871.0,99.0,1170.6666666666667,102.83333333333331,4877.666666666667,5.831869166666666,0.4869159166666667,-0.1190062666666666,-0.01577169,-1.3056733333333332,51.98333333333333,-0.1196244333333333,-0.01409806,-1.310533,0.5342752000000001,1.0970662666666666,7.097741166666668,-45.16666666666666,0.0,94.83333333333331,-6.0,-18.5,242.8333333333333,-1088.0,-6.333333333333333,302.5,1020.9159999999998,-1.2811199999999998,3316.0,-0.1196244333333333,-0.0094299046666666,-0.01409806,0.0110845109999999,-1.310533,-0.0172185986666666,51920.0,28491.0,10630.0,65.0,-237.0,38.0,0,None
2022-12-29 14:56:20.650,124.315,0.1039999999999991,100.0,1194.0,24364.0,4885.0,99.0,1181.0,104.6,4790.0,4.46776,0.47271424,-0.1289544666666666,-0.0177387333333333,-1.308058,52.29333333333333,-0.1299126,-0.01668045,-1.312142666666667,0.5466333800000001,1.09411952,8.0876364,-55.8,-0.4,100.6,-15.2,0.0,248.2,-1049.0,2.8,308.4,1020.9112,-1.2857967999999995,3316.6,-0.1299139333333333,-0.0089225423333333,-0.0166658533333333,-0.0076101,-1.31228,-0.0056199613333333,52180.0,28484.0,10890.0,77.0,-279.0,36.0,0,None
2022-12-29 14:56:21.200,124.835,0.1039999999999991,100.0,1140.0,24356.0,4887.0,99.0,1138.6,106.0,4886.0,2.8634097999999994,0.4593806199999999,-0.1316082,-0.0222515199999999,-1.30435,52.53,-0.13392315,-0.02038654,-1.3085585000000002,0.55795888,1.13801136,7.7229472,-62.2,-13.2,105.2,2.4,-7.8,250.8,-1073.2,-2.0,303.4,1020.904,-1.2932187999999998,3317.2,-0.13392315,-0.022243895,-0.02038654,-0.026049727,-1.3085585000000002,-0.0088172895,52420.0,28496.0,11130.0,85.0,-322.0,38.0,0,None
2022-12-29 14:56:21.750,125.375,0.1080000000000012,100.0,1156.0,24376.0,4879.0,99.0,1139.2,108.0,4833.2,1.20920164,0.4474148999999999,-0.1302366333333333,-0.0217896033333333,-1.303011666666667,52.77,-0.1324459333333333,-0.0200727766666666,-1.307137,0.5694967,1.1549044,7.7382598,-66.4,1.6,100.2,3.8,0.4,233.0,-1080.2,3.0,292.8,1020.8832,-1.3140468,3318.0,-0.1324459333333333,-0.0042290006666666,-0.0200727766666666,-0.001052087,-1.307137,0.0009329346666666,52780.0,28509.5,11490.0,97.5,-382.5,43.0,0,None
2022-12-29 14:56:22.300,125.95166666666668,0.1066666666666667,100.0,1095.5,24291.5,4813.5,99.0,1091.5,109.66666666666669,4865.333333333333,-1.3749629166666668,0.43056405,-0.1257779333333333,-0.0220353366666666,-1.303873,53.06999999999999,-0.1279934,-0.0204740133333333,-1.3076903333333332,0.6395291666666667,1.1127745000000002,8.364383166666668,-76.41666666666667,-4.416666666666667,102.66666666666669,-3.6666666666666665,16.0,261.6666666666667,-1071.3333333333333,-12.0,337.3333333333333,1020.85325,-1.3439779166666668,3318.5,-0.1279934,0.0105981899999999,-0.0204740133333333,-0.0133856,-1.3076903333333332,0.0016407463333333,53160.0,28495.0,11870.0,110.0,-435.0,47.0,0,None
2022-12-29 14:56:22.850,126.523,0.1039999999999991,100.0,1053.0,24384.0,4890.0,99.0,1053.0,111.4,4860.2,-3.7053084,0.4173519,-0.1145012333333333,-0.0234759233333333,-1.3092026666666663,53.36000000000001,-0.1172566999999999,-0.0199180599999999,-1.3142313333333333,0.69415008,1.2553242,8.108423,-77.8,3.6,104.0,11.4,16.8,261.6,-1057.4,-8.0,330.8,1020.828,-1.3689218,3319.4,-0.1172566999999999,0.0197732593333333,-0.0199180599999999,0.0071728636666666,-1.3142313333333333,-0.0143400526666666,53400.0,28463.0,12110.0,113.0,-461.0,47.0,0,None
2022-12-29 14:56:23.400,127.04299999999998,0.1039999999999991,100.0,1127.0,24300.0,4883.0,99.0,1109.0,112.8,4830.2,-6.1020676,0.40585536,-0.1133936,-0.015872005,-1.31123,53.605,-0.1154877,-0.012139962,-1.3179145,0.6946913200000001,1.2322832,7.797559600000001,-86.4,25.8,96.4,1.0,12.8,-344.8500000000001,-1082.2,6.0,313.4,1020.794,-1.4029064,3319.8,-0.1154877,-0.0040189599999999,-0.012139962,0.0315270849999999,-1.3179145,0.0082583085,53640.0,28455.0,12350.0,115.0,-485.0,45.0,1,27_ymag_avg_abrupt_-589.6500000000001
2022-12-29 14:56:23.950,127.605,0.1000000000000014,100.0,1023.0,24387.0,4895.0,99.0,1079.8333333333333,114.5,4883.333333333333,-8.722153,0.3947323999999999,-0.0966777633333333,-0.0004354576666666,-1.3031499999999998,53.85,-0.10012203,0.0021343803333333,-1.310687333333333,0.6787099166666666,1.11255185,8.012754333333334,-83.5,6.166666666666667,90.0,-1.5,5.0,-336.81666666666683,-1067.6666666666667,9.333333333333334,308.0,1020.7683333333332,-1.4287501666666669,3320.6666666666665,-0.10012203,0.0164775866666666,0.0021343803333333,0.0059080899999999,-1.310687333333333,0.0277727766666666,53890.0,28501.0,12600.0,122.0,-496.0,48.0,1,27_ymag_avg_abrupt_-589.6500000000001
2022-12-29 14:56:24.500,128.179,0.1080000000000012,100.0,1161.0,24204.0,4893.0,99.0,1020.8,116.4,4857.0,-11.836138,0.38286176,-0.1118689333333333,-0.006053801,-1.3053606666666668,54.09666666666666,-0.1143111,-0.0029533863333333,-1.3131833333333331,0.8589314800000001,1.1419418,6.4544162,-101.2,6.8,94.2,10.3,-17.3,-342.2500000000001,-1032.0,-14.0,305.2,1020.7363,-1.4607734,3321.4,-0.1138079,0.0059663766666666,-0.0026466379999999,-0.0019165991999999,-1.313006,-0.0202121516666666,54090.0,28483.0,12800.0,131.0,-508.0,36.0,1,27_ymag_avg_abrupt_-589.6500000000001
2022-12-29 14:56:25.050,128.711,0.1039999999999963,100.0,935.0,24417.0,4887.0,99.0,993.75,117.75,4889.4,-14.444846000000002,0.37415534,-0.1155779,-0.0027337085,-1.3063185,54.25,-0.11790265,0.0024260495999999,-1.3148855,0.7961478200000001,1.4049078000000002,6.4648754,-69.6,-1.8,104.2,-27.0,4.4,-335.05000000000007,-1019.2,-4.6,313.4,1020.71,-1.4869532000000003,3322.2,-0.11790265,-0.037125445,0.0024260495999999,0.0283298999999999,-1.3148855,-0.00571924,54250.0,28466.0,12960.0,138.0,-522.0,26.0,1,27_ymag_avg_abrupt_-589.6500000000001
2022-12-29 14:56:25.600,129.243,0.108000000000004,100.0,961.0,24439.0,4893.0,99.0,846.6,119.2,4887.4,-17.124989999999997,0.3666459,-0.04248509,0.0034299246666666,-1.3038946666666666,54.31666666666666,-0.0455159033333333,0.0068679536666666,-1.3131553333333337,1.01116022,1.8164152,6.9634452,-112.4,7.0,85.4,-36.8,292.2,-337.4500000000001,-1109.6,-25.4,321.6,1020.722,-1.4751564,3322.6,-0.0455159033333333,0.2863748666666666,0.0068679536666666,0.0061399133333333,-1.3131553333333337,0.01109631,54320.0,28470.0,13030.0,146.0,-529.0,1.0,1,27_ymag_avg_abrupt_-589.6500000000001
2022-12-29 14:56:26.150,129.8216666666667,0.1033333333333293,100.0,968.0,24274.0,4895.0,99.0,837.1666666666666,120.5,4892.833333333333,-19.77318166666667,0.3591555666666666,0.09688704,0.0023882404666666,-1.3015576666666666,54.30666666666667,0.0914146433333333,0.0056349946666666,-1.3097623333333333,0.9523912166666668,1.7662836666666666,11.936896833333334,-72.5,0.1666666666666666,37.16666666666666,14.833333333333334,136.0,-329.6500000000001,-1065.8333333333333,-10.833333333333334,349.6666666666667,1020.7535,-1.4435153333333333,3323.5,0.0914146433333333,0.1164865099999999,0.0056349946666666,0.0185484,-1.3097623333333333,-0.0086892633333333,54310.0,28489.0,13020.0,138.0,-480.0,-1.0,1,27_ymag_avg_abrupt_-589.6500000000001
2022-12-29 14:56:26.700,130.399,0.108000000000004,100.0,960.0,24421.0,4804.5,99.0,936.4,121.8,4850.0,-22.293454,0.35028226,0.08317176,0.0399305133333333,-1.3103136666666666,54.27,0.0777642933333333,0.0447265966666666,-1.3146776666666666,0.87284188,1.8802024,15.055404,-75.7,205.9,28.2,-27.0,-120.8,-326.2500000000001,-1007.2,-4.9,313.6,1020.7315,-1.465664,3324.0,0.0777642933333333,-0.2043692666666666,0.0447265966666666,0.2104628433333333,-1.3146776666666666,-0.0180239466666666,54280.0,28501.0,12990.0,120.0,-395.0,1.0,1,27_ymag_avg_abrupt_-589.6500000000001
2022-12-29 14:56:27.250,130.915,0.0999999999999999,100.0,1096.0,24363.0,4895.0,99.0,988.4,123.4,4837.0,-24.214242,0.3432855,0.0064164055,0.1748986,-1.3171835,54.26,0.004124198,0.17756855,-1.319184,1.000879,1.5100392,12.6422662,-59.2,191.6,49.0,-20.4,-120.6,-297.6500000000001,-1122.4,17.0,267.6,1020.7046,-1.4925624000000002,3324.6,0.004124198,-0.080236625,0.17756855,0.19758315,-1.319184,0.008265807,54260.0,28437.0,12970.0,121.0,-319.0,-2.0,1,27_ymag_avg_abrupt_-589.6500000000001
2022-12-29 14:56:27.800,131.43900000000002,0.1079999999999983,100.0,1023.0,24409.0,4871.0,99.0,1053.0,124.6,4888.4,-25.68202,0.3357562,-0.02885834,0.1767758333333333,-1.309933,54.28333333333334,-0.02878836,0.1783042666666666,-1.3113523333333337,0.88539178,1.2968638,3.337098,-65.8,-177.8,65.6,-19.4,-19.8,-291.4500000000001,-1075.0,22.6,241.0,1020.6483999999998,-1.5485154,3325.4,-0.0282628366666666,-0.0133341966666666,0.1783135333333333,-0.2090276913333333,-1.311362666666667,0.0153584636666666,54270.0,28464.0,12980.0,193.0,-263.0,-5.0,1,27_ymag_avg_abrupt_-589.6500000000001
2022-12-29 14:56:28.350,132.00833333333335,0.103333333333334,100.0,939.0,24265.0,4748.0,99.0,985.3333333333334,126.33333333333331,4816.5,-26.584125,0.3284669833333333,0.0368752106333333,-0.0264590033333333,-1.3030259999999998,54.36666666666667,0.0345584705333333,-0.02128464,-1.3020473333333331,0.6307210166666667,1.2581433333333334,7.936960833333334,-70.33333333333333,-290.5,57.16666666666666,-36.833333333333336,168.5,-328.8166666666668,-1035.1666666666667,27.33333333333333,316.0,1020.5876666666668,-1.609492,3326.0,0.0345584705333333,0.1666709333333333,-0.02128464,-0.2249138833333333,-1.3020473333333331,0.0372181686666666,54360.0,28543.5,13070.0,252.0,-210.0,-5.0,1,27_ymag_avg_abrupt_-589.6500000000001
2022-12-29 14:56:28.900,132.575,0.0999999999999999,100.0,1089.0,24320.0,4890.0,99.0,1001.2,128.0,4892.2,-27.300166,0.32284258,0.10709551,-0.064915455,-1.286659,54.435,0.10432495,-0.056313745,-1.2815735,0.75793192,1.4242174000000003,8.8626662,-55.0,22.0,30.4,-11.4,97.8,-354.6500000000001,-1058.8,20.0,355.2,1020.6344,-1.5625314,3326.8,0.10432495,0.14285514,-0.056313745,0.044628185,-1.2815735,0.0070776949999999,54440.0,28682.0,13150.0,180.0,-138.0,-17.0,1,27_ymag_avg_abrupt_-589.6500000000001
2022-12-29 14:56:29.450,133.125,0.099999999999999,100.0,1223.0,24330.0,4893.0,99.0,1111.5,129.66666666666666,4823.666666666667,-28.075053333333333,0.3190723666666666,0.10022289,-0.0469245233333333,-1.2859373333333333,54.43666666666667,0.0982390133333333,-0.0399389866666666,-1.2766013333333337,0.7042025333333334,1.3135366666666666,8.547911166666667,-50.833333333333336,-5.166666666666667,29.5,-35.333333333333336,-167.83333333333334,-362.31666666666683,-1077.8333333333333,-15.0,336.5,1020.6025,-1.5944661666666666,3327.1666666666665,0.0982390133333333,-0.1523530136666666,-0.0399389866666666,0.00039444,-1.2766013333333337,-0.0167485045666666,54430.0,28688.0,13140.0,122.0,-77.0,-19.0,1,27_ymag_avg_abrupt_-589.6500000000001
2022-12-29 14:56:30.000,133.68699999999998,0.104000000000002,100.0,1000.0,24391.0,4893.0,99.0,1000.0,131.4,4894.8,-28.888032,0.31642714,-0.0239315576666666,-0.08269222,-1.2992746666666666,54.48,-0.022110769,-0.0781737433333333,-1.2857913333333333,0.5898667200000001,1.2500034,8.1668404,-46.5,25.5,72.0,-30.5,-20.9,-358.6500000000001,-1081.8,-50.0,345.5,1020.5575,-1.6395783000000002,3328.2,-0.022110769,-0.0270069533333333,-0.0781737433333333,0.0139570533333333,-1.2857913333333333,-0.0535682433333333,54490.0,28623.0,13200.0,70.0,-76.0,-19.0,1,27_ymag_avg_abrupt_-589.6500000000001
2022-12-29 14:56:30.550,134.199,0.0999999999999999,100.0,1079.0,24361.0,4896.0,99.0,1052.4,132.6,4894.2,-29.705184,0.3141030399999999,0.067717415,-0.0128492769,-1.314555,54.53,0.0707293,-0.01003362,-1.2998065,0.61954122,1.0967846,8.274877800000002,-34.6,110.6,33.6,-12.0,262.4,-348.05000000000007,-1021.8,-1.0,321.2,1020.5936,-1.6035,3328.6,0.0707293,0.3178330499999999,-0.01003362,0.130643975,-1.2998065,0.004087905,54530.0,28550.0,13240.0,35.0,-64.0,-28.0,1,27_ymag_avg_abrupt_-589.6500000000001
2022-12-29 14:56:31.100,134.7483333333333,0.099999999999999,100.0,1190.0,24175.0,4893.0,99.0,1183.6666666666667,134.5,4864.5,-30.7262,0.3132138833333333,0.10835215,0.0152847313333333,-1.319632,54.51333333333333,0.10757513,0.0157262466666666,-1.3038169999999998,0.7441547666666667,1.2939923333333334,5.083562333333333,-37.0,9.666666666666666,15.666666666666666,-21.666666666666668,-206.0,-329.6500000000001,-1070.0,2.333333333333333,322.0,1020.558,-1.6391536666666664,3329.5,0.10757513,-0.1737616366666667,0.0157262466666666,0.0554092866666666,-1.3038169999999998,-0.0036810873333333,54510.0,28527.0,13220.0,17.0,0.0,-26.0,1,27_ymag_avg_abrupt_-589.6500000000001
2022-12-29 14:56:31.650,135.299,0.0999999999999999,100.0,1058.0,24323.0,4891.0,99.0,1060.8,136.2,4891.0,-31.628480000000003,0.31358526,-0.0191347766666666,0.0107582333333333,-1.3238446666666668,54.53,-0.0180547966666666,0.0115477066666666,-1.307107,0.51087274,1.2394942,6.2874438,-29.2,-5.4,58.8,-21.0,-114.0,-335.05000000000007,-1050.6,-1.0,306.4,1020.5594,-1.637703,3330.2,-0.0180547966666666,-0.1405973933333333,0.0115477066666666,-0.0106617533333333,-1.307107,0.0006129856666666,54530.0,28510.0,13240.0,14.0,24.0,-23.0,1,27_ymag_avg_abrupt_-589.6500000000001
2022-12-29 14:56:32.200,135.85166666666666,0.103333333333334,100.0,1078.5,24355.5,4872.0,99.0,1058.6666666666667,137.83333333333334,4821.833333333333,-32.40559666666667,0.3140815,-0.024653602,0.0002339235666666,-1.327604,54.56666666666666,-0.0228644243333333,-8.426340000000007e-05,-1.3109486666666663,0.5915599333333333,1.242036,5.607111499999999,-30.666666666666668,-34.833333333333336,62.5,-10.666666666666666,86.66666666666667,-335.1500000000001,-1063.8333333333333,-14.833333333333334,308.0,1020.5758333333332,-1.6213540000000002,3330.833333333333,-0.0228644243333333,0.0970668399999999,-8.426340000000007e-05,-0.0210695233333333,-1.3109486666666663,-0.0071176816666666,54560.0,28490.0,13270.0,19.0,10.0,-27.0,1,27_ymag_avg_abrupt_-589.6500000000001
2022-12-29 14:56:32.750,136.411,0.0999999999999999,100.0,1119.0,24340.0,4895.0,99.0,1072.6,139.4,4891.8,-33.314092,0.3156118599999999,0.01442645,-0.01775178,-1.334305,54.56,0.013673325,-0.017449755,-1.317846,0.6685863400000001,1.2606868,5.995486399999999,-30.0,-20.4,48.2,-23.4,24.8,-334.8500000000001,-1068.8,-11.6,326.6,1020.5872,-1.6097031999999998,3331.2,0.013673325,0.039597362,-0.017449755,-0.030607965,-1.317846,-0.0220409025,54560.0,28463.0,13270.0,14.0,6.0,-29.0,1,27_ymag_avg_abrupt_-589.6500000000001
2022-12-29 14:56:33.300,136.965,0.099999999999999,100.0,1094.0,24193.0,4755.0,99.0,1087.5,141.16666666666666,4815.333333333333,-34.247265000000006,0.3177376666666667,0.0099172763333333,-0.0086631613333333,-1.3320906666666668,54.54,0.0087304616666666,-0.0087105726666666,-1.3157386666666666,0.6267117666666667,1.0126906833333331,9.4511585,-28.0,33.666666666666664,46.16666666666666,-15.0,-28.83333333333333,-331.8166666666668,-1073.5,13.5,330.1666666666667,1020.5941666666666,-1.6029686666666667,3331.6666666666665,0.0087304616666666,-0.0208851446666666,-0.0087105726666666,0.0417136933333333,-1.3157386666666666,0.0155342133333333,54530.0,28462.5,13240.0,1.5,18.0,-23.0,1,27_ymag_avg_abrupt_-589.6500000000001
2022-12-29 14:56:33.850,137.515,0.0999999999999999,100.0,1095.0,24332.0,4898.0,99.0,1084.4,142.6,4894.8,-35.13901,0.31990586,-0.005362041,-0.0016073230666666,-1.3287006666666668,54.50666666666667,-0.006144619,-0.0011823921666666,-1.313517,0.51157864,1.17963,7.697763599999999,-27.0,-24.0,59.0,-19.8,-3.4,-335.6500000000001,-1064.8,2.0,314.8,1020.6168,-1.5802968000000002,3332.4,-0.006144619,0.0135356303333333,-0.0011823921666666,-0.0210563433333333,-1.313517,0.0066220036666666,54490.0,28483.0,13200.0,0.0,21.0,-22.0,1,27_ymag_avg_abrupt_-589.6500000000001
2022-12-29 14:56:34.400,138.06500000000003,0.099999999999999,100.0,1101.0,24340.0,4896.0,99.0,1101.0,144.5,4895.833333333333,-36.01839666666667,0.3216437333333333,-0.009666753,-0.0116917733333333,-1.3194590000000002,54.47333333333333,-0.011079321,-0.01127781,-1.305892,0.5608915,1.059006433333333,8.182943166666666,-26.33333333333333,-0.8333333333333334,54.0,-16.5,-2.833333333333333,-342.98333333333346,-1075.5,12.5,317.5,1020.6195,-1.5773696666666666,3333.0,-0.011079321,-0.0015559919666666,-0.01127781,0.000420263,-1.305892,0.02779474,54470.0,28532.0,13180.0,-4.0,19.0,-22.0,1,27_ymag_avg_abrupt_-589.6500000000001
2022-12-29 14:56:34.950,138.615,0.0999999999999999,100.0,1120.0,24271.0,4898.0,99.0,1117.4,146.0,4891.0,-36.94352,0.32298868,-0.006195048,-0.012993675,-1.3151125,54.45,-0.0082512435,-0.0133510449999999,-1.3020885,0.5223245000000001,1.07391172,5.768024800000001,-21.2,-16.2,52.6,-13.8,13.6,-334.05000000000007,-1061.8,6.4,326.2,1020.6408,-1.556219,3334.0,-0.0082512435,0.00924296,-0.0133510449999999,-0.021041762,-1.3020885,0.00239021,54440.0,28541.0,13150.0,-8.0,15.0,-16.0,1,27_ymag_avg_abrupt_-589.6500000000001
2022-12-29 14:56:35.500,139.165,0.099999999999999,100.0,1145.0,24330.0,4896.0,99.0,1122.3333333333333,147.83333333333334,4895.833333333333,-37.937303333333325,0.3238820666666666,-0.0023749209,-0.0199506433333333,-1.314925,54.42,-0.004116066,-0.0187542533333333,-1.3025403333333332,0.5258132166666667,1.0567792,5.024383833333332,-20.0,11.0,49.16666666666666,-15.5,5.166666666666667,-345.48333333333346,-1074.5,-7.666666666666667,321.0,1020.649,-1.5482161666666665,3334.6666666666665,-0.004116066,0.0163718842666666,-0.0187542533333333,0.008825793,-1.3025403333333332,-0.0038428192333333,54410.0,28534.0,13120.0,-17.0,14.0,-13.0,1,27_ymag_avg_abrupt_-589.6500000000001
2022-12-29 14:56:36.050,139.731,0.104000000000002,100.0,1100.0,24166.0,4872.0,99.0,1112.6,149.6,4840.4,-39.05404,0.32372172,-0.0028883693333333,-0.011958341,-1.3204023333333332,54.38999999999999,-0.0044483013333333,-0.0109175343333333,-1.3094493333333337,0.47560968,1.07478264,4.2698698,-22.4,4.6,52.4,-9.4,-0.2,-338.05000000000007,-1074.6,-9.8,313.6,1020.6582,-1.5386406000000004,3335.2,-0.0044483013333333,0.0045664016666666,-0.0109175343333333,0.007673302,-1.3094493333333337,-0.0158513156666666,54390.0,28492.0,13100.0,-21.0,13.0,-11.0,1,27_ymag_avg_abrupt_-589.6500000000001
2022-12-29 14:56:36.600,140.285,0.099999999999999,100.0,1138.0,24333.0,4896.0,99.0,1148.3333333333333,151.16666666666666,4895.333333333333,-40.33408666666667,0.3223866999999999,-0.0012685073333333,-0.0080103806666666,-1.320841333333333,54.370000000000005,-0.0036778563333333,-0.007792171,-1.3108756666666668,0.4283212999999999,1.1982835,4.652345333333334,-22.5,10.0,53.333333333333336,-14.0,0.0,-332.3166666666668,-1073.6666666666667,5.166666666666667,329.6666666666667,1020.6688333333336,-1.5282290000000005,3335.6666666666665,-0.0036778563333333,0.0074830726666666,-0.007792171,0.009760496,-1.3108756666666668,0.0198378466666666,54370.0,28482.0,13080.0,-24.0,14.0,-11.0,1,27_ymag_avg_abrupt_-589.6500000000001
2022-12-29 14:56:37.150,140.835,0.0999999999999999,100.0,1146.0,24289.0,4864.0,99.0,1160.4,153.0,4809.6,-41.4461,0.3215709599999999,-0.003364982,-0.007224086,-1.3130575,54.355,-0.005500742,-0.0061261775,-1.3040425,0.5775227,1.00118562,3.4598724,-20.8,11.8,56.6,-11.4,-11.6,-327.4500000000001,-1069.6,10.6,322.2,1020.678,-1.5192656,3336.8,-0.005500742,-0.009140563,-0.0061261775,0.0063668995,-1.3040425,0.0108018505,54350.0,28525.0,13060.0,-25.0,15.0,-10.0,1,27_ymag_avg_abrupt_-589.6500000000001
2022-12-29 14:56:37.700,141.38500000000002,0.099999999999999,100.0,1143.0,24244.0,4891.5,99.0,1140.0,154.83333333333334,4893.666666666667,-42.33951333333332,0.3233162,-0.0127085399999999,0.0034370893333333,-1.3095946666666665,54.35,-0.0141125333333333,0.0048798117666666,-1.301038666666667,0.4734514166666667,1.1213870833333333,3.283806,-19.33333333333333,16.333333333333332,58.16666666666666,-24.166666666666668,-11.666666666666666,-330.4833333333334,-1070.0,-8.0,309.3333333333333,1020.6708333333336,-1.5262108333333335,3337.0,-0.0141125333333333,-0.0207049986666666,0.0048798117666666,0.0243030303333333,-1.301038666666667,-0.0107309923333333,54350.0,28551.0,13060.0,-25.0,14.0,-7.0,1,27_ymag_avg_abrupt_-589.6500000000001
2022-12-29 14:56:38.250,141.935,0.0999999999999999,100.0,1149.0,24295.0,4751.0,99.0,1147.4,156.6,4869.8,-43.261184,0.3261640799999999,-0.0157713633333333,0.004317477,-1.318707,54.34333333333333,-0.0168841366666666,0.006077043,-1.3104753333333332,0.5380912600000001,1.07467462,3.2747834,-17.0,-8.6,55.2,-8.6,15.0,-344.05000000000007,-1062.0,-14.6,308.2,1020.6672,-1.529922,3337.8,-0.0168841366666666,0.0075379733333333,0.006077043,-0.0120447128666666,-1.3104753333333332,-0.0161894883333333,54350.0,28505.0,13060.0,-19.0,9.0,-6.0,1,27_ymag_avg_abrupt_-589.6500000000001
2022-12-29 14:56:38.800,142.485,0.1000000000000037,100.0,1131.0,24299.0,4890.0,99.0,1133.3333333333333,158.16666666666666,4848.333333333333,-44.23981,0.3297087666666666,-0.0072642443333333,0.0023135169999999,-1.324744666666667,54.34,-0.0083264743333333,0.003833568,-1.318149,0.4922938666666667,0.8544031166666666,5.423114833333333,-23.5,-1.1666666666666667,52.66666666666666,-16.166666666666668,8.333333333333334,244.66666666666663,-1075.6666666666667,-9.333333333333334,295.8333333333333,1020.6643333333332,-1.532773333333333,3338.5,-0.0083264743333333,0.0057485066666666,0.003833568,-0.000225918,-1.318149,0.0017529143333333,54340.0,28450.5,13050.0,-16.0,5.5,-6.5,0,None
2022-12-29 14:56:39.350,143.035,0.0999999999999999,100.0,1116.0,24330.0,4890.0,99.0,1115.0,160.0,4889.6,-45.200246,0.3335933399999999,-0.009022697,0.000948741,-1.3244555,54.34,-0.0100998935,0.0029935585,-1.31893,0.50084674,1.05941604,3.1949248,-18.2,12.8,55.4,-17.6,-7.2,261.4,-1060.6,-4.4,324.0,1020.6766,-1.5204998,3339.0,-0.0100998935,-0.012867298,0.0029935585,0.0074987549999999,-1.31893,-0.0102627538,54340.0,28436.0,13050.0,-15.0,4.0,-4.0,0,None
2022-12-29 14:56:39.900,143.585,0.099999999999999,100.0,1090.0,24180.0,4748.0,98.66666666666669,1101.6666666666667,161.66666666666666,4889.833333333333,-46.07385,0.3376089499999999,-0.0107755663333333,0.0101890863333333,-1.3246186666666666,54.34333333333333,-0.011855366,0.0122285923333333,-1.3197503333333331,0.4558153,1.2176233333333335,4.912366666666666,-15.333333333333334,0.8333333333333334,48.5,-18.166666666666668,11.166666666666666,250.16666666666663,-1061.1666666666667,5.0,302.1666666666667,1020.6716666666669,-1.5254166666666666,3339.6666666666665,-0.011855366,0.0051412279999999,0.0122285923333333,0.0074722068333333,-1.3197503333333331,0.0079552443333333,54350.0,28441.0,13060.0,-11.0,3.0,-5.0,0,None
2022-12-29 14:56:40.450,144.13500000000002,0.0999999999999999,100.0,1105.0,24301.0,4869.0,98.0,1096.6,163.4,4886.6,-46.897634,0.34181912,-0.0081410503333333,0.0084227053333333,-1.323216333333333,54.35,-0.0088897203333333,0.010642224,-1.3185223333333334,0.5330306200000001,1.132832,3.8180248,-25.0,11.2,46.2,-23.6,-4.0,255.4,-1076.8,1.6,322.8,1020.6804,-1.5166406,3340.0,-0.0088897203333333,0.0025091066666666,0.010642224,0.009879526,-1.3185223333333334,0.0099346446666666,54350.0,28448.0,13060.0,-9.0,5.0,-6.0,0,None
2022-12-29 14:56:41.000,144.68500000000003,0.099999999999999,100.0,1121.0,24305.0,4887.0,98.0,1120.8333333333333,165.16666666666666,4887.333333333333,-47.67716333333334,0.3463332666666667,-0.0151947033333333,0.0138920666666666,-1.313131,54.34666666666667,-0.0155449333333333,0.0157788133333333,-1.309567333333333,0.4902297,1.09164785,3.830952333333333,-26.166666666666668,2.0,55.5,-17.666666666666668,-9.166666666666666,256.3333333333333,-1070.1666666666667,23.0,298.1666666666667,1020.6688333333332,-1.5281768333333332,3341.0,-0.0155449333333333,-0.0123859795,0.0157788133333333,0.0076851696666666,-1.309567333333333,0.0149013439999999,54350.0,28506.0,13060.0,-4.0,6.0,-8.0,0,None
2022-12-29 14:56:41.550,145.243,0.104000000000002,100.0,1125.0,24262.0,4856.0,98.0,1143.8,166.6,4891.4,-48.389714,0.35104114,-0.0146636033333333,0.0038692300999999,-1.304127,54.34,-0.0152583533333333,0.0061265026666666,-1.301126,0.45996898,1.1458442,3.9384662,-20.0,-22.4,52.6,-18.8,5.2,250.6,-1062.8,6.4,318.8,1020.6714,-1.5256092,3341.2,-0.0152583533333333,-0.00182737,0.0061265026666666,-0.01731962,-1.301126,-9.132000000000004e-05,54340.0,28545.0,13050.0,0.0,4.0,-7.0,0,None
2022-12-29 14:56:42.100,145.78,0.1041999999999972,100.0,1108.0,24270.0,4888.0,98.0,1108.4,168.6,4860.6,-48.997710000000005,0.3557995799999999,-0.01786537,0.0003704159,-1.3036385,54.345,-0.017688845,0.0030049505,-1.301079,0.41847112,1.1584634,4.2940706,-20.2,2.0,52.8,-18.4,-6.0,240.6,-1065.4,1.0,306.2,1020.6658,-1.5313282,3341.8,-0.017688845,0.00115645655,0.0030049505,0.0005241205,-1.301079,0.0136954695,54350.0,28545.0,13060.0,1.0,1.0,-5.0,0,None
2022-12-29 14:56:42.650,146.296,0.1079999999999983,100.0,1065.0,24191.0,4895.0,98.0,1088.8,170.2,4834.2,-49.58018,0.36099048,-0.0164283666666666,0.0049584686666666,-1.3049039999999998,54.35666666666666,-0.0155372499999999,0.0067175456666666,-1.3028466666666667,0.51274914,1.11843956,4.4004722,-25.8,4.0,61.2,-19.0,10.5,255.1,-1069.8,-7.4,300.0,1020.6665,-1.5305,3342.6,-0.0155372499999999,0.0146336326666666,0.0067175456666666,0.0042419033333333,-1.3028466666666667,-0.0016082016666666,54360.0,28535.0,13070.0,2.0,-2.0,-8.0,0,None
2022-12-29 14:56:43.200,146.844,0.108000000000004,100.0,1106.0,24268.0,4888.0,98.0,1112.0,171.8,4889.4,-50.183978,0.36711466,-0.011881755,0.0008080883,-1.30787,54.37,-0.011765535,0.003206076,-1.306638,0.5792913599999999,1.0831075,3.1166496,-23.2,-2.8,53.8,-17.6,5.0,261.4,-1062.4,-5.4,329.4,1020.6652,-1.5318906,3343.0,-0.011765535,-0.0034923015,0.003206076,0.003711555,-1.306638,-0.00045467,54370.0,28514.0,13080.0,3.0,-4.0,-9.0,0,None
2022-12-29 14:56:43.750,147.42,0.1159999999999967,100.0,1123.0,24272.0,4893.0,98.0,1112.4,173.6,4837.0,-50.800976000000006,0.37392568,-0.0075609916666666,-0.001215033,-1.3039759999999998,54.37,-0.007560616,-0.0001204936666666,-1.3031063333333333,0.4713065399999999,1.2406266,3.871397,-25.2,-2.9,55.7,-12.0,-2.6,247.6,-1065.7,12.7,313.2,1020.6534,-1.5435548,3344.0,-0.007560616,-0.002638632,-0.0001204936666666,-0.003508832,-1.3031063333333333,0.01333406,54370.0,28532.0,13080.0,3.0,-4.0,-9.0,0,None
2022-12-29 14:56:44.300,147.964,0.104000000000002,100.0,1090.0,24274.0,4895.0,98.0,1119.8,175.4,4890.0,-51.257736,0.37938264,-0.0083219423333333,0.0049621038333333,-1.292692333333333,54.38,-0.0080594926666666,0.006587747,-1.2928533333333334,0.50014194,1.1174338,4.227301799999999,-20.0,23.8,58.0,-33.8,9.2,249.8,-1067.2,11.6,314.6,1020.6562,-1.5408281999999998,3344.2,-0.0080594926666666,0.0060584803333333,0.006587747,0.0067489183333333,-1.2928533333333334,-0.0004783933333333,54380.0,28595.0,13090.0,2.0,-3.0,-11.0,0,None
2022-12-29 14:56:44.850,148.50933333333333,0.099999999999999,100.0,1081.0,24200.0,4748.0,98.0,1107.5,176.83333333333334,4889.166666666667,-51.76301,0.3855251666666666,-0.0069285326666666,0.003979929,-1.2965983333333335,54.38,-0.0064963546666666,0.0056387893333333,-1.297088,0.4370487833333332,1.1380075333333333,4.251163333333333,-23.666666666666668,-8.333333333333334,56.333333333333336,-12.666666666666666,-1.5,250.5,-1062.1666666666667,-9.5,307.3333333333333,1020.6576666666666,-1.5395051666666666,3345.1666666666665,-0.0064963546666666,-0.0048307362,0.0056387893333333,-0.0087031413333333,-1.297088,-0.011793402,54380.0,28586.0,13090.0,3.0,0.0,-9.0,0,None
2022-12-29 14:56:45.400,149.06,0.0999999999999999,100.0,1110.0,24281.0,4890.0,98.0,1111.4,178.8,4888.8,-52.226558,0.3913167599999999,-0.0096500275,-0.0001581265,-1.3029825,54.38,-0.0100458455,0.001003244,-1.303809,0.49567312,1.10787224,3.9914964,-25.4,-14.4,54.4,-13.2,-14.6,252.2,-1068.4,-16.6,317.4,1020.6522,-1.5449998,3345.4,-0.0100458455,-0.0151064025,0.001003244,-0.008972635,-1.303809,-0.025404775,54380.0,28553.0,13090.0,4.0,1.0,-9.0,0,None
2022-12-29 14:56:45.950,149.60399999999998,0.1120000000000004,100.0,1147.0,24266.0,4890.0,98.0,1126.6,180.2,4861.2,-52.649078,0.39683272,-0.01253403,-0.0069262769999999,-1.3104426666666666,54.38333333333333,-0.0113394696666666,-0.0052593496666666,-1.3110953333333333,0.45306482,1.1467168,4.8662722,-23.3,-5.3,53.6,-19.5,9.8,259.7,-1067.2,-8.3,326.9,1020.6585,-1.5385078999999997,3346.2,-0.0113394696666666,0.0124728603333333,-0.0052593496666666,-0.0012382107333333,-1.3110953333333333,-0.0192163716666666,54380.0,28505.0,13090.0,3.0,2.0,-11.0,0,None
2022-12-29 14:56:46.500,150.124,0.104000000000002,100.0,1107.0,24172.0,4890.0,98.0,1100.4,182.0,4835.4,-53.016046,0.4020601199999999,-0.015479795,-0.006716545,-1.3093295,54.39,-0.013753015,-0.0055313135,-1.3104335,0.3776290599999999,1.1467196,6.287584600000001,-23.4,7.6,49.0,-9.6,-8.0,223.6,-1059.8,6.0,291.8,1020.6506,-1.546656,3346.8,-0.013753015,-0.0118525485,-0.0055313135,0.0087199225,-1.3104335,0.03400363,54390.0,28486.0,13100.0,-1.0,1.0,-9.0,0,None
2022-12-29 14:56:47.050,150.6935,0.1001666666666664,100.0,1128.0,24288.0,4883.0,98.0,1123.3333333333333,183.5,4886.5,-53.42356999999999,0.4077776333333333,-0.01490209,-0.0011329895066666,-1.303793,54.39000000000001,-0.0136432366666666,3.647470000000001e-05,-1.3058956666666666,0.4344699333333333,1.1526618333333334,4.275722166666667,-24.33333333333333,5.0,56.5,-13.833333333333334,9.333333333333334,246.66666666666663,-1060.5,8.833333333333334,313.5,1020.6441666666668,-1.5528516666666663,3347.1666666666665,-0.0136432366666666,0.009458038,3.647470000000001e-05,0.0070200806666666,-1.3058956666666666,0.0054172713333333,54395.0,28520.5,13105.0,-2.5,-1.5,-10.0,0,None
2022-12-29 14:56:47.600,151.287,0.099999999999999,100.0,1114.0,24192.0,4893.0,98.0,1114.6666666666667,185.5,4894.166666666667,-53.86382666666668,0.4141698333333333,-0.0101471506666666,-0.0002516778333333,-1.3004116666666663,54.406666666666666,-0.008907856,0.0011241473333333,-1.3024753333333332,0.4490813166666667,1.1449038499999995,4.221474833333334,-22.33333333333333,1.6666666666666667,54.833333333333336,-19.166666666666668,2.1666666666666665,252.0,-1065.5,-8.833333333333334,308.8333333333333,1020.6346666666668,-1.5624215,3348.0,-0.008907856,0.0065965133333333,0.0011241473333333,-0.0065631373666666,-1.3024753333333332,0.0015694999999999,54410.0,28532.0,13120.0,-1.0,-2.0,-13.0,0,None
2022-12-29 14:56:48.150,151.83700000000002,0.0999999999999999,100.0,1153.0,24278.0,4890.0,98.0,1139.0,187.4,4892.0,-54.277126,0.4201047,-0.0090580763333333,-0.0061324043333333,-1.309135333333333,54.41333333333333,-0.007825134,-0.0050913992,-1.3119090000000002,0.52082238,0.99849656,3.6771714,-21.6,-17.2,54.0,-9.2,3.8,243.0,-1064.4,-18.4,299.2,1020.6374,-1.5597344,3348.8,-0.007825134,-0.0070959046666666,-0.0050913992,-0.02623073,-1.3119090000000002,-0.0234740566666666,54420.0,28470.0,13130.0,-1.0,-1.0,-14.0,0,None
2022-12-29 14:56:48.700,152.3901666666667,0.099999999999999,100.0,1121.0,24220.5,4893.5,98.0,1117.5,189.0,4817.666666666667,-54.66140166666668,0.4257264166666666,-0.0118059933333333,-0.0105607283333333,-1.313016,54.42333333333334,-0.010433823,-0.008572501,-1.3163696666666664,0.5043379666666666,1.161614666666667,3.1044796666666663,-19.83333333333333,3.8333333333333335,56.5,-21.33333333333333,1.5,257.1666666666667,-1065.5,4.333333333333333,321.0,1020.6431666666666,-1.5540101666666668,3349.1666666666665,-0.010433823,0.0059827416666666,-0.008572501,0.0115151996666666,-1.3163696666666664,0.008813485,54420.0,28451.0,13130.0,-6.0,-2.0,-15.0,0,None
2022-12-29 14:56:49.250,152.941,0.104000000000002,100.0,1137.0,24220.0,4888.0,98.0,1137.2,190.6,4893.4,-55.01934,0.4314924,-0.0068075025,-0.00268732725,-1.3059105,54.415,-0.004677829,-0.0009098590999999,-1.309081,0.5666979,0.85832126,6.1732416,-21.0,25.8,53.2,-16.4,15.8,253.0,-1059.2,21.6,314.0,1020.649,-1.548125,3350.0,-0.004677829,0.02366532,-0.0009098590999999,0.026156125,-1.309081,0.0233783335,54420.0,28498.0,13130.0,-10.0,-3.0,-14.0,0,None
2022-12-29 14:56:49.800,153.49033333333333,0.0966666666666639,100.0,1173.0,24231.0,4748.0,98.0,1143.5,192.5,4845.666666666667,-55.40911,0.4371908333333333,0.015547455,0.0646420466666666,-1.2977833333333333,54.403333333333336,0.0165826681666666,0.0655797566666666,-1.302602,0.45994815,1.05664605,4.333580833333333,-22.0,221.66666666666663,50.333333333333336,-17.0,60.16666666666666,258.3333333333333,-1076.8333333333333,-2.1666666666666665,286.0,1020.65,-1.5470441666666668,3350.5,0.0165826681666666,0.0581703866666666,0.0655797566666666,0.2113009666666666,-1.302602,0.0046346186666666,54400.0,28541.0,13110.0,-4.0,2.0,-13.0,0,None
2022-12-29 14:56:50.350,154.041,0.0999999999999999,100.0,1132.0,24249.0,4890.0,98.0,1163.6,194.4,4864.6,-55.803324,0.44255632,0.01072638,0.1096666433333333,-1.2947993333333334,54.39000000000001,0.0108032166666666,0.1088284966666666,-1.2999476666666667,0.40133184,1.2031132,4.934697399999999,-18.6,-213.4,43.0,-31.0,-100.8,292.8,-1072.6,19.0,266.8,1020.6518,-1.5451094,3351.0,0.0108032166666666,-0.10550014,0.1088284966666666,-0.2531348233333333,-1.2999476666666667,0.0119297026666666,54390.0,28543.0,13100.0,42.0,33.0,-14.0,0,None
2022-12-29 14:56:50.900,154.59016666666668,0.099999999999999,100.0,1137.0,24220.0,4891.0,98.0,1119.0,195.8333333333333,4891.833333333333,-56.108195,0.4474674999999999,-0.0415216633333333,-0.0850158433333333,-1.2929836666666663,54.39666666666667,-0.0404603833333333,-0.0814297166666666,-1.297049333333333,0.4877452,0.9544552,3.4868605,-21.166666666666668,-199.66666666666663,68.33333333333333,-18.0,-28.5,237.3333333333333,-1067.6666666666667,-4.0,328.6666666666667,1020.6508333333333,-1.5463021666666668,3351.6666666666665,-0.0404603833333333,0.0018874973333333,-0.0814297166666666,-0.1197729533333333,-1.297049333333333,-0.0056984410666666,54390.0,28576.0,13100.0,71.0,44.0,-10.0,0,None
2022-12-29 14:56:51.450,155.137,0.0999999999999999,100.0,1148.0,24120.0,4748.0,98.0,1141.6,197.6,4801.8,-56.244150000000005,0.4522728799999999,-0.018646645,-0.11982885,-1.297386,54.395,-0.01712711,-0.1145955499999999,-1.3017585,0.49539606,1.16271,2.6854566,-19.0,-86.8,60.8,-15.4,57.8,226.2,-1073.2,1.0,351.4,1020.6622,-1.534922,3352.2,-0.01712711,0.051682865,-0.1145955499999999,-0.13380651,-1.3017585,0.0018676324999999,54400.0,28553.0,13110.0,30.0,15.0,-12.0,0,None
2022-12-29 14:56:52.000,155.64900000000003,0.104000000000002,100.0,1179.0,24237.0,4895.0,98.0,1177.8,199.4,4887.6,-56.405216,0.4561168399999999,0.0012019773333333,-0.1364913333333333,-1.2976643333333333,54.38333333333333,0.002822148,-0.1321988666666666,-1.302409,0.4375073599999999,1.2037516,4.3850876,-22.0,21.2,54.4,-14.6,40.6,213.8,-1077.0,1.8,358.2,1020.66,-1.5370312,3353.0,0.002822148,0.039021,-0.1321988666666666,0.0418675799999999,-1.302409,0.011595582,54390.0,28541.0,13100.0,-30.0,-8.0,-11.0,0,None
2022-12-29 14:56:52.550,156.20700000000002,0.099999999999999,100.0,1120.0,24250.0,4888.0,98.0,1138.6666666666667,201.16666666666663,4888.833333333333,-56.46950833333332,0.4592042833333334,0.019316862,-0.0675818733333333,-1.2954766666666666,54.38333333333333,0.0200638946666666,-0.06600228,-1.3011643333333334,0.4969194666666667,1.02195655,4.401156,-9.833333333333334,154.83333333333334,47.0,-5.166666666666667,29.0,218.8333333333333,-1085.8333333333333,13.333333333333334,344.3333333333333,1020.6386666666666,-1.5583593333333334,3353.5,0.0200638946666666,0.0143495523666666,-0.06600228,0.1658794,-1.3011643333333334,-0.0281816506666666,54385.0,28542.0,13095.0,-119.0,-22.5,-9.0,0,None
