00000_Time_epoch,00000_Time_boot_sec,00000_Span_Time_boot_sec,1_battery_remaining_avg,1_current_battery_avg,1_voltage_battery_avg,125_Vcc_avg,147_battery_remaining_avg,147_current_battery_avg,147_current_consumed_avg,165_Vcc_avg,168_direction_avg,168_speed_avg,178_pitch_avg,178_roll_avg,178_yaw_avg,182_altitude_avg,182_pitch_avg,182_roll_avg,182_yaw_avg,241_vibration_x_avg,241_vibration_y_avg,241_vibration_z_avg,27_xacc_avg,27_xgyro_avg,27_xmag_avg,27_yacc_avg,27_ygyro_avg,27_ymag_avg,27_zacc_avg,27_zgyro_avg,27_zmag_avg,29_press_abs_avg,29_press_diff_avg,29_temperature_avg,30_pitch_avg,30_pitchspeed_avg,30_roll_avg,30_rollspeed_avg,30_yaw_avg,30_yawspeed_avg,33_alt_avg,33_hdg_avg,33_relative_alt_avg,33_vx_avg,33_vy_avg,33_vz_avg,label,diagnosis
2023-01-02 06:31:26.650,167.85,0.103333333333334,80.0,57.0,23183.0,4893.0,99.0,57.5,28.0,4882.833333333333,-146.28763333333333,0.1934382,-0.0009071517333333,-0.01276505,-1.1665243333333333,27.73,-0.0005778378666666,-0.0129040166666666,-1.1767813333333332,0.0234277533333333,0.02486224,0.03741444,-14.666666666666666,0.1666666666666666,94.0,-1.5,1.0,248.8333333333333,-1064.8333333333333,0.0,337.3333333333333,1022.3535,0.0706380166666666,3303.1666666666665,-0.0005778378666666,0.0014709156666666,-0.0129040166666666,0.0001776259533333,-1.1767813333333332,-0.0001882884333333,27730.0,29258.0,10.0,-2.0,6.0,7.0,0,None
2023-01-02 06:31:27.200,168.41799999999998,0.1039999999999963,80.0,59.0,23174.0,4885.0,99.0,58.4,28.0,4883.8,-148.98874,0.15553964,-0.0012315535,-0.01278616,-1.1655885,27.75,-0.00052015905,-0.01278778,-1.1766125,0.02758735,0.025232142,0.0354211159999999,-14.6,0.6,94.0,-1.0,0.8,248.2,-1064.6,-0.2,336.8,1022.3618,0.079031248,3303.8,-0.00052015905,0.0017062695,-0.01278778,0.00086062025,-1.1766125,-0.00102195105,27750.0,29259.0,30.0,-2.0,6.0,7.0,0,None
2023-01-02 06:31:27.750,168.95,0.104000000000002,80.0,59.0,23185.0,4883.0,99.0,56.8,28.0,4882.2,-151.85542,0.1600865,-0.0004347616466666,-0.01329382,-1.1646586666666667,27.77666666666667,-0.0004049499333333,-0.0127772,-1.1762953333333332,0.025246382,0.024883368,0.036173244,-14.1,0.0,93.6,-0.9,0.9,247.8,-1065.8,0.0,337.1,1022.3616,0.0787187469999999,3304.3,-0.0004049499333333,0.0014056875333333,-0.0127772,1.2427000000000032e-06,-1.1762953333333332,-0.00034331424,27780.0,29261.0,60.0,-2.0,7.0,7.0,0,None
2023-01-02 06:31:28.300,169.52,0.103333333333334,80.0,65.0,23186.0,4874.0,99.0,145.66666666666666,29.0,4877.833333333333,-153.54565,0.1788084166666666,-0.0009871710333333,-0.0124185366666666,-1.1635570000000002,27.80333333333333,-0.0001311749333333,-0.0127769299999999,-1.175888,0.0899403466666666,0.22343274,0.993852205,-12.333333333333334,-2.0,91.16666666666669,-5.5,1.1666666666666667,245.5,-1065.0,4.666666666666667,346.8333333333333,1022.3618333333334,0.0792838516666666,3305.0,-0.0001311749333333,0.0025763003333333,-0.0127769299999999,0.0020994633,-1.175888,0.0031502146666666,27800.0,29261.0,80.0,-2.0,8.0,7.0,0,None
2023-01-02 06:31:28.850,170.07,0.0999999999999999,80.0,106.0,23144.0,4848.0,99.0,98.4,29.0,4879.0,-154.70256,0.2045824399999999,-0.0010977593,-0.01410319,-1.1635623333333334,27.816666666666663,-0.0001188190866666,-0.0125545533333333,-1.1758126666666666,0.099703486,0.2383312199999999,1.6484957999999998,-10.0,-0.4,88.4,2.8,0.0,247.4,-1053.8,0.6,334.2,1022.3798,0.096999994,3305.4,-0.0001188190866666,0.0058055966666666,-0.0125545533333333,0.00714364,-1.1758126666666666,-0.0140114866666666,27820.0,29265.0,100.0,-2.0,8.0,7.0,0,None
2023-01-02 06:31:29.400,170.578,0.0999999999999999,80.0,95.0,23155.0,4877.0,99.0,100.0,29.0,4879.8,-155.19764,0.23167854,-0.001333649,-0.0133770149999999,-1.1633925,27.835,-0.0001640254415,-0.012892675,-1.175548,0.1223420799999999,0.42844518,2.4839256,-18.6,-1.0,89.8,-4.6,0.0,248.4,-1093.8,-3.2,335.8,1022.3748,0.092078124,3306.2,-0.0001640254415,0.001410815,-0.012892675,-0.003477915,-1.175548,0.0162101669999999,27830.0,29264.0,110.0,-2.0,8.0,8.0,0,None
2023-01-02 06:31:29.950,171.16,0.1066666666666643,80.0,1077.0,22868.0,4880.0,99.0,1189.0,30.0,4878.5,-155.11593333333334,0.2587941666666666,0.0023694201999999,-0.01042461,-1.16338,27.863333333333333,0.0038859774033333,-0.0102513543333333,-1.1755983333333333,0.4388664333333332,0.9776386833333334,3.284366,-9.833333333333334,16.666666666666668,79.16666666666667,-32.333333333333336,26.5,225.8333333333333,-1121.8333333333333,6.666666666666667,286.5,1022.564,0.2811718533333333,3306.833333333333,0.0038859774033333,0.0474056046666666,-0.0102513543333333,0.0089772116666666,-1.1755983333333333,-0.0050648976666666,27850.0,29263.0,130.0,-3.0,8.0,8.0,0,None
2023-01-02 06:31:30.500,171.735,0.1081999999999993,79.0,1791.0,22574.0,4883.0,99.0,1615.0,32.4,4871.6,-155.09256,0.29281082,0.0018260926666666,0.0074162043333333,-1.1659426666666666,28.243333333333336,0.002771966,0.0065822756666666,-1.1772696666666669,0.4048222,1.03885286,4.1881104,-1.8,56.9,69.5,-12.9,-33.0,240.7,-1263.6,-8.0,299.2,1022.5929,0.3099999999999999,3307.2,0.002771966,-0.0493458733333333,0.0065822756666666,0.0528037333333333,-1.1772696666666669,0.0039981113333333,27960.0,29260.0,240.0,-4.0,7.0,68.0,0,None
2023-01-02 06:31:31.050,172.255,0.0999999999999999,79.0,1799.0,22556.0,4882.0,99.0,1829.6,34.8,4868.4,-155.57448,0.31589118,-0.0097279915,-0.00555952055,-1.1603245,29.08,-0.008704962,-0.0047861785,-1.170512,0.5555961399999999,1.4243803999999998,3.783312,7.2,-62.4,73.2,-18.0,45.6,234.0,-1253.4,28.0,282.8,1022.2562,-0.026703125,3308.0,-0.008704962,0.019013035,-0.0047861785,-0.037704305,-1.170512,0.063119905,28620.0,29261.0,900.0,7.0,1.0,175.0,0,None
2023-01-02 06:31:31.600,172.80433333333335,0.099999999999999,78.0,1836.0,22547.0,4887.0,99.0,1792.3333333333333,37.5,4878.0,-156.78016666666667,0.3453514,0.031885136,-0.0157218816666666,-1.152757,30.376666666666665,0.0333543533333333,-0.0156514433333333,-1.1625713333333332,0.4973593,1.4209821666666669,3.2076811666666667,6.5,-25.166666666666668,68.16666666666667,-10.833333333333334,88.0,224.66666666666663,-1165.1666666666667,-6.5,301.0,1022.0761666666668,-0.2067187333333333,3308.5,0.0333543533333333,0.1103361766666666,-0.0156514433333333,0.0137893666666666,-1.1625713333333332,0.0108639976666666,30425.0,29329.0,2705.0,9.0,-13.5,299.5,0,None
2023-01-02 06:31:32.150,173.363,0.104000000000002,78.0,1775.0,22535.0,4893.0,99.0,1723.0,40.2,4881.2,-159.08102,0.37383084,0.0465872366666666,-0.0311541433333333,-1.1556713333333333,32.25333333333333,0.04727245,-0.02985994,-1.1885776666666668,0.5134899400000001,1.10884596,2.5731424,-6.2,21.4,63.8,-9.8,-71.6,225.2,-1075.4,-6.8,311.0,1021.8688,-0.414125,3309.4,0.04727245,-0.0064409633333333,-0.02985994,-0.0075057133333333,-1.1885776666666668,0.0088306346666666,32800.0,29189.0,5080.0,-17.0,3.0,330.0,0,None
2023-01-02 06:31:32.700,173.92100000000002,0.099999999999999,77.0,1496.0,22584.0,4887.0,99.0,1544.5,43.0,4885.166666666667,-162.76285,0.40425295,-0.00650548,0.0131456493333333,-1.173044,34.17333333333334,-0.0039469866666666,0.0139716036666666,-1.20561,0.4801058166666666,1.0466848666666666,2.908875833333333,9.5,92.66666666666669,71.0,-17.166666666666668,-130.0,230.8333333333333,-1009.6666666666666,-17.166666666666668,303.5,1021.6791666666668,-0.6035807166666667,3310.0,-0.0039469866666666,-0.1931751433333333,0.0139716036666666,0.1138601133333333,-1.20561,-0.0204911963333333,34360.0,29074.0,6640.0,-19.0,5.0,314.0,0,None
2023-01-02 06:31:33.250,174.471,0.0999999999999999,77.0,1038.0,22680.0,4874.0,99.0,1118.6,44.8,4886.2,-166.90624000000005,0.43713974,-0.16696515,0.060766555,-1.179144,35.52,-0.1622444,0.059513605,-1.210946,0.58015162,0.92122524,2.2379214000000003,20.4,100.8,120.0,-6.0,-370.2,258.6,-948.6,20.8,286.2,1021.5014,-0.7814531,3311.0,-0.1622444,-0.45778205,0.059513605,0.091295015,-1.210946,0.01719838,35670.0,29062.0,7950.0,17.0,-38.0,247.0,0,None
2023-01-02 06:31:33.800,175.021,0.099999999999999,77.0,1392.0,22630.0,4890.0,99.0,1361.3333333333333,46.833333333333336,4881.333333333333,-171.972,0.4669563666666667,-0.2683550333333333,0.0645500033333333,-1.1004713333333334,36.51666666666667,-0.2592482333333333,0.0633161966666666,-1.1318373333333334,0.4743720666666666,1.0032786,4.676392333333333,24.666666666666668,-63.66666666666666,175.5,5.666666666666667,44.5,271.6666666666667,-1053.3333333333333,359.5,249.66666666666663,1021.331,-0.95177085,3311.0,-0.2592482333333333,0.09849625,0.0633161966666666,-0.0184743123333333,-1.1318373333333334,0.3297339999999999,36630.0,29609.0,8910.0,110.0,-147.0,199.0,0,None
2023-01-02 06:31:34.350,175.583,0.104000000000002,76.0,1620.0,22562.0,4888.0,99.0,1600.6,49.2,4885.8,-177.18678,0.49276632,-0.1848066,-0.0388665866666666,-0.9120688666666666,37.6,-0.1794935,-0.0379379533333333,-0.9431809666666666,0.41234434,1.2427731999999998,5.082568,4.0,-67.8,212.4,-37.4,233.0,216.6,-1127.0,141.2,251.8,1021.2062,-1.0765156,3312.0,-0.1794935,0.2428242666666666,-0.0379379533333333,-0.0526289043333333,-0.9431809666666666,0.16441517,37520.0,30611.0,9800.0,185.0,-271.0,190.0,0,None
2023-01-02 06:31:34.900,176.09099999999998,0.0999999999999999,76.0,1648.0,22522.0,4885.0,99.0,1658.2,51.2,4878.6,106.77966,0.5132909999999999,-0.0672136899999999,-0.034896465,-0.89026465,38.620000000000005,-0.067199595,-0.031442345,-0.92439795,0.4254198799999999,1.1270091599999998,4.5230686,2.6,109.0,176.0,-24.4,191.4,197.2,-1126.6,-30.0,288.4,1021.0934,-1.1896094,3312.4,-0.067199595,0.23783555,-0.031442345,0.17052507,-0.92439795,-0.042055365,38530.0,30721.0,10810.0,209.0,-358.0,216.0,0,None
2023-01-02 06:31:35.450,176.6234,0.1079999999999983,75.0,1644.0,22508.0,4890.0,99.0,1603.6,54.2,4886.2,175.01958,0.5347888599999999,-0.0109093123333333,0.0155340546633333,-0.8931070666666666,39.81,-0.0156326866666666,0.0172315993333333,-0.9282635,0.3694882,0.60570072,2.9428724,-12.2,67.6,155.2,-20.0,18.2,213.4,-1091.0,21.6,293.6,1020.9552,-1.3274998,3313.0,-0.0156326866666666,0.0341429866666666,0.0172315993333333,0.0595139146666666,-0.9282635,0.0183133966666666,39730.0,30670.0,12010.0,219.0,-380.0,240.0,0,None
2023-01-02 06:31:36.000,177.18533333333335,0.1035000000000015,75.0,1503.5,22545.5,4889.0,99.0,1470.0,56.333333333333336,4876.666666666667,171.12546666666665,0.5595689666666667,-0.00978899,0.012613958,-0.8899154666666668,41.34333333333333,-0.01469107,0.0141745333333333,-0.9255155333333334,0.4275393666666667,1.16692015,2.712031666666667,-25.166666666666668,-28.33333333333333,157.58333333333334,-30.916666666666668,-33.75,222.3333333333333,-1067.9166666666667,-33.25,302.0833333333333,1020.7975,-1.4851889166666663,3314.083333333333,-0.01469107,-0.0511011066666666,0.0141745333333333,-0.05542685,-0.9255155333333334,-0.0418315633333333,40960.0,30741.0,13240.0,227.0,-372.0,253.0,0,None
2023-01-02 06:31:36.550,177.76799999999997,0.104000000000002,74.0,1489.0,22560.0,4869.0,99.0,1469.0,58.6,4882.2,165.73388,0.60093634,-0.06651573,0.0145688066666666,-0.9218879666666666,42.946666666666665,-0.0686846633333333,0.0171159,-0.9589289666666666,0.46182324,1.14018152,3.0472756,-29.0,-7.8,165.4,-31.6,-102.6,214.2,-1043.4,-36.2,276.2,1020.6008000000002,-1.6820312000000002,3314.8,-0.0686846633333333,-0.0959476566666666,0.0171159,-0.0128095,-0.9589289666666666,-0.02889797,42310.0,30565.0,14590.0,228.0,-370.0,255.0,0,None
2023-01-02 06:31:37.100,178.28400000000002,0.1039999999999963,74.0,1568.0,22498.0,4891.0,99.0,1485.6,60.8,4886.4,161.83004,0.63716162,-0.093361135,0.0005009925,-0.92309995,44.255,-0.09284342,0.0040179845,-0.9607558,0.49789116,0.9694054,3.1879698,-20.6,-27.2,177.4,-26.0,-7.2,222.8,-1060.0,6.8,308.8,1020.4599999999998,-1.8227188,3315.0,-0.09284342,0.0362532229999999,0.0040179845,-0.0247692,-0.9607558,0.01724207,43610.0,30479.0,15890.0,245.0,-387.0,257.0,0,None
2023-01-02 06:31:37.650,178.8202,0.108000000000004,74.0,1485.0,22534.0,4882.0,99.0,1502.4,63.2,4884.8,157.9196,0.6780728999999999,-0.08269078,0.0103670363333333,-0.9096837,45.60666666666666,-0.0820981766666666,0.0144221713333333,-0.9483752,0.38489374,1.4819464,3.3970746000000007,-18.2,51.0,176.2,-36.2,40.4,221.0,-1055.0,27.6,296.6,1020.3122,-1.9704374,3315.8,-0.0820981766666666,0.0308876699999999,0.0144221713333333,0.0573909733333333,-0.9483752,0.0084628566666666,44950.0,30531.0,17230.0,263.0,-424.0,255.0,0,None
2023-01-02 06:31:38.200,179.38200000000003,0.099999999999999,73.0,1409.0,22559.0,4885.0,99.0,1469.6666666666667,65.5,4879.666666666667,154.26254999999998,0.7206883000000001,-0.0705255866666666,0.0344002966666666,-0.9087007,47.156666666666666,-0.06934507,0.03815946,-0.9493945,0.4455364166666666,1.303036,2.9276673333333334,-11.0,22.0,181.66666666666663,-34.166666666666664,21.5,225.66666666666663,-1072.0,-7.5,283.8333333333333,1020.1585,-2.1244530000000004,3316.5,-0.06934507,0.043152761,0.03815946,0.0232626536666666,-0.9493945,-0.0116954226666666,46930.0,30566.5,19210.0,298.0,-466.5,256.0,0,None
2023-01-02 06:31:38.750,179.9324,0.1002000000000009,73.0,1435.0,22531.0,4875.0,99.0,1455.0,67.8,4870.4,150.65864000000002,0.76774522,-0.0491207699999999,0.03153261,-0.9162449,48.44,-0.048419655,0.0344677,-0.95732865,0.4847831999999999,1.2161117999999995,3.4476488000000005,-26.0,-23.2,163.0,-34.0,47.0,227.4,-1061.6,-20.0,287.6,1019.9924,-2.2904064,3317.2,-0.048419655,0.03211477,0.0344677,-0.0412131649999999,-0.95732865,-0.0198475525,48850.0,30509.0,21130.0,335.0,-487.0,261.0,0,None
2023-01-02 06:31:39.300,180.49633333333333,0.1033333333333293,73.0,1415.0,22523.0,4885.0,99.0,1469.5,70.0,4880.0,147.0922666666667,0.8203199333333333,-0.02429822,0.0155497743333333,-0.9235056666666668,49.77,-0.0238077133333333,0.0200992799999999,-0.9656154666666668,0.4294393666666666,1.3002043333333333,2.2082375,-15.833333333333334,-19.58333333333333,156.33333333333334,-24.5,28.75,229.75,-1075.5833333333333,-25.58333333333333,314.4166666666667,1019.82175,-2.46094375,3318.1666666666665,-0.0238077133333333,0.039537685,0.0200992799999999,-0.0341672,-0.9656154666666668,-0.0119938899999999,50200.0,30441.0,22480.0,343.0,-490.0,263.0,0,None
2023-01-02 06:31:39.850,181.057,0.0999999999999999,72.0,1495.0,22514.0,4888.0,99.0,1480.6,72.2,4879.8,144.17014,0.8729253800000001,-0.0006173399999999,0.0100062933333333,-0.9350988666666668,51.333333333333336,0.0011161689999999,0.0139431566666666,-0.9770974666666667,0.44284738,1.05155586,3.8739854,-16.0,-11.4,144.2,-29.8,42.4,229.2,-1072.4,5.8,312.6,1019.6302,-2.6527498,3318.6,0.0011161689999999,0.01739963,0.0139431566666666,0.0031699537333333,-0.9770974666666667,-0.0030237943966666,51490.0,30404.0,23770.0,342.0,-489.0,262.0,0,None
2023-01-02 06:31:40.400,181.60950000000005,0.1031666666666713,72.0,1531.0,22472.5,4880.5,99.0,1531.8333333333333,74.5,4880.333333333333,141.2639,0.9377454,-0.0085528948333333,0.0071516836666666,-0.9513521,52.91,-0.0072671946666666,0.01205596,-0.9933073333333334,0.45209775,1.0444474,3.015296166666667,-23.666666666666668,9.166666666666666,138.0,-38.16666666666666,-27.5,220.16666666666663,-1054.3333333333333,-26.666666666666668,307.1666666666667,1019.4488333333334,-2.8338931666666665,3319.6666666666665,-0.0072671946666666,0.0227276356666666,0.01205596,-0.0051227333333333,-0.9933073333333334,-0.0306666566666666,52800.0,30314.0,25080.0,330.0,-480.0,262.0,0,None
2023-01-02 06:31:40.950,182.15680000000003,0.0999999999999999,71.0,1286.0,22571.0,4858.0,99.0,1573.0,76.8,4874.0,138.48582,1.01378216,-0.032057735,0.005977294,-0.96768725,54.235,-0.02858285,0.0106290615,-1.010863,0.40382534,1.08434924,3.5547722,-30.8,3.6,150.2,-35.0,51.0,216.8,-1038.8,-29.0,299.0,1019.2786,-3.0039374,3319.8,-0.02858285,0.020127325,0.0106290615,0.00368393,-1.010863,-0.046010035,54130.0,30214.0,26410.0,323.0,-482.0,262.0,0,None
2023-01-02 06:31:41.500,182.70633333333333,0.0968333333333314,71.0,1025.0,22614.0,4883.0,99.0,1069.5,78.83333333333333,4880.166666666667,136.08411666666666,1.0907369999999998,0.09093076,0.0076480336666666,-0.9563714666666666,55.50666666666666,0.0925595899999999,0.0113779176666666,-1.0013200666666668,0.5958861833333333,1.064581233333333,3.815922,-35.666666666666664,-47.5,111.33333333333331,-20.0,73.16666666666667,223.5,-912.6666666666666,23.33333333333333,334.6666666666667,1019.1498333333334,-3.1328645,3320.833333333333,0.0925595899999999,0.1544085,0.0113779176666666,-0.040975335,-1.0013200666666668,0.0298782633333333,55440.0,30250.0,27720.0,312.0,-474.0,229.0,0,None
2023-01-02 06:31:42.050,183.2608,0.0999999999999999,71.0,1008.0,22630.0,4893.0,99.0,1009.0,80.4,4883.8,133.96304,1.1661874,0.0091566963333333,-0.0212251733333333,-0.9524197333333332,56.51333333333334,0.0107883076666666,-0.0177205933333333,-0.9974342000000002,0.71692692,0.92310392,4.750439200000001,-39.6,-13.4,139.4,-52.0,-173.8,217.4,-955.8,-39.0,326.8,1019.0266,-3.2561406,3321.6,0.0107883076666666,-0.17027945,-0.0177205933333333,-0.00778978,-0.9974342000000002,-0.0323473466666666,56350.0,30315.0,28630.0,275.0,-436.0,147.0,0,None
2023-01-02 06:31:42.600,183.80633333333336,0.099999999999999,71.0,1126.0,22526.0,4893.0,99.0,1073.3333333333333,82.0,4882.5,132.04020000000003,1.243996,-0.0412704133333333,-0.0054973902,-0.9715798333333332,57.03333333333333,-0.0367554633333333,-0.0023913906666666,-1.017461333333333,0.5742540666666668,1.0354647833333332,6.8304953333333325,-51.833333333333336,40.16666666666666,154.5,-18.0,-35.5,225.5,-988.6666666666666,-32.666666666666664,310.1666666666667,1018.946,-3.336627666666667,3322.0,-0.0367554633333333,-0.0310244536666666,-0.0023913906666666,0.0726333666666666,-1.017461333333333,-0.0197492823333333,56880.0,30206.0,29160.0,252.0,-436.0,87.0,0,None
2023-01-02 06:31:43.150,184.357,0.0999999999999999,71.0,1144.0,22592.0,4888.0,99.0,1135.6,83.6,4889.8,130.30632,1.3180822,-0.03762769,0.0064740375,-0.9814082,57.285,-0.033131795,0.0093441165,-1.0284835,0.54864722,1.03270416,7.6148928,-52.4,1.6,149.6,-25.0,30.6,226.8,-1055.6,-46.6,308.8,1018.9338,-3.3488436,3323.0,-0.033131795,0.037352035,0.0093441165,-0.0204940599999999,-1.0284835,-0.036988635,57180.0,30141.0,29460.0,242.0,-447.0,53.0,0,None
2023-01-02 06:31:43.700,184.90616666666665,0.099999999999999,71.0,1175.0,22569.0,4895.0,99.0,1132.0,85.5,4886.166666666667,128.81076666666667,1.3825333333333332,-0.02628984,0.0140750833333333,-0.9917294,57.41666666666666,-0.0234794933333333,0.0156114166666666,-1.039877333333333,0.5787394833333334,0.9929225166666668,7.621550500000001,-41.66666666666666,21.666666666666668,142.66666666666666,-19.0,16.666666666666668,223.3333333333333,-1037.3333333333333,-3.0,299.3333333333333,1018.9225,-3.3603123333333333,3323.333333333333,-0.0234794933333333,0.0228310366666666,0.0156114166666666,0.0404591533333333,-1.039877333333333,-0.0063892913333333,57410.0,30046.0,29690.0,240.0,-451.5,28.0,0,None
2023-01-02 06:31:44.250,185.457,0.0999999999999999,71.0,1199.0,22562.0,4891.0,99.0,1139.8,87.2,4887.0,127.45632,1.4424586,-0.0348528066666666,0.0267398766666666,-0.9903020333333332,57.48,-0.0315727733333333,0.0275867,-1.0408346666666668,0.60323098,1.07331554,6.1843776,-24.6,23.0,147.8,-42.0,-57.8,241.8,-1069.2,-12.2,295.4,1018.9146,-3.3682186,3324.0,-0.0315727733333333,-0.0673127933333333,0.0275867,0.0310563316666666,-1.0408346666666668,-0.0220824046666666,57490.0,30032.0,29770.0,251.0,-451.0,16.0,0,None
2023-01-02 06:31:44.800,186.0063333333333,0.099999999999999,71.0,1092.0,22599.0,4890.0,99.0,1145.6666666666667,88.83333333333333,4889.0,126.17886666666668,1.5009610000000002,-0.0696467066666666,0.0037877863333333,-1.0175426666666667,57.51,-0.0668782733333333,0.0054410513333333,-1.0679046666666665,0.5836209833333333,1.0807882333333334,6.6519945,-46.0,-85.5,145.5,-10.833333333333334,-19.83333333333333,249.66666666666663,-1051.6666666666667,-71.5,311.3333333333333,1018.9036666666668,-3.3791015000000004,3325.0,-0.0668782733333333,0.0134972599999999,0.0054410513333333,-0.0627563866666666,-1.0679046666666665,-0.0672096566666666,57510.0,29853.0,29790.0,265.0,-466.0,11.0,0,None
2023-01-02 06:31:45.350,186.5588,0.1006000000000028,70.0,1115.0,22597.0,4890.0,99.0,1113.8,90.6,4889.0,125.00968,1.5560842,-0.06650038,-0.016825145,-1.044323,57.51,-0.063660655,-0.015069575,-1.0952565,0.58004102,1.01595736,7.775223199999999,-34.0,29.4,140.4,-17.4,9.0,224.2,-1044.2,-16.0,301.6,1018.8992,-3.383671800000001,3325.4,-0.063660655,-0.035033775,-0.015069575,0.02621588,-1.0952565,-0.028642765,57510.0,29714.0,29790.0,262.0,-494.0,12.0,0,None
2023-01-02 06:31:45.900,187.11266666666668,0.103333333333334,70.0,1127.5,22573.5,4889.0,99.0,1163.0,92.5,4886.666666666667,123.98365,1.6049236666666669,-0.04342752,0.0043850683333333,-1.0407906666666666,57.50333333333333,-0.0423067466666666,0.0071155616666666,-1.0932926666666667,0.6018081,1.005040333333333,7.328877833333333,-43.333333333333336,18.83333333333333,135.5,-41.0,57.16666666666666,234.16666666666663,-1103.6666666666667,6.333333333333333,298.0,1018.9365,-3.3463801666666666,3326.1666666666665,-0.0423067466666666,0.0651709666666666,0.0071155616666666,0.0219556333333333,-1.0932926666666667,0.0073399283333333,57500.0,29739.0,29780.0,264.0,-510.0,7.0,0,None
2023-01-02 06:31:46.450,187.6598,0.099799999999999,70.0,1090.0,22576.0,4891.0,99.0,1054.6,94.0,4888.2,123.0205,1.650077,-0.0183151333333333,0.0099775328,-1.02488,57.48,-0.01802707,0.012598287,-1.079014666666667,0.75429936,1.1502766000000002,9.577188,-39.6,26.0,126.0,-13.8,15.8,228.6,-1065.8,42.8,297.4,1018.9824,-3.300453,3327.0,-0.01802707,0.0549407133333333,0.012598287,0.01518982,-1.079014666666667,0.0408402766666666,57480.0,29791.0,29760.0,260.0,-510.0,13.0,0,None
2023-01-02 06:31:47.000,188.2093333333333,0.0968333333333314,70.0,1172.0,22546.0,4888.0,99.0,1157.5,95.83333333333331,4881.833333333333,122.08446666666669,1.6941513333333331,-0.0168793033333333,0.0127393166666666,-0.9976712,57.39333333333334,-0.0174970566666666,0.0148765633333333,-1.0526669999999998,0.77627735,1.06808215,9.2246765,-56.5,-3.333333333333333,132.66666666666666,-34.666666666666664,12.166666666666666,235.0,-1142.6666666666667,17.166666666666668,315.1666666666667,1018.9745,-3.3083983333333333,3327.6666666666665,-0.0174970566666666,0.0576672433333333,0.0148765633333333,-0.0165510233333333,-1.0526669999999998,0.0125110743333333,57420.0,29957.0,29700.0,255.0,-505.0,7.0,0,None
2023-01-02 06:31:47.550,188.76,0.0999999999999999,70.0,1161.0,22534.0,4890.0,99.0,1158.4,97.6,4886.8,121.17878,1.7380293999999998,-0.022488145,0.011770165,-1.0026093,57.345,-0.02214445,0.01380995,-1.0591535,0.75412472,1.0796933000000002,8.197376799999999,-39.0,-24.0,133.8,-13.2,-61.6,231.4,-1046.0,-28.6,308.2,1018.9888,-3.2937965999999994,3328.0,-0.02214445,-0.042099355,0.01380995,-0.0415725,-1.0591535,-0.030877965,57350.0,29966.0,29630.0,252.0,-498.0,10.0,0,None
2023-01-02 06:31:48.100,189.30916666666667,0.1000000000000037,70.0,941.0,22627.0,4890.0,99.0,1010.6666666666666,99.33333333333331,4886.0,120.34228333333331,1.7803465,-0.0728571333333333,-0.0063491126999999,-1.0146446666666666,57.333333333333336,-0.0724995833333333,-0.003574601,-1.072193333333333,0.6836350666666666,0.8743054833333334,10.190774166666667,-46.333333333333336,1.6666666666666667,148.66666666666666,-13.833333333333334,-53.333333333333336,234.8333333333333,-1058.1666666666667,-10.666666666666666,312.5,1018.9823333333334,-3.300494666666667,3328.6666666666665,-0.0724995833333333,-0.1254303,-0.003574601,-0.0136988866666666,-1.072193333333333,-0.0189642053333333,57330.0,29876.0,29610.0,252.0,-500.0,18.0,0,None
2023-01-02 06:31:48.650,189.8598,0.0999999999999999,70.0,1099.0,22576.0,4888.0,99.0,1079.0,100.6,4884.6,119.54252,1.822046,-0.0656458133333333,0.016989449,-1.01059,57.35,-0.0645798033333333,0.0195785976666666,-1.0695813333333335,0.6835608,0.90335594,10.7294742,-25.6,58.2,146.0,-38.2,90.0,237.4,-1130.4,14.4,304.0,1018.9444,-3.338359,3329.6,-0.0645798033333333,0.0901634633333333,0.0195785976666666,0.0329802533333333,-1.0695813333333335,0.0114462566666666,57350.0,29827.0,29630.0,257.0,-529.0,15.0,0,None
2023-01-02 06:31:49.200,190.4091666666667,0.099999999999999,70.0,940.0,22635.0,4864.0,99.0,970.0,102.33333333333331,4884.5,118.76853333333334,1.862551,-0.0370238966666666,-0.0126895943333333,-1.040203,57.36666666666667,-0.0376701666666666,-0.0109063366666666,-1.100443,0.8311352666666667,1.2456018333333334,9.319280999999998,-43.5,-197.5,138.5,-29.33333333333333,52.333333333333336,232.16666666666663,-1081.0,-109.33333333333331,311.3333333333333,1018.9831666666668,-3.2996875,3330.1666666666665,-0.0376701666666666,0.0909013660333333,-0.0109063366666666,-0.2025577566666666,-1.100443,-0.1126184366666666,57365.0,29752.5,29645.0,273.0,-551.5,17.0,0,None
2023-01-02 06:31:49.750,190.9598,0.0999999999999999,70.0,1198.0,22562.0,4890.0,99.0,1166.0,104.0,4883.6,118.04308,1.9007466,0.028649845,-0.1548166,-1.146467,57.355,0.027955485,-0.1507109999999999,-1.2070175,0.7960650399999999,1.33419696,8.9212044,-47.0,-221.6,94.2,-18.4,134.2,203.0,-1080.6,-333.6,342.2,1018.974,-3.3090156,3331.0,0.027955485,0.0823966499999999,-0.1507109999999999,-0.27291455,-1.2070175,-0.33341795,57340.0,28744.0,29620.0,206.0,-554.0,9.0,0,None
2023-01-02 06:31:50.300,191.5091666666667,0.099999999999999,69.0,1247.0,22575.0,4867.0,99.0,1248.0,105.83333333333331,4877.0,117.41373333333333,1.9357406666666668,0.02467838,-0.1801922333333333,-1.3353473333333332,57.333333333333336,0.0233557266666666,-0.1749126333333333,-1.3965163333333337,0.8796447500000001,1.3390141666666668,7.417626500000001,-45.333333333333336,88.66666666666667,30.0,-10.333333333333334,-25.5,187.66666666666663,-1084.5,-373.8333333333333,357.6666666666667,1018.9448333333336,-3.338059833333334,3331.333333333333,0.0233557266666666,0.0048457136,-0.1749126333333333,0.0610906366666666,-1.3965163333333337,-0.3868461333333333,57330.0,27671.0,29610.0,107.0,-544.0,10.0,0,None
2023-01-02 06:31:50.850,192.06,0.0999999999999999,69.0,1200.0,22563.0,4877.0,99.0,1183.6,107.6,4876.6,116.8602,1.970101,-0.04204797,-0.1219015333333333,-1.5348283333333337,57.370000000000005,-0.0416978733333333,-0.1180299666666666,-1.596863666666667,0.8199892200000001,1.4772888,5.376381599999999,-71.4,74.0,1.0,-29.4,-60.8,207.0,-1105.0,-294.8,364.2,1018.907,-3.3757812,3332.0,-0.0416978733333333,-0.1087843966666666,-0.1180299666666666,0.0345503606666666,-1.596863666666667,-0.2880450333333333,57380.0,26732.0,29660.0,33.0,-544.0,16.0,0,None
2023-01-02 06:31:51.400,192.6123333333333,0.1031666666666665,69.0,1115.0,22551.5,4872.5,99.0,1121.6666666666667,109.5,4875.0,116.32193333333332,2.0061206666666664,-0.050193598,-0.0920277633333333,-1.6392023333333334,57.45666666666667,-0.0487884563333333,-0.09072096,-1.7017613333333337,0.9730757833333334,1.566455666666667,9.653252333333333,-33.166666666666664,86.16666666666667,-25.5,26.5,162.16666666666666,209.8333333333333,-1107.8333333333333,-64.83333333333333,346.3333333333333,1018.9285,-3.3543358333333333,3332.6666666666665,-0.0487884563333333,0.1482192666666666,-0.09072096,0.1061357566666666,-1.7017613333333337,-0.0671923733333333,57450.0,26235.0,29730.0,-20.0,-553.0,13.0,0,None
2023-01-02 06:31:51.950,193.1598,0.0999999999999999,69.0,1126.0,22540.0,4883.0,99.0,997.2,111.2,4880.2,115.84632000000002,2.0398584,0.105403255,-0.031526625,-1.6551360000000002,57.5,0.104328985,-0.0322654,-1.718171,0.6742696399999999,1.6739092,11.3861484,-39.2,68.6,-79.4,5.2,285.8,235.6,-1095.2,-15.8,332.0,1018.9464,-3.3363280000000004,3333.0,0.104328985,0.25680775,-0.0322654,0.08021858,-1.718171,-0.0130105785,57500.0,26156.0,29780.0,-43.0,-535.0,13.0,0,None
2023-01-02 06:31:52.500,193.70916666666665,0.0968333333333314,69.0,1427.0,22469.0,4890.0,99.0,1218.6666666666667,112.83333333333331,4883.5,115.48515,2.0688448333333334,0.1962249333333333,-0.0211165433333333,-1.6498099999999998,57.48333333333333,0.1929564666666666,-0.0230291433333333,-1.7143663333333334,0.6934153,1.759868166666667,9.001629666666668,-46.5,-29.666666666666668,-119.16666666666669,-21.166666666666668,22.5,238.0,-1023.1666666666666,19.33333333333333,309.5,1018.8961666666668,-3.386718833333333,3334.1666666666665,0.1929564666666666,0.08713865,-0.0230291433333333,-0.0028037633333333,-1.7143663333333334,0.0061662233333333,57490.0,26190.0,29770.0,-35.0,-451.0,4.0,0,None
2023-01-02 06:31:53.050,194.264,0.104000000000002,69.0,1200.0,22529.0,4890.0,99.0,1324.0,114.6,4887.4,115.17742,2.0950946000000004,0.12214662,-0.0185949466666666,-1.6302960000000002,57.47666666666667,0.11954882,-0.0196859333333333,-1.6955736666666663,0.81102036,1.3660618,7.516966199999999,-23.8,32.6,-93.0,-23.8,-159.8,254.8,-1100.6,59.6,329.4,1018.8154,-3.4673438,3334.4,0.11954882,-0.19496365,-0.0196859333333333,0.0496182733333333,-1.6955736666666663,0.0499599666666666,57450.0,26223.0,29730.0,-28.0,-350.0,5.0,0,None
2023-01-02 06:31:53.600,194.8,0.1079999999999983,69.0,1181.0,22514.0,4856.0,99.0,1180.0,116.4,4881.0,114.88357999999998,2.1195792,0.10052836,-0.0053289241,-1.609113,57.57,0.10209466,-0.005322209,-1.670926,0.5456947000000001,0.98018494,7.812285,-11.8,40.2,-74.4,-19.8,55.2,247.0,-1094.8,15.0,314.6,1018.8322,-3.4504372,3335.0,0.10209466,0.052069199,-0.005322209,0.0432994008,-1.670926,0.005578199,57540.0,26421.0,29820.0,-22.0,-293.0,3.0,0,None
2023-01-02 06:31:54.150,195.366,0.1000000000000037,69.0,1177.0,22520.0,4888.0,99.0,1183.0,118.5,4883.166666666667,114.5729,2.145303166666667,0.1524648666666666,-0.0016241803333333,-1.6096956666666664,57.63666666666666,0.1548275666666666,-0.0022922723333333,-1.670367,0.6415932833333333,0.9009563666666668,5.132645999999999,-3.1666666666666665,-28.5,-90.83333333333331,-6.166666666666667,128.0,249.0,-1063.5,-1.8333333333333333,313.6666666666667,1018.8498333333332,-3.433046833333333,3335.833333333333,0.1548275666666666,0.1125893633333333,-0.0022922723333333,-0.02991121,-1.670367,-0.006541952,57645.0,26440.0,29925.0,-9.0,-210.5,-4.0,0,None
2023-01-02 06:31:54.700,195.9518,0.1119999999999947,69.0,1182.0,22505.0,4891.0,99.0,1137.0,120.4,4883.0,114.1881,2.1765858,0.2092582666666666,-0.0231979266666666,-1.607685,57.66,0.2110375666666666,-0.0242496233333333,-1.6680946666666667,0.53258802,0.98751958,5.1600372000000005,14.6,-29.7,-111.1,8.0,67.0,239.2,-1047.5,14.4,314.4,1018.8475999999998,-3.4350937000000004,3336.4,0.2110375666666666,0.0512625866666666,-0.0242496233333333,-0.0376216533333333,-1.6680946666666667,0.0185787596666666,57660.0,26432.0,29940.0,0.0,-86.0,-6.0,0,None
2023-01-02 06:31:55.250,196.464,0.0999999999999999,68.0,1143.0,22551.0,4890.0,99.0,1163.4,122.0,4881.2,113.92238,2.1999658,0.213639,-0.0227030266666666,-1.5999476666666668,57.66333333333333,0.2153176,-0.0241229033333333,-1.6599236666666666,0.5726442,1.04706236,5.2620054,26.0,29.0,-108.4,17.8,-34.6,235.8,-1062.6,35.0,311.6,1018.8292,-3.4535938,3337.0,0.2153176,-0.0299081966666666,-0.0241229033333333,0.0181280766666666,-1.6599236666666666,0.0275114633333333,57670.0,26532.0,29950.0,4.0,-2.0,-7.0,0,None
2023-01-02 06:31:55.800,197.02266666666665,0.1000000000000037,68.0,963.0,22583.0,4890.0,99.0,1066.0,123.66666666666669,4885.333333333333,113.6207,2.229540333333333,0.1607544333333333,0.007322213,-1.582489,57.68,0.1642929333333333,0.0062406916666666,-1.6411676666666668,0.8018531000000001,1.4072598333333337,7.727695499999999,48.5,63.333333333333336,-91.0,-8.666666666666666,-78.33333333333333,246.0,-1109.1666666666667,17.666666666666668,306.3333333333333,1018.8580000000002,-3.4246875,3337.833333333333,0.1642929333333333,-0.04899132,0.0062406916666666,0.0828736033333333,-1.6411676666666668,0.0122315826666666,57680.0,26593.0,29960.0,10.0,60.0,-5.0,0,None
2023-01-02 06:31:56.350,197.584,0.1039999999999963,68.0,1016.0,22553.0,4888.0,99.0,1046.6,125.4,4885.6,113.28686,2.2655074,0.11447456,0.0165890699999999,-1.5837905,57.665,0.119588,0.013445917,-1.642096,1.0656064,1.6038734,10.585527,76.4,-44.2,-80.0,-42.4,-183.4,256.4,-1112.4,3.2,319.8,1018.9252,-3.3574062,3338.2,0.119588,-0.2588827,0.013445917,-0.056402035,-1.642096,0.00313159,57660.0,26605.0,29940.0,23.0,97.0,-12.0,0,None
2023-01-02 06:31:56.900,198.116,0.104000000000002,68.0,1070.0,22560.0,4890.0,99.0,1058.6,127.0,4882.4,113.03154,2.2981586,0.0732262533333333,0.0262396963333333,-1.6075986666666668,57.6,0.0785836466666666,0.0231008275666666,-1.6654983333333335,1.183661,1.7730776,12.796704,39.6,54.0,-68.6,13.0,37.2,255.2,-1108.6,-81.0,304.0,1018.949,-3.333453,3339.0,0.0785836466666666,0.0101159066666666,0.0231008275666666,0.01147522,-1.6654983333333335,-0.0775171533333333,57590.0,26421.0,29870.0,27.0,106.0,-6.0,0,None
2023-01-02 06:31:57.450,198.624,0.104000000000002,68.0,1104.0,22517.0,4895.0,99.0,1152.2,128.6,4878.8,112.70944,2.3330490000000004,0.054010495,-0.02840403,-1.6259860000000002,57.525,0.0599175099999999,-0.032180835,-1.684002,0.93250982,1.467956,9.083689,0.0,-86.8,-66.0,-32.6,-61.8,252.0,-1092.0,-18.8,327.0,1018.916,-3.3666560000000003,3339.2,0.0599175099999999,-0.07061701,-0.032180835,-0.04275025,-1.684002,-0.0248187549999999,57520.0,26367.0,29800.0,26.0,111.0,3.0,1,27_xacc_avg_constant_0
2023-01-02 06:31:58.000,199.21266666666665,0.1033333333333293,68.0,1042.0,22555.0,4886.0,99.0,1141.0,130.5,4887.166666666667,112.34886666666668,2.367230333333333,0.057173125,0.002948715,-1.6332077500000002,57.5,0.0625084575,-0.0008851675,-1.690365,0.8179712333333332,1.294757333333333,9.4788805,0.0,94.41666666666669,-60.66666666666666,-14.416666666666666,72.58333333333333,245.75,-1013.8333333333334,17.416666666666668,313.6666666666667,1018.8983333333334,-3.3844856666666665,3340.1666666666665,0.0622582575,0.05037929,-0.0002034224999999,0.03377374625,-1.6902864999999998,0.01086574325,57490.0,26308.0,29770.0,6.0,108.0,3.0,1,27_xacc_avg_constant_0
2023-01-02 06:31:58.550,199.78,0.108000000000004,68.0,1004.0,22557.0,4888.0,99.0,1117.0,132.0,4883.4,112.03602,2.3956488,0.054938635,0.048354355,-1.6223109999999998,57.515,0.058857245,0.04354677,-1.6785905,0.7327843599999999,1.329829,9.442186,0.0,18.2,-68.6,-36.4,-119.8,268.4,-1146.8,32.6,307.0,1018.9026,-3.3802658,3340.6,0.058857245,-0.0205296865,0.04354677,0.047665105,-1.6785905,0.049296965,57510.0,26363.0,29790.0,14.0,109.0,3.0,1,27_xacc_avg_constant_0
2023-01-02 06:31:59.100,200.304,0.1039999999999963,68.0,969.0,22558.0,4875.0,99.0,962.8,133.4,4881.2,111.77546,2.4175119999999994,0.0097571876333333,0.0194087666666666,-1.6207840000000002,57.54,0.014044972,0.014352272,-1.676849,1.26271038,1.4072622,9.506012,0.0,-62.6,-49.0,-66.8,20.8,266.6,-993.6,-25.0,323.4,1018.9522,-3.3305625999999995,3341.2,0.014044972,-0.0258989666666666,0.014352272,-0.1026950966666666,-1.676849,-0.0266111953333333,57540.0,26419.0,29820.0,32.0,96.0,8.0,1,27_xacc_avg_constant_0
2023-01-02 06:31:59.650,200.832,0.104000000000002,68.0,1060.0,22549.0,4880.0,99.0,1113.8,135.4,4880.0,111.49388000000002,2.4385834,0.034703825,-0.0007680081,-1.6317499999999998,57.5,0.03948655,-0.0036560675,-1.6873545,0.71521976,1.1679204,9.0432408,0.0,-1.2,-57.2,-28.8,21.8,246.0,-1074.0,-32.4,318.4,1018.9126,-3.3702342,3342.0,0.03948655,0.02466613,-0.0036560675,0.05282431,-1.6873545,-0.015555912,57520.0,26342.0,29800.0,31.0,70.0,-1.0,1,27_xacc_avg_constant_0
2023-01-02 06:32:00.200,201.396,0.103333333333334,68.0,1296.0,22436.0,4883.0,99.0,1179.8333333333333,136.83333333333334,4881.333333333333,111.2547,2.4541090000000003,0.0359108733333333,0.0085845054666666,-1.6357696666666666,57.46666666666667,0.0407649933333333,0.0049803783333333,-1.6905083333333335,0.5061859166666666,1.185212333333333,6.220466833333333,0.0,9.75,-57.5,-22.0,-15.416666666666666,257.5,-1076.75,-4.583333333333333,315.8333333333333,1018.89475,-3.388020583333333,3342.25,0.0407649933333333,0.0292414563333333,0.0049803783333333,0.0259086979999999,-1.6905083333333335,-0.0003346193333333,57470.0,26313.0,29750.0,22.0,53.0,7.0,1,27_xacc_avg_constant_0
2023-01-02 06:32:00.750,201.992,0.1079999999999983,68.0,1206.0,22490.0,4874.0,99.0,1288.6,139.0,4875.0,111.01218,2.4684494,0.03492214,0.01540705,-1.631676,57.46666666666667,0.0390582133333333,0.012212352,-1.6850093333333334,0.4972812199999999,1.03683312,5.898059600000001,0.0,20.8,-59.0,-5.2,-16.2,250.8,-1063.4,15.8,306.2,1018.8912,-3.3914374,3343.0,0.0390582133333333,-0.0246175833333333,0.012212352,0.032643479,-1.6850093333333334,-0.0141878156666666,57490.0,26348.0,29770.0,25.0,22.0,7.0,1,27_xacc_avg_constant_0
2023-01-02 06:32:01.300,202.496,0.0999999999999999,68.0,1218.0,22489.0,4883.0,99.0,1243.4,140.6,4879.6,110.79646,2.4802554,0.01802096,0.0093549715,-1.6265555,57.5,0.022545195,0.006551658,-1.678531,0.5923267999999999,0.93161766,4.53109,0.0,-86.0,-55.0,-16.4,-15.4,258.6,-1046.2,47.6,305.4,1018.91,-3.3727342,3343.6,0.022545195,-0.007878875,0.006551658,-0.10949427,-1.678531,0.008968685,57500.0,26429.0,29780.0,31.0,3.0,8.0,1,27_xacc_avg_constant_0
2023-01-02 06:32:01.850,203.046,0.099999999999999,68.0,1126.0,22530.0,4890.0,99.0,1155.0,142.5,4879.0,110.55873333333332,2.493053,0.0197542,-0.0239480366666666,-1.6225349999999998,57.51,0.0243840666666666,-0.0256485233333333,-1.6735619999999998,0.49164855,1.0584000333333334,5.153955333333333,0.0,-33.0,-45.66666666666666,-35.166666666666664,11.166666666666666,239.66666666666663,-1065.8333333333333,-1.8333333333333333,329.5,1018.8856666666668,-3.397200333333334,3344.1666666666665,0.0243840666666666,0.0606149553333333,-0.0256485233333333,-0.0326007866666666,-1.6735619999999998,-0.0136064333333333,57520.0,26389.0,29800.0,14.0,-13.0,1.0,1,27_xacc_avg_constant_0
2023-01-02 06:32:02.400,203.624,0.108000000000004,68.0,1211.0,22483.0,4890.0,99.0,1069.2,144.4,4878.8,110.33490000000002,2.5050656,0.02556463,-0.0269984566666666,-1.6199376666666667,57.54666666666666,0.02994363,-0.0275546133333333,-1.670809,0.6002514600000001,1.06006026,5.3239058,0.0,62.0,-47.4,-34.0,50.0,242.8,-1014.0,18.0,325.6,1018.8856000000002,-3.3973280000000003,3345.0,0.02994363,0.0153580236666666,-0.0275546133333333,0.0358855266666666,-1.670809,0.0072182643333333,57560.0,26439.0,29840.0,0.0,-25.0,5.0,1,27_xacc_avg_constant_0
2023-01-02 06:32:02.950,204.136,0.0999999999999999,68.0,1177.0,22489.0,4891.0,99.0,1114.4,146.0,4884.4,110.15352,2.5165104,0.0447074633333333,-0.0064547196666666,-1.6174726666666668,57.56,0.0495659699999999,-0.0079900983333333,-1.667495,0.66100036,1.02746834,5.5635484,0.0,13.6,-49.2,1.6,24.8,239.0,-1088.6,10.4,332.6,1018.8884,-3.394375,3345.0,0.0495659699999999,0.0434099833333333,-0.0079900983333333,0.0194234933333333,-1.667495,0.0087466033333333,57560.0,26446.0,29840.0,-2.0,-35.0,3.0,1,27_xacc_avg_constant_0
2023-01-02 06:32:03.500,204.69933333333333,0.1033333333333293,68.0,1054.5,22517.0,4892.5,99.0,1089.3333333333333,147.66666666666666,4880.833333333333,109.96445,2.528514166666666,0.0281965033333333,-0.0175296156666666,-1.5996046666666668,57.57333333333333,0.0326364933333333,-0.0177679576666666,-1.6491129999999998,0.85941125,1.5369035000000002,10.4542695,0.0,-32.25,-52.66666666666666,-3.333333333333333,-5.583333333333333,248.91666666666663,-1052.75,50.083333333333336,316.4166666666667,1018.8810000000002,-3.401601583333333,3346.0,0.0326364933333333,-0.0349062433333333,-0.0177679576666666,0.0126726166666666,-1.6491129999999998,0.0597256,57570.0,26543.0,29850.0,-5.0,-38.0,-2.0,1,27_xacc_avg_constant_0
2023-01-02 06:32:04.050,205.26,0.0999999999999999,67.0,964.0,22553.0,4877.0,99.0,1103.0,149.4,4872.8,109.7667,2.5411658000000004,0.0568284649999999,-0.023849305,-1.575843,57.57,0.06115692,-0.023862365,-1.6244175,1.3899628,1.7444122,11.974082,0.0,18.8,-50.2,-23.8,106.0,234.0,-1006.2,30.2,332.2,1018.9158,-3.3667654,3346.6,0.06115692,0.091450985,-0.023862365,-0.0355143545,-1.6244175,0.01996225,57570.0,26691.0,29850.0,-6.0,-43.0,0.0,1,27_xacc_avg_constant_0
2023-01-02 06:32:04.600,205.776,0.108000000000004,67.0,1102.0,22489.0,4895.0,99.0,1047.4,150.8,4880.2,109.5844,2.5532508,0.1008492566666666,-0.0100072536666666,-1.572481,57.56333333333333,0.1047693166666666,-0.0089960316666666,-1.6209166666666668,1.0856486,1.660551,11.6951718,0.0,-44.6,-56.2,-8.0,29.8,248.4,-1050.6,7.8,316.0,1018.9108,-3.3720312,3347.2,0.1047693166666666,0.1220489833333333,-0.0089960316666666,-0.0114725266666666,-1.6209166666666668,-0.0035398456666666,57560.0,26721.0,29840.0,-8.0,-23.0,5.0,1,27_xacc_avg_constant_0
2023-01-02 06:32:05.150,206.346,0.099999999999999,67.0,1026.0,22506.0,4893.0,99.0,1003.0,152.5,4884.333333333333,109.40773333333334,2.5665703333333334,0.0852304966666666,-0.0160516809999999,-1.5878636666666666,57.54,0.08963443,-0.014708248,-1.6363163333333333,1.1209293333333332,1.95376,12.700946666666669,0.0,58.833333333333336,-59.333333333333336,-13.0,-27.666666666666668,232.66666666666663,-1057.3333333333333,-36.833333333333336,324.5,1018.933,-3.3498435,3347.5,0.08963443,-0.0391003533333333,-0.014708248,0.0714475633333333,-1.6363163333333333,-0.05519636,57550.0,26685.0,29830.0,-17.0,5.0,3.0,1,27_xacc_avg_constant_0
2023-01-02 06:32:05.700,206.896,0.0999999999999999,67.0,1054.0,22508.0,4891.0,99.0,1025.0,154.0,4882.0,109.23144,2.5828208000000004,0.06999234,0.0009507035,-1.610986,57.505,0.0744986099999999,0.00181903,-1.6597975,1.3354164000000002,1.8684928,12.1429728,0.0,-35.2,-55.2,36.0,-25.4,245.2,-1110.2,1.6,304.6,1018.9378,-3.3449532000000004,3348.0,0.0744986099999999,-0.031380725,0.00181903,0.0027845849999999,-1.6597975,-0.0074736965,57520.0,26508.0,29800.0,-18.0,23.0,7.0,1,27_xacc_avg_constant_0
2023-01-02 06:32:06.250,207.446,0.099999999999999,67.0,1430.0,22426.0,4890.0,99.0,1090.5,155.5,4881.0,109.02746666666668,2.6027503333333333,0.0792819633333333,-0.007432094,-1.6042236666666667,57.47,0.0855249766666666,-0.0066670003333333,-1.65278,0.8586335333333334,1.557828166666667,8.6583005,0.0,21.166666666666668,-63.833333333333336,-25.33333333333333,10.166666666666666,258.0,-1057.0,7.5,320.6666666666667,1018.8815,-3.4012238333333342,3348.5,0.0855249766666666,0.0512466666666666,-0.0066670003333333,-0.0179380933333333,-1.65278,0.0013022666666666,57480.0,26524.5,29760.0,-11.5,36.5,5.0,1,27_xacc_avg_constant_0
2023-01-02 06:32:06.800,208.016,0.104000000000002,67.0,1007.0,22529.0,4875.0,99.0,1110.6,157.6,4881.0,108.79652000000002,2.6252658,0.0724334833333333,-0.0050688736666666,-1.6053753333333336,57.49,0.07882493,-0.0038693711333333,-1.6528843333333334,0.77551734,1.2291059999999998,7.709192199999999,0.0,-6.0,-56.4,10.0,0.0,252.4,-1022.6,-18.2,318.6,1018.8772,-3.4055468000000007,3349.4,0.07882493,0.0154933066666666,-0.0038693711333333,-0.0020411733333333,-1.6528843333333334,-0.0041431453333333,57490.0,26520.0,29770.0,-7.0,39.0,2.0,1,27_xacc_avg_constant_0
2023-01-02 06:32:07.350,208.566,0.099999999999999,67.0,1164.0,22463.0,4887.0,99.0,1193.3333333333333,159.5,4884.166666666667,108.55386666666668,2.6490506666666667,0.0551708633333333,-0.0044766645666666,-1.608437,57.51333333333333,0.0619161033333333,-0.0029883469,-1.653792,0.6662876000000001,1.1468884666666668,6.692647666666667,0.0,-14.666666666666666,-62.5,15.833333333333334,-11.833333333333334,251.66666666666663,-1043.8333333333333,14.5,318.8333333333333,1018.827,-3.455963666666667,3349.833333333333,0.0619161033333333,-0.08540258,-0.0029883469,-0.0017351259999999,-1.653792,0.032434745,57540.0,26534.0,29820.0,3.0,33.0,3.0,1,27_xacc_avg_constant_0
2023-01-02 06:32:07.900,209.116,0.0999999999999999,67.0,1071.0,22505.0,4896.0,99.0,1054.2,161.0,4884.0,108.30616,2.6730786,0.037422175,-0.026399765,-1.604276,57.59,0.044565175,-0.02401297,-1.64858,0.68695816,1.2617869999999998,6.2477394,0.0,1.4,-51.6,-15.2,-46.8,248.2,-1038.6,-8.4,321.0,1018.8862,-3.3966406,3350.4,0.044565175,-0.0053296609999999,-0.02401297,-0.044488635,-1.64858,-0.00503273,57600.0,26529.0,29880.0,-5.0,23.0,-1.0,1,27_xacc_avg_constant_0
2023-01-02 06:32:08.450,209.62,0.104000000000002,67.0,1142.0,22448.0,4893.0,98.2,1093.4,162.6,4886.8,108.0898,2.6947204000000005,0.0320366933333333,-0.0064505787666666,-1.6209653333333334,57.6,0.03970591,-0.004144986,-1.6649306666666666,0.76420122,1.1118284,7.3682286,0.0,50.0,-47.0,-28.6,39.6,252.8,-1033.8,-12.8,318.8,1018.8738,-3.4089374,3350.6,0.03970591,0.0617530966666666,-0.004144986,0.05121321,-1.6649306666666666,-0.04453444,57600.0,26449.0,29880.0,-10.0,7.0,-2.0,1,27_xacc_avg_constant_0
2023-01-02 06:32:09.000,210.1926666666666,0.1033333333333293,67.0,1031.5,22501.5,4885.0,98.0,1087.6666666666667,164.16666666666666,4876.833333333333,107.86946666666668,2.717843,0.0530533699999999,0.0095668176666666,-1.6229439999999995,57.59,0.0609003099999999,0.0101214103333333,-1.6672886666666666,0.7601072166666666,1.3121936666666667,8.020167833333334,0.0,13.166666666666666,-51.583333333333336,5.0,29.08333333333333,255.16666666666663,-1086.8333333333333,11.083333333333334,315.5,1018.8656666666668,-3.417037666666667,3351.25,0.0609003099999999,0.0609050899999999,0.0101214103333333,-0.0146284866666666,-1.6672886666666666,0.012224247,57590.0,26447.0,29870.0,-1.0,-5.0,-5.0,1,27_xacc_avg_constant_0
2023-01-02 06:32:09.550,210.76800000000003,0.104000000000002,67.0,1243.0,22422.0,4879.0,98.0,1106.8,166.0,4877.0,107.68296,2.736115,0.0747103133333333,-0.0133986963333333,-1.616294,57.583333333333336,0.08144406,-0.0108964936666666,-1.6601963333333334,0.7265237200000001,1.1397184,7.573865,0.0,-42.8,-60.6,6.0,46.2,249.2,-1057.6,14.6,321.6,1018.8578,-3.425078,3352.0,0.08144406,0.0289107833333333,-0.0108964936666666,-0.024282222,-1.6601963333333334,0.005987642,57590.0,26482.0,29870.0,10.0,-6.0,-2.0,1,27_xacc_avg_constant_0
2023-01-02 06:32:10.100,211.284,0.104000000000002,67.0,1465.0,22352.0,4880.0,98.0,1232.6,167.4,4879.4,107.51356,2.7520206,0.08345272,-0.021303855,-1.6131685,57.58,0.0902402599999999,-0.01934139,-1.6563135,0.6102297200000001,1.1808348,6.9193876,0.0,-15.8,-58.4,3.2,-33.4,237.2,-1142.2,2.6,310.2,1018.8582,-3.424375,3352.4,0.0902402599999999,-0.12833133,-0.01934139,-0.011573047,-1.6563135,0.000855955,57580.0,26508.0,29860.0,12.0,0.0,-7.0,1,27_xacc_avg_constant_0
2023-01-02 06:32:10.650,211.85933333333327,0.103333333333334,67.0,1213.0,22462.0,4882.0,98.0,1120.8333333333333,169.5,4877.666666666667,107.32223333333332,2.771558,0.07057143,-0.0252663033333333,-1.6228196666666663,57.586666666666666,0.0769822,-0.02243715,-1.6665696666666667,0.63635405,1.105529,6.297220500000001,0.0,25.666666666666668,-56.833333333333336,-12.166666666666666,-24.666666666666668,255.0,-1041.5,-27.0,328.6666666666667,1018.8471666666666,-3.435481666666666,3353.0,0.0769822,0.0006847333333333,-0.02243715,0.00821082,-1.6665696666666667,-0.0261307966666666,57590.0,26467.0,29870.0,8.0,8.0,-1.0,1,27_xacc_avg_constant_0
2023-01-02 06:32:11.200,212.42800000000005,0.1039999999999963,67.0,1183.0,22448.0,4883.0,98.0,1148.2,171.4,4872.2,107.13604,2.7939236000000003,0.06068199,-0.0214209966666666,-1.622159,57.60666666666666,0.0685997466666666,-0.0190571566666666,-1.664969666666667,0.7044124199999999,1.1413158,6.974935199999999,0.0,-8.0,-56.8,3.8,32.4,237.4,-984.8,45.6,318.8,1018.8502,-3.4325936,3353.8,0.0685997466666666,0.0018268879999999,-0.0190571566666666,-0.0204695033333333,-1.664969666666667,0.0460506169999999,57610.0,26432.0,29890.0,7.0,5.0,0.0,1,27_xacc_avg_constant_0
2023-01-02 06:32:11.750,212.956,0.1040000000000019,67.0,1064.0,22493.0,4869.0,98.0,1114.8,173.0,4875.2,106.97852,2.8158466,0.0707150533333333,-0.02282374,-1.617295333333333,57.60999999999999,0.07872584,-0.0205206099999999,-1.6595486666666666,0.77835208,1.215208,8.5490114,0.0,-15.1,-53.8,23.9,16.7,240.4,-1074.9,15.3,324.7,1018.8533,-3.4293749999999994,3354.2,0.07872584,0.03033791,-0.0205206099999999,-0.0243969533333333,-1.6595486666666666,0.0200500033333333,57610.0,26478.0,29890.0,7.0,0.0,-1.0,1,27_xacc_avg_constant_0
2023-01-02 06:32:12.300,213.472,0.1039999999999963,67.0,1105.0,22459.0,4883.0,98.0,1088.0,174.6,4887.2,106.85472,2.8354402,0.08072628,-0.03826673,-1.612729,57.61,0.088818425,-0.035740995,-1.654727,0.81306396,1.3242341999999998,8.138535399999999,0.0,-10.4,-56.6,8.4,5.0,241.2,-1107.2,15.2,321.4,1018.8734,-3.4092812,3354.4,0.0877047599999999,0.0013305249999999,-0.03552194,0.0148925149999999,-1.6547845,0.01081183,57610.0,26504.0,29890.0,6.0,-4.0,-2.0,1,27_xacc_avg_constant_0
2023-01-02 06:32:12.850,214.046,0.103333333333334,67.0,1133.0,22446.0,4867.0,98.0,1155.1666666666667,176.16666666666666,4883.333333333333,106.72546666666666,2.8598733333333333,0.0957414366666666,-0.02132914,-1.6149493333333331,57.586666666666666,0.1038873433333333,-0.0181328353333333,-1.6561456666666663,0.7787468,1.3460029999999998,7.974544166666667,63.16666666666666,52.333333333333336,-66.0,2.1666666666666665,7.833333333333333,243.16666666666663,-1041.8333333333333,5.5,319.3333333333333,1018.8828333333336,-3.3999606666666664,3355.0,0.1038873433333333,0.0022622066666666,-0.0181328353333333,0.0335768733333333,-1.6561456666666663,0.008390387,57585.0,26504.5,29865.0,-6.5,3.0,-1.0,0,None
2023-01-02 06:32:13.400,214.6362,0.1160000000000024,67.0,1140.5,22491.5,4889.0,98.0,1096.8,178.2,4881.4,106.60336,2.8877239999999995,0.09530105,-0.0008680361333333,-1.620818,57.57,0.1027529999999999,0.0004745076666666,-1.661868,0.77224698,1.3718128,9.3543062,69.1,3.7,-64.0,-16.1,18.4,247.8,-1051.7,17.1,322.3,1018.8738,-3.4090937,3355.5,0.1027529999999999,0.0319404263333333,0.0004745076666666,0.0262668933333333,-1.661868,0.01664672,57570.0,26491.0,29850.0,1.0,14.0,0.0,0,None
2023-01-02 06:32:13.950,215.1602,0.0999999999999999,67.0,1106.0,22487.0,4882.0,98.0,1079.8,179.8,4881.6,106.47564,2.9146758000000004,0.0832130099999999,-0.0079034745333333,-1.6140663333333334,57.55,0.09141168,-0.0059383238666666,-1.654609,0.88870334,1.4257958,8.251524999999999,68.2,-30.0,-58.4,-3.2,-38.6,251.4,-1040.8,16.8,313.0,1018.9012,-3.3814376000000004,3356.0,0.09141168,-0.0287010433333333,-0.0059383238666666,-0.03844228,-1.654609,0.0153465536666666,57540.0,26520.0,29820.0,7.0,16.0,2.0,0,None
2023-01-02 06:32:14.500,215.68400000000003,0.1039999999999963,67.0,899.0,22575.0,4891.0,98.0,1030.0,181.4,4882.4,106.34292,2.938771,0.0738001299999999,-0.01802084,-1.61451,57.525000000000006,0.0807324899999999,-0.01678363,-1.654946,0.8265840200000001,1.4421928,9.112015,76.2,-5.6,-51.2,-3.8,-0.4,249.4,-1074.2,12.0,327.0,1018.8918,-3.3907186000000005,3356.6,0.0807324899999999,-0.01165866,-0.01678363,-0.015754758,-1.654946,0.0109717894999999,57520.0,26512.0,29800.0,7.0,17.0,6.0,0,None
2023-01-02 06:32:15.050,216.25266666666667,0.103333333333334,67.0,1149.0,22460.0,4871.0,98.0,1013.1666666666666,182.8333333333333,4885.666666666667,106.18223333333331,2.9672126666666667,0.0784234366666666,-0.0195653533333333,-1.6091663333333333,57.50333333333333,0.08675977,-0.0176717099999999,-1.6491356666666668,0.9135829,1.5241241666666667,10.037113333333332,57.0,-7.5,-53.16666666666666,17.166666666666668,26.166666666666668,246.66666666666663,-1007.3333333333334,1.0,327.0,1018.8553333333334,-3.4273306666666667,3357.0,0.08675977,0.0279599053333333,-0.0176717099999999,-0.01514705,-1.6491356666666668,0.0026621266666666,57500.0,26577.0,29780.0,10.0,17.0,-1.0,0,None
2023-01-02 06:32:15.600,216.82800000000003,0.104000000000002,67.0,1021.0,22491.0,4893.0,98.0,1017.6,184.6,4882.4,106.01862,2.9978404000000003,0.0918127933333333,-0.0208694133333333,-1.6060366666666666,57.49,0.1001999599999999,-0.0189053533333333,-1.6454373333333334,0.93758666,1.410746,8.832561799999999,48.4,-8.8,-52.6,10.8,25.8,245.0,-1029.2,3.2,334.2,1018.8196,-3.463031,3357.6,0.1001999599999999,0.0651817833333333,-0.0189053533333333,-0.0241599599999999,-1.6454373333333334,0.0070742233333333,57480.0,26576.0,29760.0,17.0,15.0,1.0,0,None
2023-01-02 06:32:16.150,217.344,0.104000000000002,67.0,1007.0,22501.0,4895.0,98.0,1070.2,186.2,4888.0,105.8724,3.027652,0.0842964833333333,-0.0508195833333333,-1.5998803333333331,57.48666666666666,0.0921136733333333,-0.04892988,-1.6385553333333334,0.99634534,1.4364924,8.793963600000001,65.8,-68.5,-56.1,57.6,-16.6,244.3,-1117.4,10.3,328.9,1018.857,-3.4256875,3358.2,0.0923259266666666,-0.025239687,-0.0485183533333333,-0.0403376566666666,-1.6384393333333334,0.0059085836666666,57490.0,26616.0,29770.0,25.0,18.0,-1.0,0,None
2023-01-02 06:32:16.700,217.91266666666664,0.099999999999999,67.0,1188.0,22480.0,4895.0,98.0,994.6666666666666,187.66666666666663,4882.333333333333,105.755,3.05737,0.07750156,-0.05269165,-1.6043713333333336,57.45666666666667,0.08644914,-0.0510948433333333,-1.6421083333333335,0.9970986833333332,1.4718239999999998,9.500217999999998,35.166666666666664,-3.1666666666666665,-48.66666666666666,29.666666666666668,-10.5,237.8333333333333,-1040.0,-21.666666666666668,342.3333333333333,1018.8615,-3.4215495000000007,3358.1666666666665,0.08644914,0.0032662726,-0.0510948433333333,-0.0116641033333333,-1.6421083333333335,-0.0192786416666666,57470.0,26602.0,29750.0,15.0,18.0,-5.0,0,None
2023-01-02 06:32:17.250,218.47600000000003,0.1039999999999963,67.0,1096.0,22499.0,4871.0,98.0,1009.4,189.4,4891.4,105.67876,3.0874152,0.06344468,-0.055183945,-1.608011,57.415,0.07141758,-0.053879615,-1.645369,1.102781,1.49284,10.6555838,-2.2,3.2,-47.6,50.4,-69.8,240.8,-1115.6,4.2,343.4,1018.8991999999998,-3.3833906,3358.8,0.07141758,-0.025116127,-0.053879615,-0.009024625,-1.645369,0.0060676145,57430.0,26579.0,29710.0,8.0,18.0,-7.0,0,None
2023-01-02 06:32:17.800,218.996,0.104000000000002,67.0,937.0,22533.0,4875.0,98.0,931.6,190.6,4884.8,105.64888,3.1165036,0.0538414266666666,-0.04470241,-1.6111373333333334,57.36000000000001,0.0621895399999999,-0.04270266,-1.64823,1.1263966,1.642452,13.694264,55.2,16.2,-42.2,3.8,-39.6,229.0,-1071.8,-4.0,329.4,1018.8848,-3.3981718,3359.0,0.0621895399999999,-0.0633592959333333,-0.04270266,0.0444322033333333,-1.64823,-0.0077655563333333,57400.0,26568.0,29680.0,-8.0,20.0,-1.0,0,None
2023-01-02 06:32:18.350,219.5495,0.103333333333334,67.0,813.0,22575.0,4893.0,98.0,885.3333333333334,192.0,4883.166666666667,105.65786666666668,3.1462886666666665,0.0519385199999999,-0.020366715,-1.6184486666666666,57.31,0.0603171733333333,-0.0192827593333333,-1.6556503333333332,1.1583426666666667,1.7682121666666666,15.198221666666669,48.66666666666666,45.16666666666666,-43.66666666666666,-5.5,-13.833333333333334,246.5,-1068.3333333333333,-12.666666666666666,327.5,1018.9108333333334,-3.3720311666666665,3359.6666666666665,0.0603171733333333,-0.0266465933333333,-0.0192827593333333,0.0184082093333333,-1.6556503333333332,-0.0100147233333333,57320.0,26524.0,29600.0,-24.0,17.5,-0.5,0,None
2023-01-02 06:32:18.900,220.104,0.104000000000002,67.0,1098.0,22493.0,4893.0,98.0,938.2,193.4,4882.0,105.68932,3.1748812,0.04543922,-0.0002415659999999,-1.6290545,57.260000000000005,0.0537958,-1.144299999999987e-05,-1.6664355,1.1498517999999998,1.8823918,14.718214,50.2,10.4,-43.8,-0.4,0.2,249.8,-1100.4,-41.6,325.4,1018.938,-3.3446252000000003,3360.0,0.0537958,-0.095673574,-1.144299999999987e-05,-0.01138038,-1.6664355,-0.059449615,57250.0,26432.0,29530.0,-22.0,16.0,0.0,0,None
2023-01-02 06:32:19.450,220.62,0.0999999999999999,67.0,901.0,22540.0,4887.0,98.0,899.4,194.8,4887.2,105.71498,3.199938,0.05476919,-0.0039110023333333,-1.6342533333333331,57.22666666666667,0.0632096833333333,-0.0036457501333333,-1.6708206666666667,1.1436456000000002,1.8831316,13.121124,50.4,9.0,-51.2,-25.2,48.2,250.4,-1155.8,-8.2,336.6,1018.953,-3.3296092,3360.2,0.0632096833333333,-0.0321138866666666,-0.0036457501333333,0.01159124,-1.6708206666666667,0.0235796526666666,57210.0,26429.0,29490.0,-19.0,12.0,7.0,0,None
2023-01-02 06:32:20.000,221.18616666666665,0.099999999999999,67.0,986.5,22525.5,4891.5,98.0,1020.0,196.3333333333333,4883.5,105.71316666666668,3.226963,0.0535680533333333,0.0064244862333333,-1.6354873333333335,57.173333333333325,0.0616708366666666,0.0075518716666666,-1.671927333333333,0.9452247833333336,1.618379,11.376326166666669,67.66666666666667,48.16666666666666,-53.0,-42.5,-56.5,246.8333333333333,-1107.0,-8.666666666666666,314.8333333333333,1018.9428333333336,-3.340052,3360.833333333333,0.0616708366666666,0.0395996066666666,0.0075518716666666,0.0097294056666666,-1.671927333333333,-0.0309471346666666,57170.0,26429.0,29450.0,-15.0,6.0,8.0,0,None
2023-01-02 06:32:20.550,221.74,0.0999999999999999,67.0,931.0,22548.0,4888.0,98.0,954.8,197.6,4875.4,105.67868,3.2480078000000008,0.060284575,0.01868135,-1.636452,57.17,0.06797442,0.01933279,-1.673287,1.1621464,1.766656,12.668366,104.2,14.8,-51.0,-27.8,60.2,260.0,-962.0,0.0,326.4,1018.9400000000002,-3.3427032,3361.2,0.06797442,0.04662935,0.01933279,-0.033414131,-1.673287,0.0148889379999999,57170.0,26404.0,29450.0,-3.0,3.0,12.0,0,None
2023-01-02 06:32:21.100,222.28616666666667,0.099999999999999,67.0,1103.0,22468.0,4883.0,98.0,1015.6666666666666,199.3333333333333,4878.0,105.62158333333332,3.2659725,0.0682651266666666,0.009308583,-1.634877,57.17,0.0751213866666666,0.0107552976666666,-1.671797,1.0716483666666667,1.552558,12.089883333333333,59.833333333333336,-7.0,-52.5,-39.333333333333336,49.66666666666666,259.8333333333333,-999.5,7.666666666666667,313.1666666666667,1018.922,-3.3610418333333336,3361.833333333333,0.0751213866666666,-0.016769691,0.0107552976666666,-0.0159161879999999,-1.671797,-0.0105152126666666,57170.0,26425.0,29450.0,4.0,1.0,11.0,0,None
2023-01-02 06:32:21.650,222.84,0.0999999999999999,67.0,800.0,22558.0,4880.0,98.0,978.2,200.8,4877.6,105.5431,3.282832,0.07819477,-0.0007023756666666,-1.6281583333333334,57.193333333333335,0.08596902,0.0009862423333333,-1.664369,1.05509974,1.3801266,9.9128976,95.0,-33.4,-55.6,-25.2,-18.2,252.4,-1071.2,22.4,314.4,1018.8936,-3.3891248,3362.0,0.08596902,-0.0073033633333333,0.0009862423333333,-0.0261744866666666,-1.664369,0.0169797013333333,57190.0,26465.0,29470.0,15.0,0.0,9.0,0,None
2023-01-02 06:32:22.200,223.386,0.099999999999999,67.0,1090.0,22479.0,4887.0,98.0,1034.5,202.5,4875.666666666667,105.43653333333334,3.3006163333333336,0.07781831,-0.0211946799999999,-1.6307483333333332,57.22666666666666,0.0855118399999999,-0.0196928666666666,-1.666638,0.8684644833333333,1.3571921666666666,9.823709166666667,71.0,-25.83333333333333,-55.5,-19.666666666666668,24.83333333333333,247.16666666666663,-1020.1666666666666,-20.666666666666668,324.1666666666667,1018.8796666666666,-3.403086,3362.5,0.0855118399999999,-0.0430396746666666,-0.0196928666666666,0.0013211143333333,-1.666638,-0.0051277343333333,57220.0,26440.0,29500.0,13.0,0.0,5.0,0,None
2023-01-02 06:32:22.750,223.94,0.0999999999999999,67.0,845.0,22549.0,4872.0,98.0,1144.2,204.0,4881.6,105.32238,3.3187086,0.07440377,-0.0132980095,-1.6277685000000002,57.25,0.08296702,-0.0103128695,-1.663643,0.80267862,1.3162976,9.087133,58.6,32.4,-56.8,-15.6,-29.4,254.4,-1041.0,-6.8,329.6,1018.9194,-3.3633124000000003,3363.0,0.08296702,0.02499775,-0.0103128695,-0.0135027795,-1.663643,0.012728235,57250.0,26472.0,29530.0,3.0,1.0,6.0,0,None
2023-01-02 06:32:23.300,224.486,0.099999999999999,67.0,1087.0,22467.0,4888.0,98.0,1044.8333333333333,205.66666666666663,4884.5,105.21441666666668,3.336427833333333,0.07321032,0.0089421593333333,-1.6329383333333336,57.24,0.0815554333333333,0.0105337613333333,-1.668826,0.7841037666666667,1.4093701666666665,8.206864666666666,62.16666666666666,17.333333333333332,-51.66666666666666,-8.666666666666666,-7.666666666666667,259.3333333333333,-1073.3333333333333,-0.6666666666666666,321.5,1018.9408333333334,-3.3418876666666666,3363.1666666666665,0.0815554333333333,-0.0140096396666666,0.0105337613333333,0.02337241,-1.668826,-0.0126860083333333,57240.0,26458.0,29520.0,-1.0,3.0,0.0,0,None
2023-01-02 06:32:23.850,225.04,0.0999999999999999,67.0,932.0,22542.0,4888.0,98.0,1086.2,207.4,4882.2,105.10088,3.3540244,0.0779018133333333,0.0064679049999999,-1.6437186666666666,57.22,0.08570526,0.00823584586,-1.6790633333333334,0.7984771399999999,1.2260046,5.5687726,48.6,10.0,-57.8,-40.0,32.0,236.4,-1056.4,-28.8,303.2,1018.9128,-3.3701092000000004,3363.8,0.08570526,0.0344360596666666,0.00823584586,0.0239898033333333,-1.6790633333333334,-0.0372921176666666,57230.0,26423.0,29510.0,0.0,8.0,10.0,0,None
2023-01-02 06:32:24.400,225.5895,0.103333333333334,67.0,1098.0,22439.0,4890.0,98.0,1108.0,209.16666666666663,4886.666666666667,104.9703,3.3719833333333327,0.0703135466666666,0.0227965233333333,-1.6433733333333331,57.23333333333333,0.0782149266666666,0.0245368233333333,-1.6786116666666666,0.66295635,1.0421343333333335,5.890266333333334,48.66666666666666,20.33333333333333,-59.66666666666666,-28.666666666666668,-42.5,259.3333333333333,-1081.3333333333333,-8.5,321.6666666666667,1018.9045,-3.3784635000000005,3364.0,0.0782149266666666,-0.0317125533333333,0.0245368233333333,-0.0212946466666666,-1.6786116666666666,-0.0023753678999999,57230.0,26378.0,29510.0,4.5,12.0,5.5,0,None
