00000_Time_epoch,00000_Time_boot_sec,00000_Span_Time_boot_sec,1_battery_remaining_avg,1_current_battery_avg,1_voltage_battery_avg,125_Vcc_avg,147_battery_remaining_avg,147_current_battery_avg,147_current_consumed_avg,165_Vcc_avg,168_direction_avg,168_speed_avg,178_pitch_avg,178_roll_avg,178_yaw_avg,182_altitude_avg,182_pitch_avg,182_roll_avg,182_yaw_avg,241_vibration_x_avg,241_vibration_y_avg,241_vibration_z_avg,27_xacc_avg,27_xgyro_avg,27_xmag_avg,27_yacc_avg,27_ygyro_avg,27_ymag_avg,27_zacc_avg,27_zgyro_avg,27_zmag_avg,29_press_abs_avg,29_press_diff_avg,29_temperature_avg,30_pitch_avg,30_pitchspeed_avg,30_roll_avg,30_rollspeed_avg,30_yaw_avg,30_yawspeed_avg,33_alt_avg,33_hdg_avg,33_relative_alt_avg,33_vx_avg,33_vy_avg,33_vz_avg,label,diagnosis
2023-01-03 14:45:46.500,2286.5370000000003,-0.1119999999999891,80.0,87.0,23132.0,4880.0,96.0,84.75,565.0,4887.0,-172.93402,0.054462742,-0.0038663206666666,-0.01661697,-1.3254063333333337,32.09,-0.0041959533333333,-0.0163327533333333,-1.3276103333333331,0.024914605,0.0234112849999999,0.03559036,-14.2,6.0,52.6,0.6,6.8,264.2,-1047.0,-2.4,335.2,1018.365,-0.0042656249999999,3880.0,-0.0041959533333333,0.0072525296666666,-0.0163327533333333,0.007202511,-1.3276103333333331,-0.0032562243333333,32090.0,28394.0,10.0,2.0,0.0,3.0,0,None
2023-01-03 14:45:47.050,2287.0530000000003,0.0999999999999999,80.0,87.0,23163.0,4887.0,96.0,87.4,566.0,4889.2,-165.80448,0.086812858,-0.00332583,-0.0166628399999999,-1.3253385,32.1,-0.0042583759999999,-0.01632087,-1.327653,0.02766455,0.025237032,0.037133124,-14.2,6.4,52.0,0.8,6.2,264.4,-1046.4,-2.2,334.6,1018.3516,-0.017453124,3880.0,-0.0042583759999999,0.006259931,-0.01632087,0.0068412844999999,-1.327653,-0.0028924885,32100.0,28393.0,20.0,2.0,0.0,2.0,0,None
2023-01-03 14:45:47.600,2287.589,0.1079999999999926,80.0,85.0,23155.0,4877.0,96.0,88.0,566.0,4887.8,-162.26889999999997,0.1241194,-0.0032657816666666,-0.0167063766666666,-1.3253823333333334,32.10333333333333,-0.004241915,-0.0165128866666666,-1.327616666666667,0.026067916,0.025031856,0.0364351099999999,-15.4,6.9,51.1,3.8,5.6,265.6,-1042.4,0.0,334.7,1018.3493,-0.019703123,3880.0,-0.004241915,0.0070103663333333,-0.0165128866666666,0.0069186136666666,-1.327616666666667,-0.002662601,32100.0,28394.0,20.0,2.0,0.0,2.0,0,None
2023-01-03 14:45:48.150,2288.143,0.0999999999999848,80.0,239.0,23074.0,4893.0,96.0,200.5,566.0,4883.5,-160.3164,0.1648471333333333,-0.003013235,-0.0162837366666666,-1.3258026666666665,32.11666666666667,-0.0042413383333333,-0.01654181,-1.327682,0.1728324333333333,0.3144208166666667,1.0647307166666666,-9.833333333333334,5.666666666666667,48.66666666666666,-24.0,6.833333333333333,252.66666666666663,-1040.6666666666667,-0.1666666666666666,329.8333333333333,1018.3593333333332,-0.0099609383333333,3880.0,-0.0042413383333333,0.0067192329999999,-0.01654181,0.009686817,-1.327682,0.0157836466666666,32110.0,28398.0,30.0,2.0,1.0,2.0,0,None
2023-01-03 14:45:48.700,2288.725,0.1079999999999926,80.0,131.0,23092.0,4900.0,96.0,130.6,566.0,4882.6,-158.86556000000002,0.2114107,-0.0035618945,-0.016759325,-1.3256285,32.13,-0.004163187,-0.016621075,-1.327843,0.088769518,0.16867152,0.39162598,-15.4,6.8,51.0,14.2,6.4,254.2,-1045.4,-5.2,333.8,1018.3758,0.006796874,3880.4,-0.004163187,0.0079940265,-0.016621075,0.006023207,-1.327843,-0.01425945,32130.0,28392.0,50.0,2.0,2.0,2.0,0,None
2023-01-03 14:45:49.250,2289.253,0.1039999999999963,80.0,123.0,23117.0,4893.0,96.0,128.2,566.0,4891.6,-158.05328,0.25038182,-0.0036954516666666,-0.01646286,-1.3250913333333332,32.14,-0.00420798,-0.01668138,-1.3276659999999998,0.063723418,0.15060108,0.38302604,-16.4,5.2,53.2,0.0,5.6,254.4,-1046.4,-0.2,334.8,1018.3704,0.001281251,3880.8,-0.00420798,0.0063246013333333,-0.01668138,0.0069222046666666,-1.3276659999999998,-0.0040961024666666,32140.0,28395.0,60.0,1.0,2.0,1.0,0,None
2023-01-03 14:45:49.800,2289.8205000000003,0.1035000000000157,80.0,1005.5,22874.5,4890.5,96.0,1039.1666666666667,567.1666666666666,4891.333333333333,-157.34953333333334,0.2916084333333333,0.0055370643333333,-0.01644731,-1.327347,32.14333333333334,0.0045305763333333,-0.0168046299999999,-1.3287473333333333,0.3062412683333333,0.9398787166666668,2.73186445,-5.666666666666667,9.5,28.666666666666668,-8.5,53.66666666666666,251.5,-1130.0,3.8333333333333335,298.3333333333333,1018.55,0.1807812541666666,3880.8333333333335,0.0045305763333333,0.0392553466666666,-0.0168046299999999,-0.0020231543333333,-1.3287473333333333,-0.0003774396666666,32140.0,28395.0,60.0,1.0,2.0,1.0,0,None
2023-01-03 14:45:50.350,2290.3740000000003,0.0999999999999999,79.0,1932.0,22636.0,4880.0,96.0,1702.6,569.8,4892.0,-157.30077999999995,0.33487256,0.01699257,-0.0074792685,-1.3321714999999998,32.385000000000005,0.0155104185,-0.0077401389999999,-1.3309350000000002,0.4322323,1.2921978,6.4721758,-4.2,56.8,16.6,-11.2,-45.8,240.0,-1268.6,9.2,282.8,1018.5684,0.1991249959999999,3881.0,0.0155104185,-0.066352235,-0.0077401389999999,0.021923747,-1.3309350000000002,-0.0057623749999999,32190.0,28378.0,110.0,-4.0,5.0,55.0,0,None
2023-01-03 14:45:50.900,2290.882,0.1079999999999926,79.0,1839.0,22608.0,4896.0,96.0,1857.4,572.2,4887.2,-158.58898,0.3750416,-0.0062331603333333,0.0220850333333333,-1.3308436666666663,33.21,-0.006428963,0.0219480633333333,-1.3275373333333331,0.44815656,1.7935960000000002,8.645897600000001,4.9,27.6,20.8,-10.8,18.9,261.8,-1246.6,20.7,280.2,1018.2318,-0.13761718,3881.0,-0.006428963,0.0435900733333333,0.0219480633333333,0.0491981566666666,-1.3275373333333331,0.0078066933333333,33315.0,28416.0,1235.0,5.5,5.5,209.5,0,None
2023-01-03 14:45:51.450,2291.447833333333,0.096833333333355,78.0,1743.0,22634.0,4856.0,96.0,1815.1666666666667,575.5,4883.833333333333,-159.7705,0.4091838666666667,0.0055066333333333,-0.00837982,-1.315436,34.826666666666675,0.0034728466666666,-0.00823469,-1.3531313333333337,0.4169966333333333,1.9097595,9.2175515,-4.166666666666667,-116.33333333333331,24.166666666666668,-7.666666666666667,-42.5,253.3333333333333,-1122.5,-5.833333333333333,299.0,1018.0071666666666,-0.3619791666666667,3881.0,0.0034728466666666,-0.0342165666666666,-0.00823469,-0.0965705966666666,-1.3531313333333337,-0.0057192166666666,35390.0,27729.0,3310.0,20.0,5.0,306.0,0,None
2023-01-03 14:45:52.000,2292.0078000000003,0.1081999999999424,78.0,1765.0,22635.0,4893.0,96.0,1786.6,578.2,4882.2,-160.84766000000002,0.4357927,-0.0065533056666666,-0.05489561,-1.3309173333333335,36.79333333333333,-0.0083971623333333,-0.0536150766666666,-1.453736,0.37965686,2.0386508,6.8754948,-9.8,-0.8,28.4,-6.8,60.4,247.4,-1076.2,-7.6,327.0,1017.8268,-0.5423593600000001,3881.2,-0.0083971623333333,0.0090864466666666,-0.0536150766666666,0.02393831,-1.453736,-0.0098566516666666,37060.0,27667.0,4980.0,-2.0,-5.0,333.0,0,None
2023-01-03 14:45:52.550,2292.528,0.0999999999999999,77.0,1274.0,22705.0,4882.0,96.0,1356.2,580.4,4885.0,-161.59967999999998,0.4664921999999999,0.014111382,-0.024683695,-1.336709,38.485,0.0129271605,-0.024161245,-1.456237,0.47726216,1.28239106,3.5853200000000003,-11.6,101.2,20.8,-5.4,-7.0,236.8,-971.2,11.0,319.4,1017.6704000000002,-0.69890624,3881.2,0.0129271605,0.0163873849999999,-0.024161245,0.09958101,-1.456237,0.0041128085,38770.0,27662.0,6690.0,-26.0,-1.0,305.0,0,None
2023-01-03 14:45:53.100,2293.1026666666667,0.1033333333333909,77.0,1202.0,22725.0,4893.0,96.0,1250.3333333333333,582.1666666666666,4885.666666666667,-162.98285,0.4976535833333333,-0.021616897,0.028564541,-1.3302436666666668,39.836666666666666,-0.0232645066666666,0.0277887013333333,-1.4473853333333333,0.7010029166666666,1.1349023166666667,4.037656833333333,-0.1666666666666666,89.83333333333333,37.333333333333336,-51.5,-68.5,257.1666666666667,-835.1666666666666,9.833333333333334,293.0,1017.4965,-0.8727082999999999,3881.5,-0.0232645066666666,-0.0392217933333333,0.0277887013333333,0.1074219633333333,-1.4473853333333333,-0.0003303779999999,40040.0,27716.0,7960.0,-26.0,-8.0,203.0,0,None
2023-01-03 14:45:53.650,2293.656,0.0999999999999999,77.0,1134.0,22768.0,4877.0,96.0,1168.0,584.0,4885.4,-164.25014000000002,0.5158686400000001,-0.03017656,0.0370266766666666,-1.335292,40.74333333333333,-0.0301177599999999,0.0360070866666666,-1.4495083333333334,0.74801168,1.04105498,4.4778076,25.6,-6.2,45.8,-31.2,53.0,261.2,-891.6,-1.4,290.0,1017.3462,-1.02307816,3881.6,-0.0301177599999999,0.0717959666666666,0.0360070866666666,0.0025404583333333,-1.4495083333333334,-0.0341609776666666,40740.0,27692.0,8660.0,-14.0,-32.0,116.0,0,None
2023-01-03 14:45:54.200,2294.206,0.0999999999999848,77.0,1238.0,22719.0,4890.0,96.0,1182.0,585.8333333333334,4888.0,-165.16583333333332,0.5214116666666667,0.025880939,0.0235915266666666,-1.3300983333333336,41.13666666666666,0.0243095336666666,0.0229956833333333,-1.441461,0.5043394333333334,1.3620903333333334,3.866338,-10.333333333333334,-13.666666666666666,29.33333333333333,-19.166666666666668,100.33333333333331,263.6666666666667,-978.5,10.5,294.5,1017.2596666666668,-1.109388,3882.0,0.0243095336666666,0.1017991433333333,0.0229956833333333,0.0081721333333333,-1.441461,0.01598667,41090.0,27741.0,9010.0,-10.0,-45.0,56.0,0,None
2023-01-03 14:45:54.750,2294.756,0.0999999999999999,76.0,1174.0,22732.0,4896.0,96.0,1195.6,587.6,4891.0,-165.90784,0.5177370800000001,0.065492245,0.03167843,-1.3370645,41.345,0.062151265,0.03250493,-1.4463965,0.6914825400000001,0.73575846,6.4659666,-13.6,31.2,13.0,-46.2,50.6,249.2,-1015.4,-27.6,286.6,1017.2178,-1.1514374,3882.0,0.062151265,0.01332563,0.03250493,0.061094435,-1.4463965,-0.0017418099999999,41300.0,27721.0,9220.0,-14.0,-32.0,29.0,0,None
2023-01-03 14:45:55.300,2295.306,0.0999999999999848,76.0,1212.0,22699.0,4878.5,96.0,1197.0,589.5,4892.333333333333,-166.88715,0.5071520500000001,0.06187074,0.07608411,-1.3360459999999998,41.49,0.0571961433333333,0.0777270633333333,-1.4440126666666666,0.4638469166666667,1.4217830833333334,9.037559833333331,-9.666666666666666,107.16666666666669,15.166666666666666,-46.16666666666666,-22.0,275.3333333333333,-1039.0,13.666666666666666,290.3333333333333,1017.2125,-1.156458166666667,3882.1666666666665,0.0571961433333333,-0.0067325256666666,0.0777270633333333,0.1104295733333333,-1.4440126666666666,-0.015199959,41460.0,27727.0,9380.0,-14.0,-3.0,12.0,0,None
2023-01-03 14:45:55.850,2295.8686,0.1039999999999962,76.0,1149.0,22746.0,4877.0,96.0,1182.0,591.4,4887.2,-169.07994000000002,0.4901508599999999,0.00774238,0.0870093466666666,-1.3433726666666663,41.59333333333333,0.004782519,0.08807674,-1.448421,0.6087847799999999,1.20386682,9.2270996,-14.2,-29.0,20.8,-45.2,-128.2,281.4,-1069.6,7.2,290.4,1017.2208,-1.1482812,3882.6,0.004782519,-0.0871602133333333,0.08807674,-0.0402602566666666,-1.448421,0.0027842073333333,41570.0,27709.0,9490.0,7.0,27.0,0.0,0,None
2023-01-03 14:45:56.400,2296.4265,0.1001666666666854,75.0,1266.0,22719.0,4893.0,96.0,1233.5,593.1666666666666,4889.666666666667,-171.45450000000002,0.466404,-0.0082354033333333,0.0582048233333333,-1.338252,41.61333333333334,-0.0099869036666666,0.0604007433333333,-1.440170333333333,0.63571335,0.8308310666666667,8.830353500000001,-3.6666666666666665,-49.0,41.66666666666666,-32.166666666666664,28.5,274.1666666666667,-1070.3333333333333,16.0,277.1666666666667,1017.231,-1.1381381666666666,3883.0,-0.0099869036666666,0.0563049466666666,0.0604007433333333,-0.0749890833333333,-1.440170333333333,0.0268013966666666,41615.0,27742.5,9535.0,44.0,28.0,-4.5,0,None
2023-01-03 14:45:56.950,2296.9766,0.0997999999999592,75.0,1136.0,22732.0,4900.0,96.0,1202.6,595.0,4891.0,-173.0915,0.4357042,0.0017650866,0.03463211,-1.328769,41.61,-0.0009729905,0.035374335,-1.4293075000000002,0.4368514799999999,2.1952156,15.404948,-13.2,-34.8,38.2,-71.2,22.4,250.0,-970.8,6.4,286.6,1017.2264,-1.14275,3883.0,-0.0009729905,0.0379683755,0.035374335,-0.0316736555,-1.4293075000000002,-0.015083345,41610.0,27820.0,9530.0,59.0,30.0,-6.0,0,None
2023-01-03 14:45:57.500,2297.4848,0.104200000000037,75.0,1399.0,22677.0,4893.0,96.0,1240.2,596.8,4883.6,-174.35206,0.40590832,-0.0188469338366666,0.0234429966666666,-1.333823,41.61,-0.0203248893333333,0.02575574,-1.4326883333333331,0.5157077400000001,2.1301110000000003,12.579275999999998,-1.8,-9.7,42.9,-23.3,-63.0,259.5,-1073.2,-3.2,300.0,1017.2242,-1.1449843000000002,3883.0,-0.0203248893333333,-0.0597299533333333,0.02575574,0.0078111723333333,-1.4326883333333331,-0.0071534233333333,41610.0,27746.0,9530.0,57.0,26.0,0.0,0,None
2023-01-03 14:45:58.050,2298.057,0.1033333333333151,75.0,1287.0,22698.0,4903.0,96.0,1239.0,599.1666666666666,4887.5,-176.00566666666668,0.3680085999999999,-0.0456167533333333,0.0128409886666666,-1.3390603333333333,41.61333333333334,-0.04612373,0.0151580999999999,-1.4358646666666666,0.4592835166666667,1.798559,9.973845166666669,-13.833333333333334,-9.5,54.66666666666666,-19.5,78.83333333333333,255.5,-1056.5,6.333333333333333,293.6666666666667,1017.2386666666666,-1.1304818333333333,3883.3333333333335,-0.04612373,0.09927735,0.0151580999999999,-0.0158244546666666,-1.4358646666666666,0.0056816359999999,41610.0,27769.0,9530.0,57.0,-6.0,0.0,0,None
2023-01-03 14:45:58.600,2298.633,0.1039999999999963,75.0,1217.0,22710.0,4900.0,96.0,1210.2,601.0,4892.6,-177.94364,0.32965424,0.00394638835,-0.0037874598,-1.320313,41.62,0.00271389655,-0.00340479455,-1.414574,0.50510646,1.4265374999999998,7.429639600000002,-14.0,-44.2,41.2,-9.8,46.4,255.8,-1077.2,28.8,307.8,1017.2268,-1.1425936,3883.2,0.00271389655,0.0484175899999999,-0.00340479455,-0.0716102,-1.414574,0.0119485745,41620.0,27922.0,9540.0,52.0,-12.0,-1.0,0,None
2023-01-03 14:45:59.150,2299.157,0.1079999999999926,74.0,1238.0,22683.0,4903.0,96.0,1237.8,602.6,4889.0,35.800639999999994,0.29595282,0.0139838533333333,-0.0086374386666666,-1.333539,41.62,0.012873096,-0.0055273203333333,-1.4265300000000003,0.49481924,1.45603762,6.7043978,-14.4,28.4,37.4,-15.4,18.4,248.4,-1087.8,-75.6,313.8,1017.261,-1.1081718,3884.0,0.012873096,0.0312885333333333,-0.0055273203333333,0.0442699933333333,-1.4265300000000003,-0.0545064566666666,41620.0,27792.0,9540.0,35.0,-13.0,-5.0,0,None
2023-01-03 14:45:59.700,2299.7270000000003,0.0999999999999848,74.0,1325.0,22679.0,4890.0,96.0,1321.3333333333333,604.6666666666666,4888.333333333333,176.80641666666668,0.26562385,0.0231756833333333,-0.0089657963333333,-1.359231,41.586666666666666,0.0218925,-0.0064923946666666,-1.4494613333333335,0.5345654333333334,0.7393095666666666,5.2581915,-7.166666666666667,-29.0,22.666666666666668,-22.666666666666668,5.166666666666667,250.66666666666663,-1063.6666666666667,-20.166666666666668,301.1666666666667,1017.2633333333332,-1.105807166666667,3883.8333333333335,0.0218925,-0.012325668,-0.0064923946666666,-0.056002894,-1.4494613333333335,-0.0179714895333333,41590.0,27699.0,9510.0,27.0,-3.0,-4.0,0,None
2023-01-03 14:46:00.250,2300.297,0.1039999999999963,74.0,1327.0,22655.0,4893.0,96.0,1267.8,607.0,4887.0,172.87378000000004,0.2376647599999999,0.01632467,-0.0123797525,-1.370333,41.57,0.0149597699999999,-0.0085526805,-1.459208,0.41388546,1.6491113,8.2924076,-8.6,64.1,23.8,-21.7,-15.3,263.7,-1042.1,-33.0,316.1,1017.2267,-1.1426794999999998,3884.0,0.0149597699999999,-0.0232023105,-0.0085526805,0.1108570939999999,-1.459208,-0.0299247665,41570.0,27648.0,9490.0,5.0,3.0,0.0,0,None
2023-01-03 14:46:00.800,2300.809,0.1039999999999963,74.0,1382.0,22644.0,4901.0,96.0,1249.2,608.6,4882.2,167.8942,0.2124686199999999,0.002109465,-0.0019418633333333,-1.3652096666666669,41.59333333333333,0.0020406603333333,0.0020843346666666,-1.4523973333333335,0.4568671999999999,1.717337,11.0751748,-8.4,3.6,28.8,-45.2,-28.0,254.6,-1048.4,41.2,303.0,1017.2286,-1.1405624,3884.4,0.0020406603333333,0.0187778433333333,0.0020843346666666,-0.0179129133333333,-1.4523973333333335,0.03299617,41590.0,27671.0,9510.0,-3.0,5.0,1.0,0,None
2023-01-03 14:46:01.350,2301.3703333333333,0.1000000000000606,73.5,1109.0,22719.0,4890.0,96.0,1169.1666666666667,610.5,4879.833333333333,161.50676666666666,0.1901449999999999,-0.0048386383333333,0.02770145,-1.3541420000000002,41.63,-0.0049249636666666,0.0309878,-1.4403183333333331,0.5598403833333334,1.6374351666666664,8.8772825,2.5,34.833333333333336,37.16666666666666,-51.5,-17.833333333333332,261.8333333333333,-1011.3333333333334,-3.5,295.1666666666667,1017.2121666666668,-1.1570311666666666,3884.5,-0.0049249636666666,-0.0307215223333333,0.0309878,0.0293772073333333,-1.4403183333333331,-0.0035788899999999,41620.0,27738.0,9540.0,-9.0,-2.0,-1.0,0,None
2023-01-03 14:46:01.900,2301.921,0.1039999999999963,73.0,1434.0,22623.0,4890.0,96.0,1376.2,612.4,4888.8,153.35748,0.17063692,-0.090566875,0.0114421235,-1.359204,41.68,-0.0910616,0.015720665,-1.443456,0.43833462,2.0449928,10.8259368,-9.0,-5.4,53.8,-35.2,-243.6,247.4,-1148.4,-6.8,273.6,1017.2442,-1.1250468000000002,3885.0,-0.0910616,-0.2608651,0.015720665,-0.020336056,-1.443456,-0.005015657,41660.0,27744.0,9580.0,-4.0,-17.0,7.0,0,None
2023-01-03 14:46:02.450,2302.4370000000004,0.0999999999999999,73.0,1572.0,22585.0,4893.0,96.0,1610.0,614.6,4888.6,143.23898000000003,0.15926762,-0.1506130333333333,0.0189274235,-1.3694196666666667,41.95666666666667,-0.1496885333333333,0.0221799456666666,-1.4521856666666666,0.4178654599999999,1.9178096000000004,10.2659036,-15.4,-41.4,74.8,-36.6,-33.4,253.8,-1217.4,-8.0,274.8,1017.2096,-1.1597497999999995,3885.0,-0.1496885333333333,-0.0534458866666666,0.0221799456666666,-0.0229772776666666,-1.4521856666666666,-0.0133532783333333,41840.0,27679.0,9760.0,5.0,-85.0,61.0,0,None
2023-01-03 14:46:03.000,2303.000333333333,0.1066666666666454,73.0,1461.0,22606.0,4874.0,96.0,1412.3333333333333,617.0,4887.833333333333,131.39873333333333,0.1582604333333333,-0.1499140666666666,-0.0063773823333333,-1.3505026666666666,42.76666666666667,-0.1505291333333333,-0.0039694249333333,-1.430392,0.4668838833333333,1.8530338666666664,9.805597666666667,-36.16666666666666,19.83333333333333,83.0,-51.66666666666666,47.16666666666666,252.16666666666663,-1071.6666666666667,22.5,278.8333333333333,1017.1116666666668,-1.2575390000000002,3885.1666666666665,-0.1505291333333333,0.0665717333333333,-0.0039694249333333,0.0624140833333333,-1.430392,0.00458182,42410.0,27763.0,10330.0,18.0,-173.0,140.0,0,None
2023-01-03 14:46:03.550,2303.577,0.0999999999999999,73.0,1461.0,22592.0,4900.0,96.0,1354.8,619.2,4890.4,120.4699,0.1645756799999999,-0.16982455,0.0011463465,-1.3674415,43.595,-0.1713036,0.0049638075,-1.444572,0.4265702799999999,1.1554485200000002,8.009806000000001,-28.6,-32.2,84.0,-50.0,-62.2,258.6,-1034.8,-90.6,282.8,1017.0214,-1.3478439999999998,3885.0,-0.1713036,-0.060144065,0.0049638075,-0.05665596,-1.444572,-0.089447535,43240.0,27800.0,11160.0,17.0,-249.0,156.0,0,None
2023-01-03 14:46:04.100,2304.085,0.1079999999999926,72.0,1592.0,22570.0,4896.0,96.0,1504.0,620.8,4886.4,112.07774,0.17367664,-0.1887955999999999,-0.0082045273333333,-1.4043503333333334,44.35333333333333,-0.1900965,-0.0031671026666666,-1.4787166666666665,0.44769832,1.17174618,6.099372399999999,-14.5,-11.9,79.6,-26.0,-1.1,257.2,-1093.3,-34.3,290.2,1016.9335,-1.4356405,3885.8,-0.1900965,-0.0025801633333333,-0.0031671026666666,-0.0131361673333333,-1.4787166666666665,-0.0368991566666666,44400.0,27538.5,12320.0,26.0,-374.0,149.0,0,None
2023-01-03 14:46:04.650,2304.6538333333333,0.0999999999999848,72.0,1418.0,22598.0,4896.0,96.0,1422.5,623.6666666666666,4888.333333333333,104.00350000000002,0.1875410333333333,-0.1480661666666666,-0.04080426,-1.4192723333333337,45.26,-0.1501392333333333,-0.0351279399999999,-1.4900503333333333,0.472444,1.300640316666667,6.5477273333333335,-38.5,-26.33333333333333,69.0,-70.83333333333333,109.83333333333331,234.0,-1035.1666666666667,-48.0,292.5,1016.8218333333334,-1.547317666666667,3886.0,-0.1501392333333333,0.1118698766666666,-0.0351279399999999,0.0061294266666666,-1.4900503333333333,-0.0400237766666666,45530.0,27433.0,13450.0,11.0,-496.0,160.0,0,None
2023-01-03 14:46:05.200,2305.2250000000004,0.1039999999999962,72.0,1500.0,22580.0,4901.0,96.0,1456.8,625.8,4894.2,97.177828,0.2045636599999999,-0.0966540133333333,-0.016414885,-1.421691,46.19333333333333,-0.0997053966666666,-0.0083510783333333,-1.488681666666667,0.52143462,1.5726825999999998,9.9502516,-39.4,110.8,48.2,-73.2,93.4,243.6,-1046.4,20.6,304.2,1016.7308,-1.6384530000000002,3886.0,-0.0997053966666666,0.0944773066666666,-0.0083510783333333,0.1191784733333333,-1.488681666666667,0.0391423383333333,46320.0,27485.0,14240.0,-9.0,-546.0,155.0,0,None
2023-01-03 14:46:05.750,2305.7670000000003,0.0966666666666545,72.0,1291.0,22625.0,4903.0,96.0,1350.3333333333333,627.8333333333334,4885.833333333333,91.15745333333332,0.2240181333333333,-0.0955617666666666,0.02416951,-1.4111783333333332,47.126666666666665,-0.09992926,0.03235288,-1.4758433333333334,0.5329513833333334,1.3801196666666666,8.69889,-37.16666666666666,55.333333333333336,55.0,-46.5,-50.333333333333336,245.16666666666663,-1028.8333333333333,3.333333333333333,283.6666666666667,1016.6748333333334,-1.694414,3886.1666666666665,-0.09992926,-0.0663947033333333,0.03235288,0.0612627166666666,-1.4758433333333334,0.0155622333333333,47100.0,27551.0,15020.0,-8.0,-575.0,154.0,0,None
2023-01-03 14:46:06.300,2306.341,0.1039999999999963,72.0,1391.0,22599.5,4900.0,96.0,1395.8,630.0,4897.8,84.37179599999999,0.2529326,-0.11177675,0.03735273,-1.4114575,47.91,-0.11574815,0.045825735,-1.4750105,0.4974635999999999,1.2135152,7.4767072,-41.0,7.6,67.8,-37.8,5.2,262.4,-1066.0,-0.8,274.4,1016.5728,-1.7965624000000002,3886.4,-0.11574815,0.02238909,0.045825735,-0.017156545,-1.4750105,-0.01996469,47880.0,27552.0,15800.0,9.0,-615.0,160.0,0,None
2023-01-03 14:46:06.850,2306.861,0.11200000000008,71.0,1449.0,22577.0,4903.0,96.0,1445.0,632.0,4894.8,80.069772,0.2784080399999999,-0.1149257666666666,0.02446634,-1.4146923333333332,48.69,-0.118168,0.03409003,-1.477547333333333,0.5283882400000001,1.2002704,7.1141928,-46.6,-21.6,61.6,-40.8,6.2,249.8,-1077.2,-3.4,269.4,1016.501,-1.868234,3886.8,-0.118168,0.0239996233333333,0.03409003,-0.0246166633333333,-1.477547333333333,-0.0100577166666666,48630.0,27525.0,16550.0,27.0,-654.0,158.0,0,None
2023-01-03 14:46:07.400,2307.427,0.0966666666666545,71.0,1362.0,22595.0,4867.0,96.0,1376.1666666666667,634.3333333333334,4897.833333333333,75.80533666666666,0.3120312666666666,-0.1046649,0.0107646709999999,-1.413168,49.63333333333333,-0.1084218666666666,0.0222687466666666,-1.474734,0.5285902833333334,1.2854325,8.249263666666666,-51.0,-7.833333333333333,58.833333333333336,-46.5,34.666666666666664,246.5,-1036.1666666666667,6.166666666666667,280.8333333333333,1016.3911666666668,-1.977734166666667,3887.0,-0.1084218666666666,0.0315394366666666,0.0222687466666666,0.024527957,-1.474734,0.0156009543333333,49420.0,27525.0,17340.0,36.0,-695.0,166.0,0,None
2023-01-03 14:46:07.950,2307.985,0.1039999999999963,71.0,1401.0,22563.0,4900.0,96.0,1364.0,636.4,4893.8,72.317318,0.3489874999999999,-0.09717146,0.030454295,-1.406514,50.42,-0.101601795,0.042545275,-1.467432,0.53384348,1.3832884,8.373903000000002,-48.3,44.1,59.2,-42.0,18.7,253.9,-1053.9,-4.1,294.6,1016.2775,-2.0918750000000004,3887.0,-0.101601795,0.0008559759999999,0.042545275,0.052060215,-1.467432,-0.0172334099999999,50190.0,27591.0,18110.0,38.0,-726.0,163.0,0,None
2023-01-03 14:46:08.500,2308.497,0.0999999999999999,71.0,1537.0,22545.0,4874.0,96.0,1422.2,638.6,4890.2,69.810494,0.3834038199999999,-0.0830033966666666,0.0404532499999999,-1.4203023333333331,51.21666666666667,-0.08699452,0.05319163,-1.4808573333333337,0.57020158,1.09512946,6.9796606,-66.2,5.4,58.4,-47.4,99.0,269.2,-1060.8,-49.2,297.2,1016.1664,-2.2028594,3887.0,-0.08699452,0.1248650133333333,0.05319163,-0.0278747566666666,-1.4808573333333337,-0.0583815633333333,51000.0,27543.0,18920.0,50.0,-752.0,164.0,0,None
2023-01-03 14:46:09.050,2309.057,0.1033333333333151,71.0,1381.0,22587.0,4903.0,96.0,1351.8333333333333,640.8333333333334,4894.166666666667,67.28970666666667,0.4270682333333333,0.0760234966666666,0.0286349066666666,-1.4244893333333335,52.196666666666665,0.070449692,0.0412116533333333,-1.4827426666666668,0.5300914333333333,1.2334001666666663,6.794348500000001,-51.333333333333336,-7.833333333333333,11.166666666666666,-39.833333333333336,297.0,253.0,-1059.5,4.0,288.3333333333333,1016.0700000000002,-2.2990625,3887.0,0.070449692,0.2880806,0.0412116533333333,-0.0188429373333333,-1.4827426666666668,-0.0036913459,51780.0,27461.0,19700.0,62.0,-760.0,168.0,0,None
2023-01-03 14:46:09.600,2309.621,0.0999999999999999,71.0,1426.0,22585.0,4901.0,96.0,1430.2,642.8,4896.4,65.284992,0.4755974799999999,0.1324332999999999,0.0246757199999999,-1.412686,53.025,0.12538715,0.03829207,-1.469421,0.5379205199999999,1.2020231,6.9593188,-36.4,28.8,-16.2,-30.6,-4.8,268.8,-1052.2,23.4,319.0,1015.97,-2.399031,3887.8,0.12538715,-0.03222839,0.03829207,0.02278803,-1.469421,0.0082016814999999,52630.0,27548.0,20550.0,62.0,-697.0,173.0,0,None
2023-01-03 14:46:10.150,2310.167,0.0999999999999848,70.0,1376.0,22559.0,4900.0,96.0,1433.8333333333333,645.0,4891.5,63.69091,0.5257052333333334,0.1123487733333333,0.0436076166666666,-1.4121633333333332,53.84333333333334,0.1066234366666666,0.05719366,-1.466747,0.4692689166666667,0.9566789,4.704496,-24.33333333333333,28.83333333333333,-5.833333333333333,-23.666666666666668,-51.833333333333336,259.0,-1066.3333333333333,-4.0,288.5,1015.8538333333332,-2.5154426666666665,3887.8333333333335,0.1066234366666666,-0.0686679933333333,0.05719366,0.0344945906666666,-1.466747,-0.0144414976666666,53860.0,27599.0,21780.0,58.5,-578.0,172.0,0,None
2023-01-03 14:46:10.700,2310.717,0.0999999999999999,70.0,1477.0,22547.0,4903.0,96.0,1428.4,647.2,4893.2,62.294524,0.57773844,0.1017378266666666,0.0430444266666666,-1.4196036666666665,54.85,0.0990242266666666,0.0559573,-1.4695096666666665,0.45305106,1.09027554,5.4738116,-13.0,-11.6,-4.0,-22.0,56.6,262.4,-1064.8,-3.6,299.8,1015.7442,-2.6249842,3888.0,0.0990242266666666,0.0434089066666666,0.0559573,0.0110952733333333,-1.4695096666666665,-0.0149539116666666,55120.0,27565.0,23040.0,59.0,-484.0,176.0,0,None
2023-01-03 14:46:11.250,2311.2670000000003,0.0999999999999848,70.0,1412.0,22562.0,4896.0,95.5,1394.1666666666667,649.3333333333334,4892.666666666667,61.01599000000001,0.6328980000000001,0.1357557333333333,0.0542540866666666,-1.4133410000000002,55.876666666666665,0.1337407,0.06544055,-1.4581623333333331,0.44810855,1.3190645,8.276885833333333,-17.833333333333332,48.5,-10.833333333333334,-35.5,52.66666666666666,263.8333333333333,-1091.1666666666667,38.833333333333336,297.3333333333333,1015.6148333333334,-2.754270833333333,3888.1666666666665,0.1337407,0.0584830066666666,0.06544055,0.0502934666666666,-1.4581623333333331,0.03252366,55980.0,27659.0,23900.0,53.0,-414.0,175.0,0,None
2023-01-03 14:46:11.800,2311.817,0.0999999999999999,70.0,1493.0,22532.0,4893.0,95.0,1435.8,651.6,4886.2,59.84106799999999,0.68792458,0.14199665,0.07259608,-1.4030165,56.73,0.13956275,0.0812581199999999,-1.4430845,0.41046124,1.1578494,6.7835492,-13.6,33.4,-18.4,-54.4,-6.6,269.0,-1044.6,13.4,287.6,1015.493,-2.8763124,3888.2,0.13956275,-0.0075791499999999,0.0812581199999999,0.0208073455,-1.4430845,0.009005517,56830.0,27744.0,24750.0,52.0,-337.0,172.0,0,None
2023-01-03 14:46:12.350,2312.367,0.1000000000000606,70.0,1365.5,22565.0,4891.5,95.0,1369.1666666666667,653.6666666666666,4887.166666666667,58.72810666666666,0.7407933999999999,0.1394319666666666,0.0903765533333333,-1.410076,57.59666666666667,0.1383098333333333,0.0978986466666666,-1.4462226666666669,0.4739691,1.7120066666666665,9.8236085,-8.666666666666666,46.0,-11.0,-49.333333333333336,18.166666666666668,270.8333333333333,-1036.8333333333333,-38.0,270.8333333333333,1015.3633333333332,-3.005716333333333,3888.1666666666665,0.1383098333333333,0.0176613209999999,0.0978986466666666,0.0600846664333333,-1.4462226666666669,-0.0365391733333333,57700.0,27706.0,25620.0,57.0,-264.0,170.0,0,None
2023-01-03 14:46:12.900,2312.917,0.0999999999999999,70.0,1410.0,22554.0,4890.0,95.0,1399.0,655.8,4884.4,57.617644000000006,0.79403886,0.1494016666666666,0.0945595033333333,-1.4375426666666666,58.656666666666666,0.1486279,0.1009148133333333,-1.468935,0.58395594,1.0205724,9.1710538,16.8,5.6,-28.8,-45.4,7.8,272.0,-1063.8,-45.2,289.0,1015.2478,-3.1210936,3889.0,0.1486279,0.0110473363333333,0.1009148133333333,0.0078043966666666,-1.468935,-0.0429639843333333,58590.0,27590.0,26510.0,70.0,-196.0,163.0,0,None
2023-01-03 14:46:13.450,2313.467,0.0999999999999848,70.0,1410.0,22529.0,4896.0,95.0,1398.1666666666667,658.0,4882.666666666667,56.51243,0.8511032666666667,0.1635198,0.0747459633333333,-1.4401213333333331,59.66666666666666,0.1632812333333333,0.07950206,-1.4672589999999996,0.4283172666666666,1.2669738,7.943384999999999,32.166666666666664,-27.666666666666668,-28.5,-45.66666666666666,44.833333333333336,284.3333333333333,-1064.1666666666667,7.166666666666667,282.5,1015.1695,-3.1998303333333333,3889.0,0.1632812333333333,0.0811273633333333,0.07950206,-0.01490715,-1.4672589999999996,0.004721347,59430.0,27571.0,27350.0,80.0,-132.0,163.0,0,None
2023-01-03 14:46:14.000,2314.025,0.0999999999999999,70.0,1293.0,22570.0,4890.0,95.0,1343.8,660.0,4891.2,55.426596,0.9195393399999998,0.1808565,0.061718115,-1.4347405,60.5,0.18140885,0.06608095,-1.4580465,0.5568929199999999,1.4847514,10.2379566,50.2,-10.0,-37.2,-104.6,-10.4,254.6,-1068.2,-13.2,276.0,1015.0288,-3.3404218,3889.0,0.18140885,0.01926076,0.06608095,-0.0107289695,-1.4580465,-0.004561101,60260.0,27653.0,28180.0,77.0,-68.0,169.0,0,None
2023-01-03 14:46:14.550,2314.541,0.1039999999999963,69.0,1629.0,22488.0,4890.0,95.0,1382.2,661.8,4890.4,54.735456,0.97836268,0.1483292333333333,0.0665494566666666,-1.446701,61.35333333333333,0.1489843333333333,0.0706297266666666,-1.4676233333333333,0.50020694,1.24828948,5.797344,60.6,11.0,-28.6,-66.4,-85.0,275.4,-1048.6,1.0,291.0,1014.924,-3.4451874,3889.0,0.1489843333333333,-0.0479468466666666,0.0706297266666666,0.05959856,-1.4676233333333333,0.0036553633333333,61120.0,27570.0,29040.0,67.0,-14.0,161.0,0,None
2023-01-03 14:46:15.100,2315.1003333333333,0.1033333333333151,69.0,1332.0,22546.0,4893.0,95.0,1189.5,663.8333333333334,4888.166666666667,54.31877,1.0433523333333332,0.1084010999999999,0.0615616933333333,-1.4377016666666669,62.41666666666666,0.1109397333333333,0.0634149033333333,-1.4571683333333334,0.5389381833333333,1.3120585,4.76252,60.333333333333336,10.666666666666666,-11.0,-68.0,-18.166666666666668,278.0,-1024.8333333333333,3.6666666666666665,300.3333333333333,1014.8231666666668,-3.546067666666667,3889.1666666666665,0.1109397333333333,-0.0255701333333333,0.0634149033333333,-0.0473884896666666,-1.4571683333333334,-0.0092418833333333,61990.0,27658.0,29910.0,64.0,18.0,163.0,0,None
2023-01-03 14:46:15.650,2315.673,0.1039999999999963,69.0,884.0,22667.0,4893.0,95.0,792.4,665.4,4894.4,54.16944,1.1101222,0.0965696799999999,0.048423805,-1.4551645,63.215,0.099554065,0.048488795,-1.4739515,0.8343267000000001,1.05157064,6.2929824,75.0,-14.2,-4.6,-68.0,17.6,268.6,-931.6,-28.0,311.0,1014.6982,-3.6712658,3889.2,0.101441165,0.01176902,0.0477983,0.0306258925,-1.473101,-0.047974275,62860.0,27624.0,30780.0,58.0,34.0,146.0,0,None
2023-01-03 14:46:16.200,2316.193,0.1039999999999963,69.0,682.0,22732.0,4900.0,95.0,690.0,666.4,4888.4,54.19742599999999,1.1753874,0.0984580033333333,0.0499093966666666,-1.4603209999999998,63.59,0.1005158966666666,0.04897561,-1.4798916666666668,1.01441664,1.12412314,7.255235600000001,29.5,-10.0,-5.5,-40.7,-11.5,276.4,-855.0,-12.8,305.9,1014.6947,-3.674742100000001,3889.5,0.1005158966666666,-0.0032370988333333,0.04897561,0.0259467843333333,-1.4798916666666668,-0.022151268,63480.0,27531.0,31400.0,50.0,39.0,73.0,0,None
2023-01-03 14:46:16.750,2316.747,0.0999999999999848,70.0,907.0,22670.0,4890.0,95.0,916.8333333333334,667.6666666666666,4888.0,54.363805000000006,1.2417806666666669,0.0611508466666666,0.0270261633333333,-1.471245666666667,63.57999999999999,0.0615248033333333,0.0244469533333333,-1.490253,0.8729751666666666,1.2402685,8.6172435,44.5,-24.33333333333333,-1.6666666666666667,-37.66666666666666,-107.5,267.6666666666667,-1056.5,-31.5,308.1666666666667,1014.7083333333336,-3.660807166666667,3889.8333333333335,0.0615248033333333,-0.08263289,0.0244469533333333,-0.0255648333333333,-1.490253,-0.0222563866666666,63585.0,27466.5,31505.0,49.5,60.0,-5.5,0,None
2023-01-03 14:46:17.300,2317.317,0.1039999999999963,70.0,1016.0,22630.0,4896.0,95.0,1073.0,669.4,4880.0,54.630408,1.3052698,0.028535205,0.0076946889999999,-1.484321,63.46,0.03055887,0.0049698929,-1.5020655,0.79849366,1.1014714,8.9975892,55.2,-26.4,-7613.87733333333,-18.6,-29.8,261.4,-1056.8,-10.4,315.0,1014.726,-3.6433278,3890.0,0.03055887,0.0024002499999999,0.0049698929,-0.05699534,-1.5020655,-0.006618761,63440.0,27383.0,31360.0,42.0,50.0,1.0,1,27_xmag_avg_drift_-135.93233333333328
2023-01-03 14:46:17.850,2317.817,0.0999999999999999,70.0,877.0,22686.0,4896.0,95.0,978.2,670.6,4883.2,54.98404000000001,1.36067,0.0348408833333333,-0.0041293426666666,-1.4895699999999998,63.40333333333333,0.0368565766666666,-0.0061104926666666,-1.5066276666666667,0.8267562400000001,1.14512802,9.3063678,44.8,-30.2,-7749.809666666663,-59.0,52.4,256.2,-1161.4,-2.0,325.2,1014.7064,-3.6629528,3890.0,0.0368565766666666,0.05347302,-0.0061104926666666,-0.0158778836666666,-1.5066276666666667,-0.0072512908333333,63390.0,27371.0,31310.0,29.0,32.0,0.0,1,27_xmag_avg_drift_-135.93233333333328
2023-01-03 14:46:18.400,2318.387,0.1033333333333909,70.0,1075.0,22634.5,4900.0,95.0,975.8333333333334,672.3333333333334,4892.0,55.56455333333333,1.4189796666666668,0.0579927033333333,-0.0055731879333333,-1.4841050000000002,63.376666666666665,0.05891199,-0.0076881646666666,-1.5006003333333335,0.8850237833333333,1.034609516666667,8.978408833333333,61.833333333333336,-1.8333333333333333,-7885.741999999997,-34.0,52.16666666666666,261.6666666666667,-986.6666666666666,17.5,312.6666666666667,1014.7113333333336,-3.657877333333334,3890.1666666666665,0.05891199,0.0384522366666666,-0.0076881646666666,0.0009567633333333,-1.5006003333333335,0.0153579733333333,63380.0,27417.0,31300.0,15.0,23.0,2.0,1,27_xmag_avg_drift_-135.93233333333328
2023-01-03 14:46:18.950,2318.945,0.1039999999999963,70.0,968.0,22666.0,4901.0,95.0,1061.6,673.8,4895.4,56.181968000000005,1.4643998,0.067116585,-0.012060875,-1.478937,63.35,0.0676582699999999,-0.013876965,-1.4941365,0.8185661399999999,1.1154635000000002,7.306478,55.8,14.6,-8021.674333333331,-42.6,9.2,258.2,-1033.6,1.8,323.4,1014.707,-3.6623282,3890.0,0.0676582699999999,0.050603675,-0.013876965,0.057626575,-1.4941365,-0.00217023,63360.0,27442.0,31280.0,-4.0,18.0,0.0,1,27_xmag_avg_drift_-135.93233333333328
2023-01-03 14:46:19.500,2319.507,0.0999999999999848,70.0,902.0,22688.0,4901.0,95.0,828.1666666666666,675.3333333333334,4893.0,56.84293333333334,1.5068345,0.0743990433333333,0.0033592396666666,-1.4742103333333334,63.26,0.0750681133333333,0.002742099,-1.4884746666666668,1.0305472833333331,0.9677615333333334,7.669139333333333,61.0,66.66666666666667,-8157.606666666664,-44.5,16.5,261.3333333333333,-924.6666666666666,-3.1666666666666665,323.3333333333333,1014.7173333333334,-3.6517836666666654,3890.0,0.0750681133333333,0.0299790133333333,0.002742099,0.0433151233333333,-1.4884746666666668,0.0063532566666666,63250.0,27470.0,31170.0,-18.0,9.0,-39.0,1,27_xmag_avg_drift_-135.93233333333328
2023-01-03 14:46:20.050,2320.0690000000004,0.1039999999999963,70.0,1268.0,22566.0,4880.0,95.0,1096.2,676.6,4892.4,57.554224,1.549114,0.0682195166666666,0.0087736003666666,-1.4693356666666666,62.82333333333333,0.0684657833333333,0.0085513954666666,-1.4821306666666667,0.98279954,1.2387152,9.6423904,70.8,-40.2,-8293.538999999995,-29.6,-17.2,260.4,-1078.8,-3.0,308.4,1014.7692,-3.6000626,3890.6,0.0684657833333333,-0.0604399033333333,0.0085513954666666,-0.0126294333333333,-1.4821306666666667,-0.0032236966666666,62850.0,27509.0,30770.0,-16.0,5.0,-81.0,1,27_xmag_avg_drift_-135.93233333333328
2023-01-03 14:46:20.600,2320.6276666666668,0.1003333333333102,69.0,1135.0,22618.0,4896.0,95.0,1200.1666666666667,678.5,4891.666666666667,58.37549799999999,1.5959392,0.0701258533333333,-0.0038055386666666,-1.471865,62.51,0.0704525166666666,-0.0026408966666666,-1.4825446666666666,0.6091352833333333,1.444874166666667,9.547796166666668,69.66666666666667,4.833333333333333,-8429.47133333333,-55.0,38.66666666666666,256.8333333333333,-1158.8333333333333,4.0,309.0,1014.779,-3.5901693333333338,3890.6666666666665,0.0704525166666666,0.0374084946666666,-0.0026408966666666,-0.0084169933333333,-1.4825446666666666,-0.00084798,62520.0,27488.0,30440.0,-26.0,1.0,-26.0,1,27_xmag_avg_drift_-135.93233333333328
2023-01-03 14:46:21.150,2321.179,0.0999999999999999,69.0,1010.0,22647.0,4903.0,95.0,1053.2,680.2,4892.0,59.113446,1.6355894,0.08660703,0.01163572,-1.4676175,62.52,0.0865274249999999,0.0142144795,-1.4772425,0.74763564,1.0692088000000002,7.787901399999998,59.0,83.2,-8565.403666666662,-50.4,15.2,249.2,-1011.8,-15.8,310.4,1014.7514,-3.6179374,3891.0,0.0865274249999999,0.03004115,0.0142144795,0.09880679,-1.4772425,0.0128533105,62510.0,27530.0,30430.0,-38.0,-1.0,0.0,1,27_xmag_avg_drift_-135.93233333333328
2023-01-03 14:46:21.700,2321.683,0.1039999999999963,69.0,1123.0,22618.0,4900.0,95.0,988.0,681.6,4889.4,59.831142,1.6713530000000003,0.0831490066666666,0.0369328633333333,-1.465815,62.55,0.0831841466666666,0.03909963,-1.4753809999999998,0.85962954,0.92085246,7.772846800000001,69.4,8.4,-8701.335999999996,-35.0,1.3,266.4,-1046.1,3.2,317.1,1014.7785,-3.5907733,3891.0,0.0831841466666666,-0.0382056,0.03909963,-0.0223995266666666,-1.4753809999999998,0.0128047503333333,62560.0,27540.0,30480.0,-37.0,0.0,2.0,1,27_xmag_avg_drift_-135.93233333333328
2023-01-03 14:46:22.250,2322.268666666667,0.1033333333333151,69.0,1050.0,22624.0,4901.0,95.0,1058.5,683.5,4886.333333333333,60.65000333333334,1.7141916666666666,0.0897427533333333,0.0361047333333333,-1.4648113333333337,62.51333333333333,0.0899011099999999,0.0394094666666666,-1.4732063333333334,0.8081337333333334,0.9344469,6.907205833333333,96.5,8.833333333333334,-8837.26833333333,-48.333333333333336,12.0,270.1666666666667,-1047.1666666666667,-8.666666666666666,303.1666666666667,1014.7258333333332,-3.643281166666666,3891.0,0.0899011099999999,-0.0285236096666666,0.0394094666666666,0.0123755769999999,-1.4732063333333334,-0.0081554966666666,62515.0,27563.5,30435.0,-28.5,-4.5,-6.0,1,27_xmag_avg_drift_-135.93233333333328
2023-01-03 14:46:22.800,2322.8346,0.1080000000000836,69.0,1164.0,22592.0,4894.5,95.0,1064.2,685.0,4882.4,61.458514,1.7626706,0.0989246633333333,0.0289488466666666,-1.4619063333333333,62.50666666666666,0.0990642966666666,0.0330620966666666,-1.4686993333333334,0.73114628,0.88843554,6.393146,86.0,-6.4,-8973.200666666662,-64.2,29.0,265.4,-1022.8,9.4,308.6,1014.7186,-3.6504372,3891.0,0.0984659633333333,0.0167546033333333,0.03293103,0.0187497033333333,-1.4685103333333334,0.0049499173333333,62500.0,27597.0,30420.0,-29.0,-8.0,-12.0,1,27_xmag_avg_drift_-135.93233333333328
2023-01-03 14:46:23.350,2323.3590000000004,0.0999999999999999,69.0,953.0,22630.0,4900.0,95.0,1122.2,686.6,4895.0,62.164114000000005,1.8099878,0.095787995,0.03837783,-1.4604195,62.505,0.0965005999999999,0.0437121,-1.4668765,0.8615492799999999,1.01880132,7.188280000000001,75.8,33.8,-9109.132999999996,-57.0,10.6,267.8,-1037.6,4.2,306.2,1014.7252,-3.6438592,3891.2,0.0965005999999999,0.03470956,0.0437121,0.03212616275,-1.4668765,-0.0153205295,62500.0,27586.0,30420.0,-29.0,-7.0,-9.0,1,27_xmag_avg_drift_-135.93233333333328
2023-01-03 14:46:23.900,2323.909,0.0999999999999848,69.0,966.0,22645.0,4900.0,95.0,1131.5,688.3333333333334,4890.5,62.80784166666667,1.8573298333333328,0.0951487433333333,0.0585846266666666,-1.4612253333333332,62.47666666666667,0.0956426366666666,0.0639859133333333,-1.4669956666666668,0.8662436333333333,1.0159843666666666,6.469606333333332,105.5,44.833333333333336,-9245.065333333328,-51.16666666666666,-41.66666666666666,271.6666666666667,-1059.0,19.83333333333333,285.3333333333333,1014.7203333333332,-3.6486195,3891.1666666666665,0.0956426366666666,-0.0101288893333333,0.0639859133333333,0.0585665666666666,-1.4669956666666668,-0.0150410153333333,62460.0,27602.0,30380.0,-21.0,-4.0,-8.0,1,27_xmag_avg_drift_-135.93233333333328
2023-01-03 14:46:24.450,2324.459,0.0999999999999999,69.0,1057.0,22618.0,4893.0,95.0,1079.4,690.0,4886.4,63.375496,1.9072548,0.0890528,0.0646804933333333,-1.4639943333333332,62.45333333333334,0.0901855366666666,0.0698417533333333,-1.4693203333333331,0.90157424,1.06809756,7.135319,91.6,-17.4,-9380.997666666663,-52.0,21.0,273.0,-1029.0,-7.0,291.6,1014.7362,-3.6329844,3891.2,0.0901855366666666,0.0109814386666666,0.0698417533333333,-0.0267880483333333,-1.4693203333333331,-0.0018143133333333,62460.0,27580.0,30380.0,-4.0,-5.0,-8.0,1,27_xmag_avg_drift_-135.93233333333328
2023-01-03 14:46:25.000,2325.009,0.0999999999999848,69.0,1049.0,22656.0,4890.0,95.0,1064.0,691.6666666666666,4889.666666666667,63.84768333333334,1.9617126666666664,0.0909628066666666,0.04670622,-1.466463,62.406666666666666,0.09222817,0.0527338933333333,-1.4710006666666666,0.9798571666666668,1.0146461333333334,6.706127833333333,84.16666666666667,-18.666666666666668,-9516.929999999995,-75.0,10.666666666666666,265.6666666666667,-1042.0,-18.83333333333333,290.6666666666667,1014.732,-3.637421833333333,3891.3333333333335,0.09222817,0.0123324926666666,0.0527338933333333,0.0103720399999999,-1.4710006666666666,-0.0090247333333333,62400.0,27572.0,30320.0,5.0,-7.0,-10.0,1,27_xmag_avg_drift_-135.93233333333328
2023-01-03 14:46:25.550,2325.575,0.1039999999999963,69.0,1173.0,22582.0,4887.0,95.0,1065.6,693.4,4882.8,64.23133,2.0175514000000003,0.09684595,0.0412733049999999,-1.4715185,62.39,0.098156405,0.04847865,-1.4752485,0.8377243000000002,0.9490255,6.7676766,93.8,5.6,-9652.862333333329,-46.4,9.8,273.4,-1013.8,-8.2,304.2,1014.7644,-3.60475,3891.6,0.098156405,-0.01085325,0.04847865,-0.00066532,-1.4752485,-0.0028335139999999,62390.0,27547.0,30310.0,10.0,-6.0,-9.0,1,27_xmag_avg_drift_-135.93233333333328
2023-01-03 14:46:26.100,2326.132,0.0999999999999848,69.0,822.0,22663.0,4890.0,95.0,1060.6666666666667,694.8333333333334,4886.5,64.55249500000001,2.071865,0.0951886833333333,0.03991768,-1.472668,62.35999999999999,0.0970037833333333,0.0467977333333333,-1.4760460000000002,0.7689726499999999,0.9133686166666668,6.8149095,67.33333333333333,-12.666666666666666,-9788.794666666661,-45.66666666666666,20.166666666666668,265.0,-1023.3333333333334,-3.333333333333333,291.8333333333333,1014.7616666666668,-3.607512833333333,3891.6666666666665,0.0970037833333333,-0.05266591,0.0467977333333333,-0.0171795866666666,-1.4760460000000002,-0.0053623963333333,62370.0,27543.0,30290.0,19.0,0.0,-9.0,1,27_xmag_avg_drift_-135.93233333333328
2023-01-03 14:46:26.650,2326.679,0.0999999999999999,69.0,1090.0,22603.0,4887.0,95.0,1068.2,696.6,4889.2,64.85188000000001,2.1260250000000003,0.08928275,0.0261570899999999,-1.4684153333333334,62.333333333333336,0.09132997,0.0331278999999999,-1.4712383333333332,0.7750700599999999,0.98466644,7.0997218,76.2,4.2,-9924.726999999995,-59.8,-12.8,266.4,-1014.0,17.0,303.2,1014.7526,-3.6165466,3891.2,0.09132997,-0.0241245566666666,0.0331278999999999,-0.0245183629999999,-1.4712383333333332,0.0100274033333333,62330.0,27550.0,30250.0,18.0,4.0,-5.0,1,27_xmag_avg_drift_-135.93233333333328
2023-01-03 14:46:27.200,2327.229,0.0999999999999848,69.0,1023.0,22625.0,4883.0,95.0,1036.6666666666667,698.1666666666666,4885.2,65.14345999999999,2.1817634,0.09249443,0.0262917199999999,-1.4654285,62.33,0.0950381449999999,0.0330461799999999,-1.468351,0.9037505666666666,0.9630878666666668,7.337665333333334,68.33333333333333,16.833333333333332,-10060.659333333328,-47.5,19.0,261.1666666666667,-1051.1666666666667,-10.333333333333334,309.3333333333333,1014.7548,-3.6144374,3891.2,0.0950381449999999,0.134981875,0.0330461799999999,0.0365107749999999,-1.468351,-0.004552168,62330.0,27596.0,30250.0,17.0,4.0,-2.0,1,27_xmag_avg_drift_-135.93233333333328
2023-01-03 14:46:27.750,2327.779,0.0999999999999999,69.0,1121.0,22582.0,4887.0,95.0,1170.2,699.6,4885.4,65.427256,2.23661,0.088359095,0.021525675,-1.4592305,62.315,0.090777835,0.027918395,-1.462116,0.8108096,1.0003419,7.441296199999999,85.8,-7.6,-10196.591666666662,-34.8,-13.6,256.6,-1022.8,31.8,307.4,1014.7456,-3.623593800000001,3891.2,0.090777835,-0.026383648,0.027918395,-0.00698943395,-1.462116,0.0079545,62330.0,27588.0,30250.0,12.0,2.0,-9.0,1,27_xmag_avg_drift_-135.93233333333328
2023-01-03 14:46:28.300,2328.3026,0.1039999999999963,69.0,894.0,22668.0,4890.0,95.0,949.8,701.6,4886.8,65.664732,2.2830604,0.0823864733333333,0.0291992066666666,-1.4649873333333332,62.336666666666666,0.08613344,0.0350160533333333,-1.467834,1.0516981,0.9861573,8.456857799999998,79.3,7.6,-10332.523999999996,-59.8,59.7,254.7,-1025.9,-24.8,302.1,1014.7824,-3.5870858999999995,3892.0,0.08613344,0.05213781,0.0350160533333333,-0.00477039,-1.467834,-0.03823621,62330.0,27593.0,30250.0,3.5,3.0,-1.0,1,27_xmag_avg_drift_-135.93233333333328
2023-01-03 14:46:28.850,2328.859,0.1033333333333909,69.0,1010.0,22619.0,4889.0,95.0,1011.1666666666666,703.0,4884.5,65.93102666666668,2.3361066666666668,0.0858667633333333,0.0334065433333333,-1.4754406666666666,62.32666666666666,0.08993012,0.0386903233333333,-1.4785283333333332,0.8262083333333333,1.0332950333333333,7.089068166666667,65.33333333333333,30.0,-10468.456333333328,-61.833333333333336,-15.833333333333334,264.1666666666667,-1051.8333333333333,-12.666666666666666,299.0,1014.7815,-3.5878515,3891.8333333333335,0.08993012,-0.012589076,0.0386903233333333,0.0334953726666666,-1.4785283333333332,-0.0051758186666666,62320.0,27518.0,30240.0,-3.0,7.0,-1.0,1,27_xmag_avg_drift_-135.93233333333328
2023-01-03 14:46:29.400,2329.4190000000003,0.0999999999999999,69.0,1021.0,22611.0,4883.0,95.0,1003.8,704.6,4886.8,66.183636,2.3878198,0.073064485,0.046860185,-1.476115,62.305,0.076850715,0.0514604949999999,-1.479424,0.93000018,1.00693702,7.156618999999999,67.6,28.8,-10604.388666666662,-45.6,-26.2,265.2,-1033.6,6.2,297.6,1014.787,-3.5820782,3891.6,0.076850715,0.027383855,0.0514604949999999,0.0157597199999999,-1.479424,0.01101097,62300.0,27531.0,30220.0,0.0,9.0,0.0,1,27_xmag_avg_drift_-135.93233333333328
2023-01-03 14:46:29.950,2329.939,0.1039999999999963,69.0,987.0,22607.0,4888.0,95.0,978.8,705.8,4885.0,66.420174,2.4413942000000004,0.06930852,0.0480570433333333,-1.4774079999999998,62.28666666666667,0.07317781,0.0518949833333333,-1.4811883333333336,0.9291079,0.96943308,7.234599200000001,71.4,-19.4,-10740.320999999994,-46.4,18.6,262.8,-1040.6,-11.4,298.2,1014.7826,-3.5865,3891.8,0.07317781,0.0042859683333333,0.0518949833333333,-0.0135484706666666,-1.4811883333333336,-0.0129833485666666,62290.0,27504.0,30210.0,10.0,8.0,1.0,1,27_xmag_avg_drift_-135.93233333333328
2023-01-03 14:46:30.500,2330.489,0.0999999999999848,69.0,1111.0,22574.0,4890.0,95.0,1049.3333333333333,707.5,4883.833333333333,66.582,2.4877423333333333,0.0720111433333333,0.0316524166666666,-1.4747296666666667,62.27333333333334,0.0758032666666666,0.0359031933333333,-1.4781056666666668,0.7940780166666667,1.0476414499999998,6.335857666666667,65.33333333333333,-6.333333333333333,-10876.253333333329,-46.5,-1.0,264.3333333333333,-1059.0,13.666666666666666,317.8333333333333,1014.777,-3.5922525000000003,3891.5,0.0758032666666666,0.0090587896666666,0.0359031933333333,0.0006654063333333,-1.4781056666666668,0.0172717917333333,62270.0,27542.0,30190.0,12.0,4.0,0.0,1,27_xmag_avg_drift_-135.93233333333328
2023-01-03 14:46:31.050,2331.047,0.1039999999999963,69.0,1051.0,22610.0,4888.0,95.0,1016.2,709.2,4885.4,66.70964999999998,2.5324278,0.069804895,0.031966335,-1.4649605,62.275000000000006,0.074042185,0.03610826,-1.4681734999999998,0.8135351,0.8984883399999999,6.3600072,67.4,-1.8,-11012.18566666666,-50.8,11.2,264.8,-1037.4,22.4,294.8,1014.7872,-3.5820314000000004,3891.8,0.074042185,0.071304125,0.03610826,-0.01098533,-1.4681734999999998,0.026629885,62280.0,27599.0,30200.0,14.0,0.0,1.0,1,27_xmag_avg_drift_-135.93233333333328
2023-01-03 14:46:31.600,2331.612,0.0999999999999848,69.0,1056.0,22594.0,4888.0,95.0,1032.6666666666667,710.6666666666666,4884.5,66.82208,2.576731,0.0811458833333333,0.02262158,-1.4629586666666663,62.28,0.0850134566666666,0.02673694,-1.4662316666666666,0.8945324500000001,0.9799934666666666,7.093725499999999,69.83333333333333,-9.0,-11148.117999999995,-53.16666666666666,34.333333333333336,266.8333333333333,-1046.8333333333333,-17.0,317.6666666666667,1014.7833333333332,-3.5858984999999994,3892.0,0.0850134566666666,0.07127866,0.02673694,-0.0228542706666666,-1.4662316666666666,-0.0146661636666666,62280.0,27598.0,30200.0,11.0,-2.0,0.0,1,27_xmag_avg_drift_-135.93233333333328
2023-01-03 14:46:32.150,2332.195,0.1079999999999926,69.0,1033.0,22559.0,4890.0,95.0,996.2,712.6,4884.2,66.934264,2.6195388,0.0845611433333333,0.0156930113333333,-1.4632846666666666,62.28333333333333,0.0882828,0.0197380666666666,-1.4665136666666667,0.7888967000000001,0.96117274,6.7873422,64.3,41.1,-11284.050333333327,-43.8,-24.8,260.1,-1069.4,-12.6,310.4,1014.7924,-3.5767576000000005,3891.8,0.0882828,0.0030294099999999,0.0197380666666666,0.0409982266666666,-1.4665136666666667,-0.0010892056666666,62280.0,27598.0,30200.0,3.0,-4.0,-1.0,1,27_xmag_avg_drift_-135.93233333333328
2023-01-03 14:46:32.700,2332.699,0.0999999999999999,69.0,1074.0,22590.0,4890.0,95.0,1031.4,713.8,4878.0,67.044324,2.6555279999999994,0.0842038466666666,0.03005672,-1.463376,62.28333333333333,0.0877963333333333,0.03375045,-1.4669113333333332,0.8664279199999999,1.11151308,7.402119799999999,81.8,14.8,-9.4,-36.0,0.2,264.0,-1037.8,-3.0,305.6,1014.785,-3.5842344,3892.0,0.0877963333333333,0.0224369233333333,0.03375045,0.0278151566666666,-1.4669113333333332,-0.0078688566666666,62290.0,27586.0,30210.0,0.0,0.0,0.0,0,None
2023-01-03 14:46:33.250,2333.2656666666667,0.1033333333333151,69.0,1064.0,22587.0,4880.0,95.0,966.3333333333334,715.5,4878.333333333333,67.18729,2.696590666666667,0.0735477766666666,0.0332753,-1.4696049999999998,62.28,0.0776203966666666,0.0364737533333333,-1.4734223333333334,0.8805319000000001,0.9394778,7.947761999999998,59.16666666666666,4.666666666666667,-7.333333333333333,-51.66666666666666,20.666666666666668,272.8333333333333,-1063.1666666666667,-18.166666666666668,313.5,1014.7981666666668,-3.5711980000000003,3891.8333333333335,0.0776203966666666,0.0182492803333333,0.0364737533333333,0.0077884566666666,-1.4734223333333334,-0.0253602833333333,62280.0,27592.0,30200.0,-1.0,3.0,-1.0,0,None
2023-01-03 14:46:33.800,2333.819,0.0999999999999999,69.0,1055.0,22581.0,4887.0,95.0,1030.0,717.0,4885.6,67.329736,2.7365942,0.074023655,0.02699922,-1.4800945,62.275000000000006,0.077726045,0.03083452,-1.4833205,0.82264108,1.05305182,7.674713,65.6,-11.4,-14.8,-28.4,-6.2,260.6,-1095.6,-0.4,291.8,1014.8022,-3.5670154000000003,3891.6,0.077726045,-0.01111918,0.03083452,-0.0288617949999999,-1.4833205,0.00604350785,62280.0,27529.0,30200.0,1.0,5.0,0.0,0,None
2023-01-03 14:46:34.350,2334.3390000000004,0.1040000000000872,69.0,1004.0,22592.0,4887.0,95.0,1031.0,718.4,4888.8,67.47401799999999,2.7777402,0.0674154266666666,0.02525289,-1.469110666666667,62.25,0.0708979066666666,0.0288460866666666,-1.4721246666666667,0.8911230000000001,1.00128316,7.464176,68.4,4.4,-7.8,-40.8,-10.0,264.0,-1002.6,37.4,305.0,1014.827,-3.5420782,3891.8,0.0708979066666666,-0.0624319499999999,0.0288460866666666,0.0077030806666666,-1.4721246666666667,0.03267163,62250.0,27573.5,30170.0,5.5,7.5,1.5,0,None
2023-01-03 14:46:34.900,2334.923,0.1239999999999781,69.0,1091.5,22574.5,4898.0,95.0,1077.3,720.0,4886.2,67.603654,2.8142192,0.07725791,0.0080450834666666,-1.443459,62.22,0.0806468,0.011894996,-1.446671,0.7677453200000001,1.0702381,8.068491900000001,57.2,-31.5,-2.3,-69.2,20.3,255.0,-1106.5,30.2,315.8,1014.794,-3.575195,3891.7,0.0806468,0.02665594,0.011894996,-0.029092794,-1.446671,0.0274807643333333,62210.0,27747.0,30130.0,1.0,4.0,3.0,0,None
2023-01-03 14:46:35.450,2335.4626,0.0999999999999999,69.0,1205.0,22559.0,4900.0,95.0,1208.0,721.6,4891.2,67.732588,2.8465336,0.078386765,0.01955026,-1.4432155,62.21,0.08160583,0.02387564,-1.4461725,0.7407789599999999,1.1399733800000005,6.3710722,61.6,69.0,-5.4,-32.4,-12.8,251.4,-1061.6,-30.0,310.0,1014.7596,-3.6093906,3891.6,0.08160583,0.0124003699999999,0.02387564,0.06326214,-1.4461725,-0.024254495,62220.0,27709.0,30140.0,-9.0,4.0,4.0,0,None
2023-01-03 14:46:36.000,2336.019,0.1033333333333151,69.0,1052.0,22581.0,4895.0,95.0,1032.3333333333333,723.5,4893.333333333333,67.90050333333333,2.879551333333333,0.0704825233333333,0.0344764666666666,-1.444513,62.26666666666667,0.07402492,0.03726106,-1.4476680000000002,0.8570574666666667,1.04406025,6.457329833333333,62.0,11.833333333333334,-1.0,-51.16666666666666,-4.0,264.5,-1050.1666666666667,-30.5,307.6666666666667,1014.783,-3.5860808333333334,3891.5,0.07402492,-0.0069560033333333,0.03726106,0.00379122,-1.4476680000000002,-0.0300248106666666,62280.0,27704.0,30200.0,-6.0,1.0,2.0,0,None
2023-01-03 14:46:36.550,2336.579,0.0999999999999999,69.0,1091.0,22587.0,4896.0,95.0,1045.0,725.0,4891.0,68.063262,2.9116856,0.0695338366666666,0.0338922233333333,-1.4559723333333334,62.29999999999999,0.0728038633333333,0.03606075,-1.4590323333333333,0.8118077199999998,0.944837,6.674466000000001,71.6,-4.4,-5.8,-39.4,-4.0,263.2,-1038.0,-21.0,308.2,1014.785,-3.584172,3891.6,0.0728038633333333,-0.0204349466666666,0.03606075,-0.00715038,-1.4590323333333333,-0.0236123446666666,62300.0,27632.0,30220.0,-1.0,0.0,-3.0,0,None
2023-01-03 14:46:37.100,2337.0910000000003,0.1039999999999963,69.0,1097.0,22570.0,4903.0,95.0,1054.6,726.4,4889.2,68.185898,2.9386424,0.0696242,0.022011765,-1.459639,62.3,0.0734285299999999,0.02477908,-1.462753,0.8061806,0.95822924,6.7851442,56.8,-6.5,-5.4,-57.5,9.7,266.0,-1026.5,-17.2,311.3,1014.7968,-3.572312599999999,3891.8,0.0734285299999999,-0.00585038,0.02477908,-0.04171698,-1.462753,-0.003009065,62300.0,27614.0,30220.0,0.0,0.0,-2.0,0,None
2023-01-03 14:46:37.650,2337.649,0.0999999999999848,69.0,992.0,22616.0,4900.0,95.0,1051.6666666666667,728.5,4892.0,68.31611333333335,2.969139333333333,0.0678378633333333,0.0238090833333333,-1.4613653333333332,62.28333333333333,0.0714236533333333,0.0260592466666666,-1.4641936666666666,0.8066167000000001,1.1366291333333332,6.927101833333334,57.5,29.166666666666668,-5.833333333333333,-45.16666666666666,-6.666666666666667,265.1666666666667,-1013.6666666666666,-20.5,309.5,1014.7835,-3.585716,3891.3333333333335,0.072091135,0.01003924,0.026246255,-0.0056679,-1.4624555,0.0011041549999999,62280.0,27607.0,30200.0,-4.0,0.0,0.0,0,None
2023-01-03 14:46:38.200,2338.2302,0.1079999999999926,69.0,1010.0,22578.0,4893.0,95.0,1014.0,730.0,4886.4,68.44814199999999,3.000446,0.0642512466666666,0.02889699,-1.4669823333333334,62.28666666666667,0.0678916099999999,0.0313062633333333,-1.469466,0.8803243399999999,1.01179782,7.407269599999999,58.2,3.4,-7.4,-44.0,-6.2,265.0,-1050.4,-6.2,303.4,1014.7968,-3.5726562,3891.6,0.0678916099999999,0.0138280933333333,0.0313062633333333,0.00530535,-1.469466,0.01155536,62290.0,27567.0,30210.0,-2.0,0.0,2.0,0,None
2023-01-03 14:46:38.750,2338.7426,0.0999999999999999,69.0,925.0,22621.0,4900.0,95.0,994.6,731.4,4894.2,68.558928,3.0285420000000003,0.0686958966666666,0.0315079699999999,-1.4659766666666665,62.28666666666667,0.0724992633333333,0.0343469199999999,-1.468223,0.979474475,1.01786135,7.759159,61.4,25.6,-8.2,-47.6,17.8,261.4,-1025.4,-9.8,301.4,1014.7988,-3.5705624,3891.2,0.0724992633333333,0.0313073166666666,0.0343469199999999,0.0164607673333333,-1.468223,-0.000688838,62290.0,27586.0,30210.0,-1.0,0.0,2.0,0,None
2023-01-03 14:46:39.300,2339.289,0.1000000000000606,69.0,1021.0,22596.0,4900.0,95.0,1026.5,732.8333333333334,4896.833333333333,68.65154,3.0547880000000003,0.0716270866666666,0.0313579466666666,-1.4574513333333332,62.27,0.0749591333333333,0.0340364766666666,-1.4601983333333333,0.7952390333333333,0.96073245,7.981981999999999,55.833333333333336,-10.333333333333334,-6.166666666666667,-25.166666666666668,26.5,265.8333333333333,-1047.6666666666667,10.166666666666666,313.1666666666667,1014.8051666666664,-3.5641665,3891.5,0.0749591333333333,-0.007504434,0.0340364766666666,-0.02440981,-1.4601983333333333,0.0065608156666666,62280.0,27620.0,30200.0,3.0,0.0,0.0,0,None
2023-01-03 14:46:39.850,2339.8390000000004,0.0999999999999999,69.0,1057.0,22584.0,4901.0,95.0,1130.0,734.4,4894.4,68.7367,3.0803536,0.075061975,0.020317195,-1.4487365,62.255,0.077436225,0.02254015,-1.4511615,0.7402921,1.01594375,7.74275275,57.6,-30.6,-11.4,-38.6,17.2,253.6,-1018.8,24.2,299.2,1014.7818,-3.5873122000000004,3891.0,0.077436225,0.05624071,0.02254015,-0.03403553705,-1.4511615,0.0186390995,62260.0,27644.0,30180.0,9.0,1.0,0.0,0,None
2023-01-03 14:46:40.400,2340.3953333333334,0.1033333333333151,69.0,939.5,22604.5,4900.5,95.0,984.1666666666666,736.1666666666666,4896.666666666667,68.82671333333333,3.105987333333333,0.0701234833333333,0.0086408726666666,-1.4504113333333333,62.26666666666667,0.07324639,0.0113455893333333,-1.4530389999999995,0.8064061499999999,0.9595240666666666,7.9695428333333345,69.33333333333333,-7.5,-4.166666666666667,-25.0,14.833333333333334,260.3333333333333,-1027.0,6.833333333333333,326.6666666666667,1014.8013333333332,-3.567994666666667,3891.1666666666665,0.07324639,0.0132361486666666,0.0113455893333333,0.00206063,-1.4530389999999995,-0.02524662,62260.0,27683.5,30180.0,6.0,4.0,-1.0,0,None
2023-01-03 14:46:40.950,2340.971,0.1039999999999963,69.0,1109.0,22559.0,4903.0,95.0,1052.2,737.6,4896.0,68.93197599999999,3.130568,0.05913392,0.012272505,-1.4558993333333332,62.26666666666667,0.0627782333333333,0.0147106099999999,-1.4590870000000002,0.7948231800000001,1.1586844,8.1681736,41.2,29.4,-1.6,-19.4,17.8,257.0,-1067.4,-20.6,326.2,1014.8082,-3.5609998000000003,3891.2,0.0627782333333333,0.0076086339999999,0.0147106099999999,0.0204723999999999,-1.4590870000000002,0.0030963163333333,62260.0,27626.0,30180.0,-1.0,4.0,3.0,0,None
2023-01-03 14:46:41.500,2341.529,0.0999999999999848,69.0,794.0,22647.0,4880.0,95.0,1055.1666666666667,739.5,4895.5,69.04942000000001,3.1527843333333334,0.0587254066666666,0.0138349993333333,-1.4620056666666663,62.26333333333333,0.06229872,0.0156299883333333,-1.4650773333333331,0.7671047333333334,1.1468496666666668,8.97685,53.0,16.5,-7.666666666666667,-57.66666666666666,-22.33333333333333,258.6666666666667,-1032.6666666666667,-15.5,308.3333333333333,1014.7696666666666,-3.599622333333333,3891.0,0.06229872,-0.0519383566666666,0.0156299883333333,0.0271825433333333,-1.4650773333333331,-0.022632948,62260.0,27609.0,30180.0,-10.0,5.0,0.0,0,None
2023-01-03 14:46:42.050,2342.079,0.0999999999999999,69.0,1145.0,22558.0,4903.0,95.0,982.0,740.8,4894.4,69.176048,3.1734184,0.063633445,0.03391237,-1.4677245,62.3,0.0670907749999999,0.03557776,-1.4718274999999998,0.898936375,1.0409711,7.36376875,53.0,58.8,-2.0,-53.8,24.0,268.4,-1093.8,-18.6,322.2,1014.7568,-3.6122188,3891.0,0.0670907749999999,-0.0047618869999999,0.03557776,0.058523425,-1.4718274999999998,-0.0043004989999999,62300.0,27559.0,30220.0,-14.0,1.0,-1.0,0,None
2023-01-03 14:46:42.600,2342.6290000000004,0.0999999999999848,69.0,994.0,22617.0,4900.0,95.0,942.3333333333334,742.3333333333334,4893.166666666667,69.30333333333333,3.1936280000000004,0.07130324,0.0452045766666666,-1.4689606666666666,62.32333333333333,0.0754641566666666,0.0461828266666666,-1.4736433333333334,1.00150294,0.98998168,8.431578400000001,71.0,18.83333333333333,-5.0,-61.833333333333336,47.0,271.0,-1009.5,-12.833333333333334,299.1666666666667,1014.739,-3.630247333333333,3891.0,0.0754641566666666,0.0612607243333333,0.0461828266666666,0.0060673133333333,-1.4736433333333334,0.0035083963333333,62320.0,27554.0,30240.0,-13.0,-4.0,-3.0,0,None
2023-01-03 14:46:43.150,2343.179,0.0999999999999999,69.0,1018.0,22602.0,4900.0,95.0,933.6,743.8,4892.2,69.40966,3.213594,0.07501555,0.0513253066666666,-1.470294,62.34666666666666,0.07822968,0.0523729233333333,-1.4752086666666664,0.94946664,1.11503246,8.728074199999998,83.6,-4.8,-9.2,-41.4,-18.0,278.2,-1016.4,12.0,321.8,1014.7458,-3.6232344,3891.2,0.07822968,0.0164773399999999,0.0523729233333333,0.0180289256666666,-1.4752086666666664,-0.015326212,62350.0,27543.0,30270.0,-4.0,-5.0,-1.0,0,None
