00000_Time_epoch,00000_Time_boot_sec,00000_Span_Time_boot_sec,1_battery_remaining_avg,1_current_battery_avg,1_voltage_battery_avg,125_Vcc_avg,147_battery_remaining_avg,147_current_battery_avg,147_current_consumed_avg,165_Vcc_avg,168_direction_avg,168_speed_avg,178_pitch_avg,178_roll_avg,178_yaw_avg,182_altitude_avg,182_pitch_avg,182_roll_avg,182_yaw_avg,241_vibration_x_avg,241_vibration_y_avg,241_vibration_z_avg,27_xacc_avg,27_xgyro_avg,27_xmag_avg,27_yacc_avg,27_ygyro_avg,27_ymag_avg,27_zacc_avg,27_zgyro_avg,27_zmag_avg,29_press_abs_avg,29_press_diff_avg,29_temperature_avg,30_pitch_avg,30_pitchspeed_avg,30_roll_avg,30_rollspeed_avg,30_yaw_avg,30_yawspeed_avg,33_alt_avg,33_hdg_avg,33_relative_alt_avg,33_vx_avg,33_vy_avg,33_vz_avg,label,diagnosis
2022-12-25 08:57:20.450,260.293,0.0999999999999999,77.0,92.0,23021.0,4890.0,99.0,94.2,70.0,4867.0,30.088702,0.6538117000000001,0.01547833,0.039307115,-1.4857755,32.385,0.02075093,0.046645005,-1.5038455,0.0272452519999999,0.0285994179999999,0.068038652,4.8,2.8,1.0,-57.8,3.6,275.2,-1053.2,0.2,317.6,1016.312,-0.1741406,3570.6,0.02075093,0.0034927624999999,0.046645005,0.0025792009999999,-1.5038455,0.0006485845,32420.0,27384.0,-50.0,5.0,8.0,-17.0,0,None
2022-12-25 08:57:21.000,260.843,0.1000000000000037,77.0,86.0,22941.0,4883.0,99.0,91.66666666666669,70.0,4870.5,29.69795333333333,0.5631517666666667,0.0145899666666666,0.0393189066666666,-1.4857333333333334,32.333333333333336,0.0208765633333333,0.0468214866666666,-1.5037093333333331,0.0283953166666666,0.0271129366666666,0.0489843166666666,4.5,2.333333333333333,1.5,-57.833333333333336,3.6666666666666665,275.8333333333333,-1054.6666666666667,0.0,318.8333333333333,1016.3135,-0.1726562333333333,3571.1666666666665,0.0208765633333333,0.003888454,0.0468214866666666,0.0026450893333333,-1.5037093333333331,0.0007459513666666,32335.0,27384.5,-135.0,6.0,9.0,-17.0,0,None
2022-12-25 08:57:21.550,261.393,0.0999999999999999,77.0,95.0,23019.0,4885.0,99.0,153.4,70.0,4878.2,29.177390000000003,0.56152,0.0154243133333333,0.0397352433333333,-1.485758666666667,32.28,0.0209345833333333,0.04687569,-1.5034906666666668,0.072960354,0.09137707,0.798020278,6.2,2.0,0.2,-55.0,-0.6,275.2,-1081.6,6.4,317.4,1016.3232,-0.16282812,3572.0,0.0209345833333333,0.0048155256666666,0.04687569,0.0013943752,-1.5034906666666668,0.003934485,32270.0,27386.0,-200.0,7.0,9.0,-17.0,0,None
2022-12-25 08:57:22.100,261.943,0.0999999999999942,77.0,144.0,22982.0,4883.0,99.0,159.66666666666666,70.16666666666667,4881.833333333333,28.746345,0.6008827333333333,0.01629095,0.0387848399999999,-1.4874383333333334,32.22666666666667,0.0212164866666666,0.0469966033333333,-1.503967,0.1606521166666666,0.2355256833333333,1.418967283333333,22.83333333333333,2.333333333333333,-3.6666666666666665,-54.833333333333336,5.666666666666667,278.0,-1048.8333333333333,-8.666666666666666,317.8333333333333,1016.3343333333332,-0.1516796833333333,3572.1666666666665,0.0212164866666666,0.0027394406666666,0.0469966033333333,0.0038222614333333,-1.503967,-0.04021175,32220.0,27386.0,-250.0,6.0,10.0,-18.0,0,None
2022-12-25 08:57:22.650,262.493,0.0999999999999999,77.0,139.0,22987.0,4895.0,99.0,135.2,71.0,4874.6,28.405744,0.6604188,0.016180185,0.03889364,-1.4877425,32.16,0.02146818,0.0468581349999999,-1.5035785000000002,0.2073038399999999,0.1707184,0.82014906,-12.4,4.6,-2.2,-55.6,2.2,275.6,-1056.0,-34.0,316.8,1016.342,-0.1441718799999999,3573.0,0.02146818,0.006913577,0.0468581349999999,-0.0001407669999999,-1.5035785000000002,0.039918635,32160.0,27380.0,-310.0,6.0,12.0,-20.0,0,None
2022-12-25 08:57:23.200,263.009,0.1040000000000076,77.0,138.0,22990.0,4890.0,99.0,137.4,71.0,4883.2,28.13822,0.73051838,0.0152666933333333,0.0387535366666666,-1.4886903333333332,32.10333333333333,0.0214644633333333,0.0466897133333333,-1.503696,0.2593877,0.19438872,0.99144456,7.2,1.0,-2.6,-56.2,6.8,277.6,-1044.2,62.4,318.4,1016.346,-0.14025002,3573.4,0.0214644633333333,0.0036494239999999,0.0466897133333333,0.0021380101666666,-1.503696,-0.0176848,32110.0,27387.0,-360.0,5.0,11.0,-19.0,0,None
2022-12-25 08:57:23.750,263.5805,0.1034999999999968,77.0,129.0,22985.0,4888.0,99.0,482.5,71.16666666666667,4880.333333333333,27.97524,0.80853265,0.0141062566666666,0.0377653766666666,-1.4897113333333334,32.053333333333335,0.0198127333333333,0.0450400066666666,-1.5031653333333337,0.3095585833333333,0.3974752,1.4389782999999998,22.166666666666668,4.833333333333333,-10.833333333333334,-38.16666666666666,4.833333333333333,265.3333333333333,-1062.5,-43.833333333333336,312.3333333333333,1016.3545,-0.1318359166666667,3574.0,0.0198127333333333,-0.0115283253333333,0.0450400066666666,-0.0224892508733333,-1.5031653333333337,0.041869081,32060.0,27385.0,-410.0,4.0,12.0,-21.0,0,None
2022-12-25 08:57:24.300,264.134,0.0999999999999999,77.0,1647.0,22582.0,4888.0,99.0,1733.4,73.2,4881.4,27.863588000000004,0.8889635200000001,-0.0039379735,-0.013805281,-1.496405,32.120000000000005,0.001557264,-0.0063767955,-1.5060695,0.53029754,1.00640298,4.1516028,-2.4,-119.2,-23.2,-24.8,-39.0,253.4,-1229.0,26.6,283.6,1016.6242,0.137953105,3575.0,0.001557264,-0.041550195,-0.0063767955,-0.110617465,-1.5060695,0.0094774932,32110.0,27364.0,-360.0,6.0,9.0,33.0,0,None
2022-12-25 08:57:24.850,264.684,0.1000000000000037,76.0,1812.0,22508.5,4884.0,99.0,1785.6666666666667,76.0,4875.666666666667,28.036700000000007,0.9603683,-0.0176296746666666,-0.025778673,-1.478743,32.7,-0.0123178200333333,-0.0176076213333333,-1.485512333333333,0.3839424833333333,0.9814238166666668,3.620100666666666,-1.0,80.5,-14.5,-25.33333333333333,21.166666666666668,249.5,-1254.3333333333333,41.5,306.3333333333333,1016.3823333333332,-0.1039973725,3575.333333333333,-0.0123178200333333,-0.0114405859999999,-0.0176076213333333,0.1416527933333333,-1.485512333333333,0.0476780633333333,32640.0,27487.0,170.0,-12.0,-9.0,124.0,0,None
2022-12-25 08:57:25.400,265.23400000000004,0.0999999999999999,75.0,1808.0,22435.0,4887.0,99.0,2021.0,78.8,4876.8,28.964724,1.016706,0.01325015,0.04410606,-1.4563113333333335,34.02,0.01823132,0.04961661,-1.4595463333333332,0.38202314,1.27707218,2.572876,1.2,55.6,-17.0,-8.0,36.4,259.0,-1203.4,38.8,272.2,1016.1272,-0.35893748,3575.8,0.01823132,0.0197607733333333,0.04961661,0.0363477866666666,-1.4595463333333332,0.02408212,33670.0,27642.0,1200.0,-11.0,-19.0,218.0,0,None
2022-12-25 08:57:25.950,265.78400000000005,0.0999999999999942,75.0,1675.0,22501.0,4890.0,99.0,1776.5,81.5,4879.666666666667,29.664315,1.06665,0.0380234133333333,0.025148338,-1.4747143333333332,35.89333333333334,0.0409667099999999,0.0288875066666666,-1.5433533333333334,0.3401610166666666,1.1699373333333332,4.162444,2.5,-67.33333333333333,-26.33333333333333,0.5,36.333333333333336,272.5,-1146.3333333333333,-33.333333333333336,290.8333333333333,1015.9528333333334,-0.5333203166666667,3576.6666666666665,0.0409667099999999,0.0391314233333333,0.0288875066666666,-0.0538985606666666,-1.5433533333333334,-0.0265734252333333,35150.0,27598.0,2680.0,20.0,-13.0,283.0,0,None
2022-12-25 08:57:26.500,266.3462,0.1042000000000029,74.0,1822.0,22469.0,4890.0,99.0,1669.8,84.4,4880.6,30.538812,1.1150244,0.03332079,-0.04052042,-1.492927,37.605,0.03674296,-0.03424987,-1.5924125,0.4134093199999999,1.1108501,4.4973608,-7.2,-104.0,-24.6,-7.7,-18.5,234.2,-1051.8,-33.4,287.6,1015.7411,-0.74521874,3577.0,0.03674296,-0.02292546,-0.03424987,-0.1659618,-1.5924125,-0.03793171,36850.0,26912.0,4380.0,45.0,-2.0,315.0,0,None
2022-12-25 08:57:27.050,266.8704,0.103800000000001,74.0,1313.0,22621.0,4883.0,99.0,1300.8,86.6,4878.8,31.644852000000004,1.1465914,0.0038699433333333,-0.05800535,-1.5110553333333332,39.26,0.0089783386566666,-0.0498289166666666,-1.606997,0.42794548,0.9401092,3.7994944,-13.6,14.0,-17.0,18.2,-48.8,239.8,-904.2,-20.8,330.8,1015.523,-0.96323446,3578.0,0.0089783386566666,-0.0539353066666666,-0.0498289166666666,0.0103250333333333,-1.606997,-0.0183788483333333,38550.0,26825.0,6080.0,38.0,14.0,313.0,0,None
2022-12-25 08:57:27.600,267.42220000000003,0.1121999999999956,74.0,1043.0,22676.0,4883.0,99.0,1014.4,88.4,4877.4,32.841588,1.1610707999999998,-0.0090073745,-0.0510037599999999,-1.5167365,40.605,-0.003803354,-0.04431213,-1.610144,0.63493524,0.8707688599999999,2.4453876,-9.8,-1.8,-9.0,26.4,-4.6,238.8,-838.0,41.4,334.6,1015.3754,-1.1107342,3578.2,-0.003803354,0.00263047245,-0.04431213,-0.02449454,-1.610144,0.0463108505,40560.0,26812.0,8090.0,17.5,14.5,179.0,0,None
2022-12-25 08:57:28.150,267.98483333333337,0.1000000000000037,74.0,1044.0,22660.0,4887.0,99.0,1083.0,89.83333333333333,4881.0,34.040620000000004,1.160397,-0.0157725266666666,-0.04483501,-1.497508,41.220000000000006,-0.008692185,-0.0383125833333333,-1.5887596666666666,0.7351685833333333,0.94576835,3.401164333333333,4.0,46.0,-1.6666666666666667,12.5,13.5,242.16666666666663,-930.0,8.833333333333334,335.0,1015.2876666666666,-1.198359333333333,3579.0,-0.008692185,-0.00608093,-0.0383125833333333,0.0343302566666666,-1.5887596666666666,0.0128101876666666,41400.0,26910.0,8930.0,4.0,6.0,49.0,0,None
2022-12-25 08:57:28.700,268.535,0.0999999999999999,73.0,1195.0,22631.0,4890.0,99.0,1201.4,91.6,4877.2,35.282132000000004,1.1440916,-0.0032312923333333,-0.02303386,-1.4995580000000002,41.54666666666666,0.0036230196666666,-0.0189051366666666,-1.5874983333333337,0.5445793,0.9164571,5.4979216,-8.8,13.4,-10.0,7.8,14.6,242.8,-1006.4,-10.6,314.8,1015.2198,-1.2664064000000002,3580.0,0.0036230196666666,0.0371327177,-0.0189051366666666,0.011115224,-1.5874983333333337,-0.0076402746666666,41610.0,26901.0,9140.0,6.0,4.0,22.0,0,None
2022-12-25 08:57:29.250,269.08500000000004,0.0999999999999942,73.0,1166.0,22608.0,4883.0,99.0,1190.8333333333333,93.5,4882.0,36.60952666666668,1.1155353333333335,-0.0012940811666666,-0.03169277,-1.5023223333333335,41.75666666666667,0.0039627063333333,-0.0260423566666666,-1.5865226666666663,0.5413636166666667,1.0490392166666664,6.9975328333333335,7.0,-14.833333333333334,-9.833333333333334,-3.1666666666666665,15.0,245.3333333333333,-1021.1666666666666,-11.666666666666666,321.1666666666667,1015.1786666666668,-1.3073306666666669,3580.333333333333,0.0039627063333333,0.0111048618333333,-0.0260423566666666,-0.010113974,-1.5865226666666663,0.0008881626666666,41770.0,26917.0,9300.0,8.0,0.0,4.0,0,None
2022-12-25 08:57:29.800,269.63500000000005,0.0999999999999999,73.0,1153.0,22628.0,4883.0,99.0,1173.6,95.4,4878.4,37.96635,1.0817672000000005,0.0051578525,-0.0319942,-1.5062655,41.88,0.0093601505,-0.026351665,-1.5881885,0.5288600999999999,1.1416612599999998,8.383052600000001,1.4,23.2,-6.0,-3.2,7.8,248.6,-1013.6,20.2,334.2,1015.163,-1.3232032,3581.0,0.0093601505,-0.0032886949999999,-0.026351665,-0.0051220399999999,-1.5881885,0.0408272499999999,41890.0,26899.0,9420.0,7.0,0.0,-5.0,0,None
2022-12-25 08:57:30.350,270.185,0.1000000000000037,73.0,1188.0,22636.0,4877.0,99.0,1170.3333333333333,97.16666666666669,4879.833333333333,39.435245,1.0452893333333335,0.003496254,-0.0174139666666666,-1.4887813333333335,41.96,0.0078014359999999,-0.0124037813333333,-1.5691013333333332,0.50151755,1.34115275,8.296569499999999,11.0,12.0,-7.0,-14.833333333333334,13.166666666666666,252.5,-1029.5,-6.666666666666667,313.1666666666667,1015.1556666666668,-1.3304296666666666,3581.833333333333,0.0078014359999999,-0.0004691433333333,-0.0124037813333333,0.0097455646666666,-1.5691013333333332,0.0241234616666666,41970.0,27016.0,9500.0,9.0,-1.0,-11.0,0,None
2022-12-25 08:57:30.900,270.735,0.0999999999999999,72.0,1208.0,22614.0,4880.0,99.0,1183.2,99.0,4878.6,41.07674000000001,1.00734928,0.0022576197566666,-0.0149151233333333,-1.4961783333333332,42.01666666666667,0.00596535,-0.0101753363333333,-1.5739006666666666,0.49828138,1.21060552,9.9556566,-5.0,7.0,-6.4,29.4,-13.8,257.2,-1084.8,-16.6,320.4,1015.138,-1.3482658,3582.0,0.00596535,0.0152722566666666,-0.0101753363333333,-0.0004997966666666,-1.5739006666666666,-0.0042909676666666,42010.0,26983.0,9540.0,14.0,-7.0,-17.0,0,None
2022-12-25 08:57:31.450,271.239,0.1039999999999963,72.0,1151.0,22634.0,4866.0,99.0,1170.4,100.6,4878.2,42.892318,0.96989268,-0.0015926519,-0.022409545,-1.4959875,42.045,0.00235522135,-0.0189427,-1.5722805,0.39607958,1.5341248,9.5600178,-5.3,-29.4,-2.8,8.2,10.2,252.7,-1021.8,21.1,336.6,1015.1367,-1.349336,3583.1,0.00235522135,0.0117950749999999,-0.0189427,-0.012203508,-1.5722805,0.027246925,42050.0,26987.0,9580.0,18.0,-13.0,-19.0,0,None
2022-12-25 08:57:32.000,271.825,0.103333333333334,72.0,1193.0,22586.0,4890.0,99.0,1198.3333333333333,102.5,4885.166666666667,45.53474,0.9253925,-0.066573024,-0.0427243766666666,-1.4814063333333334,42.086666666666666,-0.0629803016666666,-0.0385824766666666,-1.5559413333333332,0.4858540333333332,1.5815466666666669,11.0379585,-6.5,-64.83333333333333,15.666666666666666,26.0,-240.66666666666663,239.16666666666663,-1071.8333333333333,8.166666666666666,319.8333333333333,1015.125,-1.361106666666667,3583.833333333333,-0.0629803016666666,-0.2464590666666666,-0.0385824766666666,-0.04916668,-1.5559413333333332,0.012852721,42080.0,27091.0,9610.0,20.0,-27.0,-17.0,0,None
2022-12-25 08:57:32.550,272.391,0.1040000000000076,72.0,1250.0,22605.0,4888.0,99.0,1230.2,104.6,4882.2,48.463852,0.8931845,-0.0709731333333333,-0.0533257033333333,-1.4824176666666666,42.09666666666667,-0.0655008433333333,-0.0491102366666666,-1.5554453333333331,0.54851072,1.678117,11.619386,-13.6,5.4,35.8,-4.4,357.4,242.0,-1059.4,-30.0,328.4,1015.1208,-1.3653124,3584.0,-0.0655008433333333,0.26621906,-0.0491102366666666,-0.01774144,-1.5554453333333331,-0.0054029396666666,42100.0,27101.0,9630.0,8.0,-91.0,-25.0,0,None
2022-12-25 08:57:33.100,272.90700000000004,0.1039999999999963,72.0,1284.0,22536.0,4888.0,99.0,1304.2,106.4,4881.4,51.137948,0.8657630199999999,0.058039565,-0.17987835,-1.5008725,42.085,0.059158735,-0.1745537999999999,-1.5707225,0.5238857400000001,1.714203,14.314902,-12.6,-358.4,-12.2,38.0,60.4,218.8,-1057.6,-21.4,360.4,1015.1304,-1.3558592,3585.0,0.059158735,0.084960205,-0.1745537999999999,-0.37285205,-1.5707225,0.00273403,42090.0,27027.0,9620.0,-6.0,-109.0,-23.0,0,None
2022-12-25 08:57:33.650,273.475,0.1120000000000004,72.0,1218.0,22559.0,4896.0,99.0,1240.0,108.2,4888.2,54.71801000000001,0.8325926600000001,0.0273307966666666,-0.2585750333333333,-1.508512,42.08,0.0288893966666666,-0.2520781,-1.5770903333333333,0.51195914,1.5761734,11.558928,-5.6,218.1,-11.4,58.1,-55.0,160.6,-1073.8,-2.6,380.8,1015.1601,-1.3261092,3585.7,0.0288893966666666,-0.0542538599999999,-0.2520781,0.1383604033333333,-1.5770903333333333,-0.0138089066666666,42080.0,26962.0,9610.0,-92.0,-80.0,-20.0,0,None
2022-12-25 08:57:34.200,273.995,0.1079999999999926,71.0,1109.0,22635.0,4891.0,99.0,1080.4,110.0,4885.6,58.475124,0.80882936,-0.0179850173333333,0.0761187,-1.504406666666667,42.07,-0.0135189373333333,0.0785721833333333,-1.5748293333333334,0.48119562,1.6838003999999998,10.2220234,12.8,763.8,-1.0,35.0,-74.4,227.0,-1085.0,-10.6,339.0,1015.2054,-1.2807656,3586.4,-0.0135189373333333,-0.0463781966666666,0.0785721833333333,0.7441279999999999,-1.5748293333333334,0.0004156366666666,42080.0,26966.0,9610.0,-185.0,-74.0,-16.0,0,None
2022-12-25 08:57:34.750,274.5816666666667,0.103333333333334,71.0,1176.0,22575.0,4890.0,99.0,1227.5,111.83333333333331,4884.333333333333,63.035763333333335,0.7816980166666667,0.0084198466666666,0.2634344333333333,-1.5189333333333332,41.99666666666666,0.010299608,0.2558081,-1.588482,0.4870938833333333,2.013846,16.085988333333336,-1.5,-87.33333333333333,-4.0,-2.333333333333333,98.83333333333331,329.3333333333333,-1081.1666666666667,-33.833333333333336,235.3333333333333,1015.2635,-1.2229555,3587.1666666666665,0.010299608,0.1966002666666666,0.2558081,-0.3485258,-1.588482,-0.0623134966666666,42005.0,26925.0,9535.0,-40.5,-104.0,-19.5,0,None
2022-12-25 08:57:35.300,275.1632,0.1081999999999993,71.0,1317.0,22515.0,4890.0,99.0,1318.6,114.2,4884.6,68.375712,0.7543176399999999,0.1473952,-0.062451295,-1.5245245,41.89,0.1446253499999999,-0.06038432,-1.588863,0.4792642199999999,1.946705,12.7692248,9.6,-436.1,-44.4,25.5,212.4,262.7,-1100.0,20.0,312.2,1015.1792,-1.3068984,3587.9,0.1446253499999999,0.1590355895,-0.06038432,-0.4342663,-1.588863,0.05200688,41880.0,26925.0,9410.0,73.0,-56.0,-8.0,0,None
2022-12-25 08:57:35.850,275.679,0.103800000000001,71.0,1199.0,22574.0,4887.0,99.0,1190.2,115.6,4885.4,71.962028,0.74084232,0.2506408,-0.1297209,-1.508476666666667,41.93,0.2470809666666666,-0.1180203066666666,-1.5678206666666668,0.5343312600000001,1.22411572,7.7677966,25.6,74.0,-71.0,25.2,188.0,211.2,-1093.4,68.6,350.8,1015.1694,-1.3169062,3588.4,0.2470809666666666,0.2026144933333333,-0.1180203066666666,0.0637474866666666,-1.5678206666666668,0.0722417733333333,41950.0,27061.0,9480.0,24.0,54.0,-8.0,0,None
2022-12-25 08:57:36.400,276.1992,0.1042000000000029,71.0,1034.0,22608.0,4896.0,99.0,1132.8,117.4,4889.4,76.36157,0.7315127400000001,0.159859845,-0.05989911,-1.4851955,42.005,0.15975762,-0.0491192899999999,-1.543006,0.52619686,1.32189012,9.0979496,52.6,139.2,-73.0,11.0,-539.6,230.0,-1058.8,-14.8,340.8,1015.146,-1.3400312,3589.0,0.15975762,-0.61723115,-0.0491192899999999,0.114069515,-1.543006,0.00369349,42030.0,27180.0,9560.0,0.0,137.0,-10.0,0,None
2022-12-25 08:57:36.950,276.7726666666667,0.103333333333334,70.0,1158.0,22537.0,4895.0,99.0,1078.0,119.16666666666669,4882.166666666667,81.34665666666666,0.7341066833333333,-0.1650051233333333,-0.0018338649999999,-1.4960903333333333,42.06,-0.1564238833333333,0.0039559926666666,-1.553166,0.7375636500000001,1.1999931666666666,8.449800833333333,32.166666666666664,64.5,37.5,-5.166666666666667,-410.8333333333333,251.5,-1014.5,-49.66666666666666,308.5,1015.1786666666668,-1.3073048333333337,3589.5,-0.1564238833333333,-0.4475731999999999,0.0039559926666666,0.0453008466666666,-1.553166,-0.0251079893333333,42070.0,27051.0,9600.0,5.0,55.0,-22.0,0,None
2022-12-25 08:57:37.500,277.34400000000005,0.1039999999999963,70.0,1448.0,22466.0,4895.0,99.0,1364.4,121.0,4879.0,86.67622,0.75112388,-0.2202022333333333,-0.007238255,-1.5110113333333333,42.02666666666666,-0.2081389333333333,-0.005819175,-1.565524,0.40952382,1.9978016,10.9035836,2.7,-84.7,71.9,26.5,132.6,265.1,-1086.8,2.3,303.3,1015.1528,-1.3335078,3590.2,-0.2081389333333333,0.15612162,-0.005819175,-0.0865186033333333,-1.565524,0.011968793,42010.0,27040.0,9540.0,24.0,-84.0,-24.0,0,None
2022-12-25 08:57:38.050,277.86800000000005,0.1040000000000076,70.0,1456.0,22481.0,4893.0,99.0,1439.4,123.2,4889.4,91.683886,0.77468344,-0.1448892,-0.0576413749999999,-1.513203,42.005,-0.1377278499999999,-0.057116475,-1.566108,0.456348,1.37851,7.4933874,-3.6,-62.8,39.4,4.4,61.2,242.8,-1152.8,-9.8,325.4,1015.1734,-1.3127185999999995,3591.0,-0.1377278499999999,0.0741505,-0.057116475,-0.05685126,-1.566108,-0.0337452,42010.0,27026.0,9540.0,21.0,-180.0,-5.0,0,None
2022-12-25 08:57:38.600,278.44,0.1034999999999968,70.0,1682.0,22372.0,4895.0,99.0,1611.8,125.6,4886.5,96.27575666666668,0.8042865666666666,-0.1505175333333333,-0.0868549733333333,-1.5260233333333335,42.18333333333334,-0.1456788666666666,-0.0852251233333333,-1.5771186666666666,0.4407220333333333,1.3825561666666666,7.9420645,-24.83333333333333,-86.16666666666667,34.333333333333336,32.166666666666664,-60.333333333333336,232.16666666666663,-1182.8333333333333,-23.166666666666668,320.0,1015.1661666666664,-1.3201565,3591.5,-0.1456788666666666,-0.0585199366666666,-0.0852251233333333,-0.0855098733333333,-1.5771186666666666,-0.0213698766666666,42210.0,26956.0,9740.0,2.0,-260.0,53.0,0,None
2022-12-25 08:57:39.150,278.997,0.0999999999999999,70.0,1476.0,22488.0,4890.0,99.0,1504.0,128.0,4878.6,100.47987600000002,0.8386077799999999,-0.1925251666666666,-0.1271931333333333,-1.540215,42.71,-0.1871251666666666,-0.1250507666666666,-1.5882866666666668,0.43963548,1.3507966,8.8695822,-44.4,-29.0,43.6,20.2,-39.6,209.8,-1058.4,-18.8,335.8,1015.1076,-1.3785624,3592.0,-0.1871251666666666,-0.05987535,-0.1250507666666666,-0.0254289733333333,-1.5882866666666668,-0.0138949543333333,42670.0,26893.0,10200.0,-31.0,-341.0,79.0,0,None
2022-12-25 08:57:39.700,279.547,0.1000000000000037,69.0,1507.0,22496.0,4893.0,99.0,1566.1666666666667,130.5,4873.666666666667,104.27821666666668,0.8754173500000001,-0.2068882666666666,-0.0856977633333333,-1.539517,43.30666666666667,-0.2012327,-0.08394974,-1.5847706666666663,0.4277271166666667,1.2944403333333334,9.087608,-55.0,115.16666666666669,52.333333333333336,36.66666666666666,12.0,216.8333333333333,-1091.1666666666667,5.166666666666667,320.0,1015.021,-1.4651171666666667,3592.6666666666665,-0.2012327,0.0310500516666666,-0.08394974,0.1030904033333333,-1.5847706666666663,0.0015374976666666,43160.0,26919.0,10690.0,-67.0,-428.0,82.0,0,None
2022-12-25 08:57:40.250,280.09700000000004,0.0999999999999999,69.0,1532.0,22436.0,4883.0,99.0,1524.4,132.8,4873.0,107.97562,0.91372736,-0.16664815,-0.0524864149999999,-1.540968,43.925,-0.16192645,-0.052730765,-1.582174,0.4827326799999999,1.3961480000000002,11.0473496,-75.8,-20.6,45.6,65.2,124.4,237.6,-1127.0,5.0,320.0,1014.8668,-1.6192187999999998,3593.4,-0.16192645,0.14474915,-0.052730765,-0.01323623,-1.582174,-0.009937444,43720.0,26926.0,11250.0,-70.0,-513.0,112.0,0,None
2022-12-25 08:57:40.800,280.657,0.1199999999999931,69.0,1441.5,22484.5,4880.0,99.0,1393.8,135.0,4881.7,111.66634,0.95160482,-0.04204691,-0.0816530466666666,-1.53923,44.84333333333333,-0.0414449733333333,-0.0793519333333333,-1.577913333333333,0.4974499799999999,1.2731212,10.9965237,-81.3,-38.2,18.7,68.4,313.2,229.9,-1113.8,25.2,335.7,1014.7724,-1.7136872,3594.0,-0.0414449733333333,0.3562481333333333,-0.0793519333333333,-0.04084206,-1.577913333333333,0.0110079386333333,44560.0,26959.0,12090.0,-62.0,-568.0,152.0,0,None
2022-12-25 08:57:41.350,281.201,0.1039999999999963,69.0,1284.0,22492.0,4887.0,99.0,1302.2,137.0,4876.2,115.17477999999998,0.98762084,0.0842308399999999,-0.053979305,-1.5398756666666669,46.04333333333333,0.0809351566666666,-0.0478660009999999,-1.5774423333333332,0.5246284,1.04781506,10.804594000000002,-56.8,197.8,-32.0,44.6,2.2,219.6,-1052.4,-2.8,344.2,1014.6604,-1.8258906,3594.8,0.0809351566666666,-0.0008135499999999,-0.0478660009999999,0.21154093,-1.5774423333333332,0.0092905966666666,45570.0,26961.0,13100.0,-63.0,-540.0,152.0,0,None
2022-12-25 08:57:41.900,281.717,0.0999999999999999,69.0,1301.0,22510.0,4885.0,99.0,1290.2,138.8,4879.4,117.98406,1.0187518,0.018051906,0.09070439,-1.5449959999999998,47.0,0.0156572015,0.09734898,-1.5823605,0.47151882,1.15053272,10.978726,-63.8,141.6,-30.2,46.6,-81.6,259.2,-1040.6,25.8,314.4,1014.5602,-1.9261564,3595.0,0.0156572015,-0.0725765,0.09734898,0.0753157999999999,-1.5823605,-0.0049522865,46570.0,26953.0,14100.0,-53.0,-469.0,149.0,0,None
2022-12-25 08:57:42.450,282.267,0.1000000000000037,69.0,1554.0,22452.0,4893.0,99.0,1441.0,141.0,4883.333333333333,120.82746666666668,1.0555763333333334,0.0546474533333333,-0.00548414,-1.5421716666666665,47.876666666666665,0.0540793699999999,0.0010380433333333,-1.5772963333333332,0.4871380999999999,1.3665634999999998,11.729795166666667,-44.16666666666666,-193.8333333333333,-25.33333333333333,47.333333333333336,109.83333333333331,257.5,-1079.1666666666667,-18.166666666666668,312.3333333333333,1014.5215,-1.9647265,3595.833333333333,0.0540793699999999,0.1373252999999999,0.0010380433333333,-0.1998071066666666,-1.5772963333333332,0.0026395046666666,47890.0,26965.5,15420.0,27.0,-407.5,146.5,0,None
2022-12-25 08:57:43.000,282.817,0.0999999999999999,68.0,1561.0,22418.0,4883.0,99.0,1544.0,143.2,4878.0,123.19632,1.0916766,0.0716036566666666,-0.0459433266666666,-1.5448636666666669,48.86666666666667,0.07164883,-0.0354197866666666,-1.5757010000000002,0.46198678,1.2575106000000005,10.7754942,-47.0,103.8,-44.0,72.0,-108.0,219.8,-1084.4,5.4,333.0,1014.4584,-2.028,3596.4,0.07164883,-0.1363954,-0.0354197866666666,0.11161583,-1.5757010000000002,-0.0194354966666666,49130.0,26954.0,16660.0,38.0,-321.0,157.0,0,None
2022-12-25 08:57:43.550,283.367,0.1000000000000037,68.0,1504.0,22479.0,4893.0,99.0,1488.1666666666667,145.66666666666666,4883.666666666667,125.22855,1.1262795,-0.0862836733333333,0.0971623633333333,-1.560077,49.88333333333333,-0.0820325233333333,0.1044340266666666,-1.5881093333333334,0.4106190666666666,1.370830166666667,10.940295166666663,-35.666666666666664,189.0,-4.666666666666667,50.5,-275.0,260.5,-1078.1666666666667,4.333333333333333,300.3333333333333,1014.3598333333332,-2.126237166666667,3596.833333333333,-0.0820325233333333,-0.2366574333333333,0.1044340266666666,0.1731818866666666,-1.5881093333333334,0.008125822,49990.0,26894.0,17520.0,94.0,-320.0,168.0,0,None
2022-12-25 08:57:44.100,283.91700000000003,0.0999999999999999,68.0,1505.0,22424.0,4896.0,99.0,1549.4,147.8,4881.2,127.06986,1.1630644,-0.08395013,0.0520614,-1.5578685,50.775000000000006,-0.077151615,0.0554407949999999,-1.5814975,0.40914118,1.4964464,11.535094,-43.4,-290.6,16.8,16.6,340.2,282.8,-1051.4,15.0,293.8,1014.2292,-2.2570314,3597.6,-0.077151615,0.49906965,0.0554407949999999,-0.3700167,-1.5814975,0.0026490599999999,50880.0,26950.0,18410.0,161.0,-365.0,166.0,0,None
2022-12-25 08:57:44.650,284.46700000000004,0.0999999999999942,68.0,1459.0,22444.0,4890.0,99.0,1510.3333333333333,150.16666666666666,4883.0,128.92066666666668,1.200508,0.11343501,-0.0991395133333333,-1.5590053333333334,51.7,0.11615521,-0.0920790533333333,-1.5796973333333335,0.4601726999999999,1.4006066666666666,10.810699166666668,-37.5,-149.0,-37.833333333333336,25.33333333333333,200.16666666666663,224.0,-1054.8333333333333,5.5,334.6666666666667,1014.1021666666668,-2.3841535,3598.0,0.11615521,0.2153043233333333,-0.0920790533333333,-0.1496097066666666,-1.5796973333333335,0.022288656,51810.0,26944.0,19340.0,155.0,-319.0,166.0,0,None
2022-12-25 08:57:45.200,285.017,0.0999999999999999,68.0,1641.0,22399.0,4883.0,99.0,1634.4,152.8,4874.0,130.80324000000002,1.2341247999999998,0.1480278333333333,-0.11203338,-1.556468,52.79,0.1489563666666666,-0.1022779266666666,-1.5726106666666666,0.3823353,1.3365265,8.4616985,-25.0,88.0,-59.0,41.0,-28.0,210.4,-1067.6,8.0,347.2,1014.0004,-2.4856876,3598.8,0.1489563666666666,-0.0370241366666666,-0.1022779266666666,0.08175186,-1.5726106666666666,-0.00047065,52720.0,26990.0,20250.0,109.0,-228.0,165.0,0,None
2022-12-25 08:57:45.750,285.567,0.1000000000000037,68.0,1540.0,22414.0,4896.0,99.0,1623.3333333333333,155.0,4882.166666666667,132.58808333333332,1.2667326666666667,0.1175874,-0.0727843666666666,-1.563022666666667,53.88333333333333,0.1231579333333333,-0.0654245166666666,-1.57419,0.3827955999999999,1.3364296666666666,8.608532499999999,-19.166666666666668,51.333333333333336,-52.0,38.833333333333336,-31.83333333333333,211.16666666666663,-1048.8333333333333,-21.0,321.0,1013.8808333333336,-2.605221333333333,3599.1666666666665,0.1231579333333333,-0.0294968838666666,-0.0654245166666666,0.0618021633333333,-1.57419,-0.0191323599999999,53630.0,26995.0,21160.0,76.0,-148.0,169.0,0,None
2022-12-25 08:57:46.300,286.117,0.0999999999999999,67.0,1565.0,22410.0,4893.0,99.0,1425.6,157.4,4886.8,134.27810000000002,1.3007384,0.1196947,-0.057828365,-1.5651075,54.760000000000005,0.12755315,-0.05310762,-1.572794,0.3953346,1.4295084,7.940273200000002,-15.8,14.6,-48.0,34.8,39.0,233.0,-998.6,19.2,327.8,1013.7408,-2.7455936000000003,3599.8,0.12755315,0.047918095,-0.05310762,0.0090353775,-1.572794,-0.0028518399999999,54530.0,26976.0,22060.0,57.0,-86.0,159.0,0,None
2022-12-25 08:57:46.850,286.667,0.0999999999999942,67.0,1187.0,22518.0,4891.5,99.0,1109.8333333333333,159.33333333333334,4881.333333333333,135.8821,1.3371773333333332,0.10467839,-0.0485931099999999,-1.5642293333333332,55.37,0.1115915133333333,-0.0453237066666666,-1.5690276666666667,0.5511908833333333,1.1063404,7.4027295,-5.333333333333333,38.333333333333336,-38.16666666666666,43.333333333333336,-68.33333333333333,240.0,-866.0,-3.5,346.5,1013.6663333333336,-2.8198958333333333,3600.0,0.1115915133333333,-0.0499557933333333,-0.0453237066666666,0.0492772033333333,-1.5690276666666667,-0.0115313466666666,55260.0,27021.0,22790.0,46.0,-34.0,98.0,0,None
2022-12-25 08:57:47.400,287.217,0.0999999999999999,67.0,1259.0,22495.0,4895.0,99.0,1198.2,161.0,4887.8,137.28186,1.3755754,0.06739616,-0.0255515999999999,-1.56755,55.56333333333333,0.0759128066666666,-0.0244339766666666,-1.5690423333333332,0.49493494,1.24669368,9.6351156,3.0,32.6,-36.2,35.8,-41.2,235.4,-981.4,11.6,321.4,1013.645,-2.8411094,3601.0,0.0759128066666666,-0.0451154466666666,-0.0244339766666666,0.0333562113333333,-1.5690423333333332,-0.0085501306666666,55550.0,27006.0,23080.0,41.0,0.0,12.0,0,None
2022-12-25 08:57:47.950,287.767,0.1000000000000037,67.0,1367.0,22466.0,4890.0,98.0,1353.5,163.0,4884.666666666667,138.35976666666667,1.4132911666666663,0.0087804766666666,-0.02569905,-1.5650456666666666,55.53333333333333,0.01733491,-0.0261912033333333,-1.5640716666666667,0.4669414666666666,1.3282901666666669,8.356155833333334,10.5,-16.666666666666668,-22.166666666666668,28.83333333333333,-173.5,253.0,-1031.1666666666667,-2.6666666666666665,331.3333333333333,1013.6171666666664,-2.869075333333333,3601.1666666666665,0.01733491,-0.2253707999999999,-0.0261912033333333,-0.019320013,-1.5640716666666667,0.0002220403333333,55540.0,27029.5,23070.0,48.0,23.0,-19.0,0,None
2022-12-25 08:57:48.500,288.317,0.0999999999999999,67.0,1322.0,22474.0,4893.0,98.0,1332.2,165.0,4886.4,139.2029,1.4512052,-0.11506375,-0.0446158,-1.5663485,55.56,-0.10633396,-0.046706145,-1.563131,0.40699608,1.3885052,8.044644,-1.0,-38.4,16.0,22.2,-93.8,244.2,-1057.0,-1.8,317.0,1013.6032,-2.8830466,3602.0,-0.10633396,-0.06713019,-0.046706145,-0.034037855,-1.563131,0.014986008,55570.0,27039.0,23100.0,48.0,-30.0,-17.0,0,None
2022-12-25 08:57:49.050,288.867,0.1000000000000037,67.0,1384.0,22424.0,4896.0,98.0,1338.3333333333333,167.16666666666666,4884.666666666667,140.0173,1.4913249999999998,0.0537413933333333,-0.0573880966666666,-1.5698623333333332,55.59666666666666,0.0619642033333333,-0.06119685,-1.5664183333333332,0.4914358999999999,1.3420395,9.091526833333331,-15.5,-9.166666666666666,-10.5,47.0,407.3333333333333,236.5,-1062.8333333333333,25.33333333333333,336.6666666666667,1013.6098333333334,-2.8763019999999995,3602.5,0.0619642033333333,0.4042751,-0.06119685,-0.0192970436666666,-1.5664183333333332,-0.0025734083333333,55600.0,27028.0,23130.0,38.0,-29.0,-19.0,0,None
2022-12-25 08:57:49.600,289.41700000000003,0.0999999999999999,67.0,1282.0,22457.0,4896.0,98.0,1332.0,169.2,4880.6,140.82796,1.5299184,0.1172442133333333,-0.0566462666666666,-1.5696313333333334,55.60666666666666,0.1197681366666666,-0.0591764866666666,-1.565797,0.4254945799999999,1.4438362000000002,8.5955338,7.6,14.0,-57.8,30.6,-115.0,236.4,-1055.0,-9.6,329.6,1013.6034,-2.8829218,3603.0,0.1197681366666666,-0.1272385466666666,-0.0591764866666666,0.0136948909999999,-1.565797,0.0101097433333333,55610.0,27032.0,23140.0,30.0,25.0,-18.0,0,None
2022-12-25 08:57:50.150,289.96700000000004,0.0999999999999942,67.0,1203.0,22504.0,4890.0,98.0,1264.3333333333333,171.16666666666666,4884.166666666667,141.46986666666666,1.5677201666666667,0.0005536823333333,-0.0998965966666666,-1.5688099999999998,55.626666666666665,0.0051344933333333,-0.1017599866666666,-1.5630556666666668,0.4506720999999999,1.3545531666666666,9.331215,9.5,-125.33333333333331,-25.0,10.5,-211.3333333333333,229.0,-1036.5,-12.333333333333334,340.6666666666667,1013.6043333333332,-2.881783833333333,3603.5,0.0051344933333333,-0.2352676666666666,-0.1017599866666666,-0.1388178133333333,-1.5630556666666668,-1.979900000000032e-05,55630.0,27038.0,23160.0,16.0,45.0,-16.0,0,None
2022-12-25 08:57:50.700,290.533,0.1040000000000076,67.0,1381.0,22432.0,4887.0,98.0,1348.4,173.2,4880.0,142.01083999999997,1.608163,-0.14200875,-0.1343125499999999,-1.5691915,55.63,-0.13330135,-0.1360288,-1.5619855,0.4738679999999999,1.2940352,8.071262,-6.8,-11.4,19.4,54.2,-244.4,215.0,-1112.0,-31.4,348.2,1013.6054,-2.8807652,3604.0,-0.13330135,-0.19594265,-0.1360288,0.020528425,-1.5619855,-0.038937885,55630.0,27057.0,23160.0,-23.0,5.0,-23.0,0,None
2022-12-25 08:57:51.250,291.087,0.0999999999999942,67.0,1292.0,22458.0,4883.0,98.0,1353.8333333333333,175.16666666666666,4883.0,142.53220000000002,1.651571333333333,-0.1693736666666666,-0.1388485666666666,-1.5810716666666669,55.626666666666665,-0.1591806,-0.1428348333333333,-1.5717943333333333,0.4546072833333334,1.4645355,9.512766666666668,0.0,-25.666666666666668,43.5,38.16666666666666,75.16666666666667,214.8333333333333,-1029.0,-14.333333333333334,347.3333333333333,1013.6113333333332,-2.874661333333333,3604.3333333333335,-0.1591806,0.0626437966666666,-0.1428348333333333,-0.0442707233333333,-1.5717943333333333,0.0067131599999999,55630.0,26991.0,23160.0,-70.0,-84.0,-24.0,1,27_xacc_avg_constant_0
2022-12-25 08:57:51.800,291.637,0.0999999999999999,67.0,1361.0,22445.0,4887.0,98.0,1274.2,177.4,4883.4,143.04374,1.6950362,0.0074797966666666,-0.0622072161333333,-1.5861383333333334,55.63333333333333,0.0135890933333333,-0.0681330736666666,-1.5767163333333334,0.46632866,1.4324598,9.0732682,0.0,268.2,8.0,54.8,464.6,217.0,-1145.4,56.8,346.4,1013.5924,-2.8938122,3605.0,0.0135890933333333,0.4526266333333333,-0.0681330736666666,0.3213882333333333,-1.5767163333333334,0.0044364,55630.0,26953.0,23160.0,-109.0,-156.0,-17.0,1,27_xacc_avg_constant_0
2022-12-25 08:57:52.350,292.18699999999995,0.1000000000000037,67.0,1239.5,22475.0,4884.0,98.0,1182.1666666666667,179.16666666666666,4885.166666666667,143.64988333333335,1.735563,0.1402911666666666,0.0332213666666666,-1.583749,55.65333333333333,0.1384128333333333,0.0249638066666666,-1.574064,0.6285845499999999,1.621276333333333,12.157631666666669,0.0,59.16666666666666,-51.5,59.16666666666666,56.0,254.3333333333333,-1087.3333333333333,8.0,314.1666666666667,1013.6251666666666,-2.8610545,3605.3333333333335,0.1384128333333333,0.0104437466666666,0.0249638066666666,0.0051563299999999,-1.574064,-0.0192752987433333,55660.0,27016.0,23190.0,-93.0,-127.0,-14.0,1,27_xacc_avg_constant_0
2022-12-25 08:57:52.900,292.737,0.0999999999999999,67.0,1343.0,22435.0,4893.0,98.0,1292.2,181.0,4884.8,144.251,1.7706761999999998,0.102453335,0.0099291125,-1.5923625,55.61,0.1001806299999999,0.006572374,-1.5798905,0.5174347,1.6780526000000002,11.92022,0.0,-50.0,-55.2,16.4,-121.4,245.8,-1009.6,6.8,311.0,1013.6464,-2.8396092,3606.0,0.1001806299999999,-0.1925407,0.006572374,-0.070206185,-1.5798905,-0.0106509449999999,55640.0,26955.0,23170.0,-49.0,-57.0,-18.0,1,27_xacc_avg_constant_0
2022-12-25 08:57:53.450,293.287,0.0999999999999942,67.0,1255.0,22488.0,4893.0,98.0,1235.6666666666667,182.8333333333333,4882.333333333333,144.70836666666665,1.8000236666666665,0.0197309193333333,-0.0306328133333333,-1.5952286666666666,55.586666666666666,0.0209115516666666,-0.0316999966666666,-1.5812443333333337,0.4620607,1.6916633333333333,11.476263666666666,0.0,-75.16666666666667,-26.166666666666668,27.5,-113.33333333333331,244.5,-1059.8333333333333,-7.0,326.6666666666667,1013.645,-2.8411456666666663,3606.1666666666665,0.0209115516666666,-0.12362577,-0.0316999966666666,-0.06407132,-1.5812443333333337,-0.0095506143333333,55590.0,26938.5,23120.0,-13.5,-5.5,-20.0,1,27_xacc_avg_constant_0
2022-12-25 08:57:54.000,293.845,0.1040000000000076,66.0,1321.0,22446.0,4895.0,98.0,1307.2,184.8,4888.6,145.0172,1.8258036,-0.0051893713333333,-0.0495914366666666,-1.5897736666666666,55.57333333333333,-0.0021159123333333,-0.0492785333333333,-1.5751786666666667,0.454568625,1.498027,10.43849375,0.0,10.8,-10.9,39.1,12.9,236.9,-1075.3,27.2,326.6,1013.6077,-2.8781953,3607.2,-0.0021159123333333,0.0174620653333333,-0.0492785333333333,0.0205367833333333,-1.5751786666666667,0.0255961666666666,55570.0,27003.0,23100.0,-16.0,-11.0,-16.0,1,27_xacc_avg_constant_0
2022-12-25 08:57:54.550,294.361,0.0999999999999999,66.0,1268.0,22473.0,4896.0,98.0,1257.2,186.6,4891.2,145.26026,1.8474742,0.0104375715,-0.0390418399999999,-1.580533,55.595,0.014114945,-0.038739215,-1.5656914999999998,0.46008638,1.5104848,8.746868799999998,0.0,23.8,-16.0,47.8,32.2,240.6,-1019.6,15.8,321.4,1013.6066,-2.8797344,3607.6,0.014114945,0.068019135,-0.038739215,0.04120314,-1.5656914999999998,0.031823605,55600.0,27030.0,23130.0,-16.0,-15.0,-19.0,1,27_xacc_avg_constant_0
2022-12-25 08:57:55.100,294.9103333333333,0.0999999999999942,66.0,1299.0,22452.0,4896.0,98.0,1264.1666666666667,188.5,4888.333333333333,145.4883166666667,1.8671921666666669,0.0166786366666666,-0.0260672733333333,-1.5818493333333332,55.60999999999999,0.0205362933333333,-0.02622679,-1.566374,0.4563173999999999,1.2852384,9.0033665,0.0,31.666666666666668,-16.333333333333332,17.666666666666668,13.333333333333334,248.66666666666663,-1060.1666666666667,-10.833333333333334,322.5,1013.603,-2.8830076666666664,3608.0,0.0205362933333333,0.0139513336666666,-0.02622679,0.0406549966666666,-1.566374,-0.01367365,55610.0,27016.0,23140.0,-12.0,-16.0,-23.0,1,27_xacc_avg_constant_0
2022-12-25 08:57:55.650,295.461,0.0999999999999999,66.0,1252.0,22452.0,4901.0,98.0,1241.4,190.6,4891.2,145.70252000000002,1.8856988,0.02832642,-0.01669143,-1.5830273333333331,55.61666666666667,0.0317575033333333,-0.0170049533333333,-1.5676813333333337,0.46206154,1.4478835999999995,9.4241782,0.0,17.4,-19.0,25.8,3.8,246.8,-1052.0,19.4,317.2,1013.5938,-2.8924376,3608.2,0.0317575033333333,-0.001759541,-0.0170049533333333,0.0254060099999999,-1.5676813333333337,-0.0011497469999999,55620.0,27022.0,23150.0,0.0,-13.0,-20.0,1,27_xacc_avg_constant_0
2022-12-25 08:57:56.200,296.0236666666667,0.103333333333334,66.0,1285.0,22449.0,4896.0,98.0,1226.6666666666667,192.8333333333333,4888.0,145.86593333333334,1.902527,-0.0596167266666666,0.0118969063333333,-1.589327,55.63666666666668,-0.0560885466666666,0.012264547,-1.5736086666666669,0.4778901166666666,1.4445694999999998,10.108333666666669,0.0,46.66666666666666,-4.166666666666667,34.5,-200.8333333333333,252.3333333333333,-1071.0,-25.166666666666668,317.8333333333333,1013.6215,-2.864440166666667,3608.8333333333335,-0.0560885466666666,-0.2069238666666666,0.012264547,0.0291621433333333,-1.5736086666666669,-0.01852619,55640.0,26987.0,23170.0,17.0,-22.0,-20.0,1,27_xacc_avg_constant_0
2022-12-25 08:57:56.750,296.57700000000006,0.0999999999999999,66.0,1284.0,22450.0,4893.0,98.0,1279.4,194.6,4893.0,145.94508000000002,1.917529,-0.090476515,-0.0088665405,-1.5929655,55.61,-0.08554687,-0.0103420700499999,-1.575597,0.47147854,1.5513534,10.135056600000002,0.0,-123.0,14.4,18.0,245.4,256.2,-1035.6,25.2,306.2,1013.6324,-2.8538126000000004,3609.4,-0.08554687,0.248545095,-0.0103420700499999,-0.0988288,-1.575597,0.018603295,55610.0,26963.0,23140.0,42.0,-71.0,-24.0,1,27_xacc_avg_constant_0
2022-12-25 08:57:57.300,297.09700000000004,0.1040000000000076,66.0,1309.0,22451.0,4898.0,98.0,1365.2,196.4,4891.6,146.0038,1.9299342,0.1066598233333333,-0.0735926333333333,-1.5816913333333331,55.57666666666666,0.1087916333333333,-0.0730856933333333,-1.5641426666666665,0.49638352,1.616661,9.479617799999998,0.0,-58.2,-33.8,23.2,227.2,226.4,-1077.2,40.2,323.4,1013.6272,-2.8590938,3609.8,0.1087916333333333,0.2082923633333333,-0.0730856933333333,-0.0531605,-1.5641426666666665,0.03219365,55570.0,27032.0,23100.0,35.0,-75.0,-19.0,1,27_xacc_avg_constant_0
2022-12-25 08:57:57.850,297.667,0.1033333333333246,66.0,1342.0,22432.0,4888.5,98.0,1353.1666666666667,198.66666666666663,4889.5,146.1020333333333,1.9432396666666667,0.08437192,-0.0494186566666666,-1.576911333333333,55.56999999999999,0.0856013133333333,-0.0463453766666666,-1.5591846666666669,0.4352795,1.4403566666666665,7.522180166666666,0.0,108.83333333333331,-47.66666666666666,26.33333333333333,-123.5,228.8333333333333,-1064.1666666666667,1.6666666666666667,332.5,1013.611,-2.8753383333333336,3610.1666666666665,0.0856013133333333,-0.1232850033333333,-0.0463453766666666,0.0978001633333333,-1.5591846666666669,-0.0134544023333333,55560.0,27071.0,23090.0,15.0,-18.0,-17.0,1,27_xacc_avg_constant_0
2022-12-25 08:57:58.400,298.217,0.0999999999999999,66.0,1190.0,22473.0,4896.0,98.0,1154.6,200.4,4883.2,146.18275999999997,1.9573122,0.025019385,-0.017409075,-1.586589,55.605,0.0294415349999999,-0.015254375,-1.569632,0.51142124,1.4834544,10.2613714,0.0,5.6,-20.2,30.6,-78.4,264.6,-1004.6,-37.8,335.4,1013.6128,-2.873422,3611.0,0.0294415349999999,-0.053415245,-0.015254375,0.00538138,-1.569632,-0.023890785,55590.0,27033.0,23120.0,13.0,8.0,-10.0,1,27_xacc_avg_constant_0
2022-12-25 08:57:58.950,298.767,0.1000000000000037,66.0,1130.0,22466.0,4893.0,98.0,1105.0,202.16666666666663,4885.166666666667,146.19251666666665,1.97177,-0.012929525,-0.0249004686666666,-1.5907953333333331,55.63,-0.0073348989733333,-0.0230655626666666,-1.573715,0.61375945,1.7871575,11.711433833333333,0.0,-39.833333333333336,-3.5,6.5,-6.5,247.3333333333333,-1083.5,10.666666666666666,328.1666666666667,1013.5899999999998,-2.8962110000000005,3611.1666666666665,-0.0073348989733333,-0.0322099033333333,-0.0230655626666666,-0.02181062,-1.573715,-0.0017079946666666,55620.0,26968.0,23150.0,23.0,5.0,-10.0,1,27_xacc_avg_constant_0
2022-12-25 08:57:59.500,299.317,0.0999999999999999,66.0,1189.0,22457.0,4895.0,98.0,1151.4,204.0,4885.0,146.16181999999998,1.985789,0.0254276666666666,-0.0542468,-1.583378333333333,55.63666666666666,0.03153184,-0.0520252399999999,-1.565988,0.7014298,1.5996616,10.6511706,0.0,-22.8,-13.2,7.4,56.6,236.2,-1045.2,4.8,329.0,1013.6076,-2.878531,3611.8,0.036665915,0.0187924499999999,-0.055055425,0.0077341199999999,-1.56495,0.021677915,55640.0,27008.0,23170.0,26.0,-12.0,-22.0,1,27_xacc_avg_constant_0
2022-12-25 08:58:00.050,299.877,0.103333333333334,66.0,1110.0,22474.0,4896.0,98.0,1174.5,205.8333333333333,4887.333333333333,146.13523333333333,2.0007580000000003,-0.0524872233333333,-0.04737438,-1.5870086666666667,55.63666666666668,-0.0461548189999999,-0.0453111166666666,-1.569313,0.6576529833333333,1.2184346666666668,11.634001166666666,0.0,29.33333333333333,-6.0,21.0,-182.0,238.66666666666663,-1059.0,-19.666666666666668,334.3333333333333,1013.6083333333332,-2.8780208333333337,3612.0,-0.0461548189999999,-0.1561478333333333,-0.0453111166666666,0.0105235743333333,-1.569313,-0.0266805433333333,55635.0,27017.0,23165.0,14.0,-33.0,-23.0,1,27_xacc_avg_constant_0
2022-12-25 08:58:00.600,300.449,0.1039999999999963,66.0,1162.0,22468.0,4893.0,98.0,1195.8,207.4,4890.0,146.10026,2.0188184,0.005113835,-0.043450895,-1.5923984999999998,55.620000000000005,0.01206724,-0.04273756,-1.574826,0.61041598,1.2843988,12.356044,0.0,0.3,-0.2,21.1,337.8,239.7,-1039.2,18.3,318.4,1013.6115,-2.8746954,3612.4,0.01206724,0.5191484,-0.04273756,0.0249050549999999,-1.574826,0.003902165,55610.0,26999.0,23140.0,6.0,-73.0,-30.0,1,27_xacc_avg_constant_0
2022-12-25 08:58:01.150,300.97300000000007,0.1040000000000076,66.0,1318.0,22457.0,4900.0,98.0,1288.0,209.6,4891.2,146.09499999999997,2.036109,0.1539135,-0.04065036,-1.580838,55.60333333333333,0.1558436,-0.0392996566666666,-1.563386333333333,0.4939748,1.41298,10.0666804,0.0,-0.6,-57.6,27.0,-20.4,234.8,-1060.8,11.2,331.0,1013.5924,-2.8938124,3613.0,0.1558436,-0.0048419533333333,-0.0392996566666666,0.00336816,-1.563386333333333,0.0222504866666666,55600.0,27047.0,23130.0,4.0,-7.0,-25.0,1,27_xacc_avg_constant_0
2022-12-25 08:58:01.700,301.5436666666667,0.103333333333334,66.0,1256.0,22441.0,4896.0,98.0,1236.6666666666667,211.5,4886.333333333333,146.08245000000002,2.052864833333333,0.0665370366666666,-0.0402435633333333,-1.5837936666666668,55.61666666666667,0.0694934933333333,-0.0368611333333333,-1.5659986666666663,0.47209825,1.5872248333333332,10.062887333333334,0.0,22.666666666666668,-38.0,28.0,-159.16666666666666,239.8333333333333,-1070.6666666666667,-12.833333333333334,328.3333333333333,1013.5988333333336,-2.8873175,3613.6666666666665,0.0694934933333333,-0.1365128166666666,-0.0368611333333333,0.043401168,-1.5659986666666663,-0.0081851766666666,55620.0,27029.0,23150.0,1.0,31.0,-20.0,1,27_xacc_avg_constant_0
2022-12-25 08:58:02.250,302.09700000000004,0.0999999999999999,66.0,1210.0,22471.0,4890.0,98.0,1177.4,213.4,4882.2,145.97369999999998,2.0720300000000003,0.007468698,-0.021615075,-1.5917845,55.63,0.013076349,-0.0185748,-1.574261,0.5136190199999999,1.24215154,10.2991626,0.0,10.8,-16.4,26.2,-109.2,248.2,-1060.0,-14.4,324.8,1013.5992,-2.886828,3614.0,0.013076349,-0.13443278,-0.0185748,-0.0403781,-1.574261,-0.005705655,55630.0,26976.0,23160.0,5.0,34.0,-20.0,1,27_xacc_avg_constant_0
2022-12-25 08:58:02.800,302.617,0.1039999999999963,66.0,1110.0,22485.0,4883.0,98.0,1175.6,215.0,4887.4,145.83028000000002,2.0905558,-0.0002484723999999,-0.0300333333333333,-1.5938893333333333,55.64000000000001,0.0069741476666666,-0.0274477833333333,-1.5762106666666666,0.65301282,0.88122024,7.1564882,0.0,-12.8,-8.8,28.6,41.4,249.4,-1065.2,-2.6,338.2,1013.611,-2.875125,3614.2,0.0069741476666666,0.0578666333333333,-0.0274477833333333,-0.02178109,-1.5762106666666666,0.0044414893,55640.0,26963.0,23170.0,10.0,16.0,-23.0,1,27_xacc_avg_constant_0
2022-12-25 08:58:03.350,303.1703333333333,0.103333333333334,66.0,1330.5,22426.5,4894.5,98.0,1262.6666666666667,216.8333333333333,4880.833333333333,145.73333333333335,2.106894333333333,0.0305051633333333,-0.0370497333333333,-1.5887993333333332,55.623333333333335,0.0362803066666666,-0.0344052866666666,-1.5714106666666667,0.4413916166666666,1.4989685833333333,9.041700833333334,0.0,5.333333333333333,-17.166666666666668,26.5,48.333333333333336,243.66666666666663,-1051.8333333333333,7.833333333333333,327.0,1013.6166666666668,-2.869218666666667,3614.8333333333335,0.0362803066666666,0.0354550056666666,-0.0344052866666666,0.0173710466666666,-1.5714106666666667,0.0090183533333333,55630.0,26989.0,23160.0,12.0,10.0,-19.0,1,27_xacc_avg_constant_0
2022-12-25 08:58:03.900,303.741,0.1039999999999963,66.0,1245.0,22439.0,4890.0,98.0,1261.4,218.8,4886.8,145.66353999999998,2.1227654,0.03367497,-0.039440685,-1.579838,55.61,0.037941235,-0.037258655,-1.562491,0.50445264,1.32049928,8.8155968,0.0,-10.3,-18.8,13.4,-11.3,246.0,-1069.6,18.6,336.6,1013.6062,-2.8801717000000004,3615.0,0.037941235,0.0122541075,-0.037258655,-0.0084421005,-1.562491,0.031186835,55610.0,27043.0,23140.0,13.0,12.0,-20.0,1,27_xacc_avg_constant_0
2022-12-25 08:58:04.450,304.261,0.0999999999999999,66.0,1223.0,22454.0,4893.0,98.0,1209.2,220.8,4893.0,145.59384,2.1380246,0.020005,-0.0426218499999999,-1.5715116666666666,55.61333333333334,0.02474413,-0.0406534433333333,-1.5546816666666663,0.50027934,1.3451366,8.421705,0.0,6.2,-3.4,34.8,-26.0,254.4,-1082.6,11.8,341.6,1013.6184,-2.8677498,3615.8,0.02474413,-0.0361899166666666,-0.0406534433333333,0.0187735766666666,-1.5546816666666663,-0.0147573466666666,55610.0,27098.0,23140.0,11.0,11.0,-20.0,1,27_xacc_avg_constant_0
2022-12-25 08:58:05.000,304.8103333333333,0.1000000000000037,66.0,1240.0,22446.0,4900.0,98.0,1202.1666666666667,222.5,4894.833333333333,145.52756666666667,2.153550333333333,0.0139713763333333,-0.03840155,-1.5803846666666663,55.60999999999999,0.0192454573333333,-0.0364287033333333,-1.5638646666666665,0.5956275833333333,0.9213799666666668,7.083243500000001,0.0,19.0,-13.666666666666666,8.166666666666666,29.83333333333333,241.0,-1071.6666666666667,-21.0,329.5,1013.644,-2.8420701666666672,3616.0,0.0192454573333333,0.04908336,-0.0364287033333333,0.0125833593333333,-1.5638646666666665,-0.0097064489999999,55620.0,27052.0,23150.0,5.0,1.0,-17.0,1,27_xacc_avg_constant_0
2022-12-25 08:58:05.550,305.361,0.0999999999999999,66.0,1212.0,22431.0,4887.0,98.0,1235.8,224.4,4891.8,145.47526000000002,2.1690948,0.041592815,-0.0262124,-1.5864785,55.585,0.046220295,-0.02450827,-1.570238,0.40423296,1.5022026,8.330442999999999,0.0,16.0,-24.8,34.4,29.8,249.0,-1045.6,-0.8,326.4,1013.648,-2.8380936,3616.4,0.046220295,0.054898945,-0.02450827,0.024479967,-1.570238,-0.0212451021,55590.0,27013.0,23120.0,5.0,-4.0,-21.0,1,27_xacc_avg_constant_0
2022-12-25 08:58:06.100,305.9103333333333,0.0999999999999942,66.0,1236.0,22445.0,4883.0,98.0,1190.8333333333333,226.3333333333333,4891.833333333333,145.42168333333333,2.183509,0.0397864466666666,-0.0223219,-1.5873316666666666,55.56666666666666,0.0434444533333333,-0.02042707,-1.571229,0.5314590666666666,1.5228441666666666,6.910673,0.0,13.5,-23.166666666666668,23.166666666666668,-35.0,241.16666666666663,-1062.8333333333333,-8.333333333333334,320.0,1013.6416666666668,-2.844505,3617.0,0.0434444533333333,0.000417547,-0.02042707,0.0406770833333333,-1.571229,0.00816598,55565.0,26995.0,23095.0,7.5,4.0,-13.0,1,27_xacc_avg_constant_0
2022-12-25 08:58:06.650,306.4732,0.1042000000000029,66.0,1125.0,22483.0,4896.0,98.0,1206.4,228.2,4892.0,145.33832,2.1972472,0.0312517133333333,-0.0184245266666666,-1.5908073333333332,55.56666666666666,0.0355468733333333,-0.0156764733333333,-1.5756663333333334,0.63882712,1.4686780000000002,10.6507596,18.8,8.8,-23.4,14.4,28.2,256.0,-1026.0,-12.4,337.2,1013.6304,-2.8557968,3617.2,0.0355468733333333,0.0237388166666666,-0.0156764733333333,0.0066903313333333,-1.5756663333333334,-0.0135378833333333,55570.0,26956.0,23100.0,19.0,9.0,-19.0,0,None
2022-12-25 08:58:07.200,307.04400000000004,0.1031666666666713,66.0,1264.0,22431.0,4901.0,98.0,1253.3333333333333,230.16666666666663,4887.166666666667,145.20616666666666,2.210407333333333,0.0357560466666666,-0.0319617933333333,-1.5909346666666666,55.56333333333333,0.0402615,-0.02995399,-1.5761226666666666,0.5966975166666666,1.0591066166666667,9.869054666666669,14.333333333333334,-25.5,-22.0,23.666666666666668,-19.33333333333333,256.1666666666667,-1073.0,4.333333333333333,327.8333333333333,1013.6215,-2.8647915000000004,3617.6666666666665,0.0402615,-0.0053168433333333,-0.02995399,-0.0348647233333333,-1.5761226666666666,-0.0086504533333333,55560.0,26975.0,23090.0,22.0,14.0,-16.0,0,None
2022-12-25 08:58:07.750,307.633,0.1079999999999926,66.0,1206.0,22437.0,4890.0,98.0,1210.0,232.0,4889.2,145.01712,2.224041,0.026320985,-0.041449565,-1.5880265,55.57,0.031509965,-0.039108525,-1.573949,0.38099236,1.4075875400000002,8.385678,22.0,-22.0,-15.8,8.0,6.0,236.4,-1038.8,14.6,321.0,1013.6336,-2.8525156,3618.0,0.031509965,-0.00128901,-0.039108525,-0.06100577,-1.573949,0.031673655,55570.0,27012.0,23100.0,20.0,14.0,-15.0,0,None
2022-12-25 08:58:08.300,308.1696,0.108000000000004,66.0,1223.0,22419.0,4888.0,98.0,1224.4,234.0,4881.8,144.83558000000002,2.236947,0.01863201,-0.05081979,-1.570803333333333,55.57333333333333,0.02420209,-0.0487906266666666,-1.5566083333333331,0.5548959,1.28848216,8.705474,11.1,-9.7,-14.3,48.5,5.4,243.5,-999.7,41.9,318.5,1013.6354,-2.8506172,3618.2,0.02420209,0.01030483,-0.0487906266666666,-0.0013649533333333,-1.5566083333333331,0.0207101403333333,55570.0,27110.0,23100.0,10.0,7.0,-17.0,0,None
2022-12-25 08:58:08.850,308.70500000000004,0.1079999999999926,66.0,1245.0,22424.0,4884.0,98.0,1244.0,235.6,4879.6,144.71058,2.2481302000000003,0.027322185,-0.04270222,-1.5679135,55.57,0.03334927,-0.040262805,-1.5540825,0.4767255,1.2841404,7.246342800000001,20.0,50.0,-12.8,20.6,67.2,254.2,-999.8,3.6,343.6,1013.6408,-2.845125,3618.6,0.03334927,0.04370021,-0.040262805,0.069223365,-1.5540825,-0.0208229385,55570.0,27082.0,23100.0,2.0,3.0,-16.0,0,None
2022-12-25 08:58:09.400,309.22119999999995,0.1040000000000076,66.0,1174.0,22459.0,4903.0,98.0,1261.2,237.6,4884.0,144.603,2.2606272,0.0445887566666666,-0.0236734766666666,-1.5773046666666666,55.56666666666666,0.0501408366666666,-0.0209494433333333,-1.5639433333333332,0.51493474,1.2312931,7.595220799999998,22.2,38.6,-26.6,2.0,7.4,251.2,-1053.0,-30.4,321.4,1013.6314,-2.8547966,3619.0,0.0501408366666666,0.0166117833333333,-0.0209494433333333,0.0386195933333333,-1.5639433333333332,-0.0234239814999999,55570.0,27017.0,23100.0,3.0,11.0,-15.0,0,None
2022-12-25 08:58:09.950,309.7414,0.1042000000000029,65.0,1247.0,22420.0,4877.0,98.0,1228.8,239.4,4891.2,144.48904,2.2732506,0.03429268,-0.02052736,-1.584031,55.57,0.0405678399999999,-0.01848235,-1.5710455,0.38415936,1.5026584,7.810769199999998,12.4,-19.2,-21.7,22.9,-19.6,249.3,-1044.3,5.2,320.5,1013.6242999999998,-2.8617656,3619.3,0.0405678399999999,-0.040539505,-0.01848235,-0.0140409138,-1.5710455,0.00543764,55570.0,26992.0,23100.0,11.0,18.0,-15.0,0,None
2022-12-25 08:58:10.500,310.2976,0.111999999999989,65.0,1226.0,22424.0,4880.0,98.0,1224.4,241.4,4890.0,144.33214,2.2864194,0.0194686033333333,-0.0291847133333333,-1.5809673333333334,55.57666666666668,0.0249711133333333,-0.02715273,-1.568287,0.4812164,1.18160818,8.0693392,14.8,-7.0,-14.8,36.6,-26.2,237.2,-1055.2,6.2,327.0,1013.6256,-2.8605936000000005,3619.8,0.0249711133333333,-0.0571567266666666,-0.02715273,-0.0151054006666666,-1.568287,0.0212060633333333,55580.0,27030.0,23110.0,13.0,17.0,-17.0,0,None
2022-12-25 08:58:11.050,310.88033333333334,0.1031666666666713,65.0,1224.0,22446.0,4883.0,98.0,1203.5,243.16666666666663,4882.333333333333,144.15374999999997,2.299325333333333,0.015941567,-0.0266560566666666,-1.58097,55.59333333333333,0.0220926533333333,-0.0241377633333333,-1.5684193333333332,0.5294444500000001,1.3546819333333333,7.750841666666666,13.0,5.666666666666667,-13.333333333333334,-2.333333333333333,39.833333333333336,241.16666666666663,-1052.6666666666667,-13.333333333333334,323.0,1013.6166666666668,-2.869361833333333,3620.0,0.0220926533333333,0.0088860513333333,-0.0241377633333333,0.0034868033333333,-1.5684193333333332,-0.02925846,55590.0,27013.0,23120.0,13.0,10.0,-21.0,0,None
2022-12-25 08:58:11.600,311.4532,0.1039999999999963,65.0,1211.0,22434.0,4883.0,98.0,1210.2,245.2,4886.2,144.00387999999998,2.3103988,0.02255783,-0.02916019,-1.587643,55.6,0.02815127,-0.0271586149999999,-1.574891,0.41528486,1.6579462,8.307558,8.7,-2.8,-23.9,19.3,-27.9,244.1,-1055.0,-8.8,333.7,1013.6126,-2.8736717999999994,3620.5,0.02815127,-0.0107664445,-0.0271586149999999,0.0120280605,-1.574891,-0.008981536,55600.0,26969.0,23130.0,14.0,10.0,-16.0,0,None
2022-12-25 08:58:12.150,311.9734,0.1040000000000076,65.0,1170.0,22455.0,4893.0,98.0,1180.0,247.0,4892.2,143.87044,2.3204268,0.0166707033333333,-0.03063254,-1.5917136666666665,55.60333333333333,0.0233201066666666,-0.0285763633333333,-1.578625333333333,0.5533983600000001,1.6924391999999997,7.3184606,9.4,-10.2,-16.8,28.0,28.4,238.8,-1002.4,-3.2,327.6,1013.603,-2.8830938,3621.0,0.0233201066666666,0.0217701666666666,-0.0285763633333333,-0.0012060333333333,-1.578625333333333,-0.0166601766666666,55600.0,26954.0,23130.0,16.0,6.0,-20.0,0,None
2022-12-25 08:58:12.700,312.54383333333334,0.103333333333334,65.0,1202.0,22434.0,4871.0,98.0,1189.6666666666667,248.8333333333333,4887.166666666667,143.75241666666668,2.3295628333333336,0.02965251,-0.0439682266666666,-1.5905486666666668,55.623333333333335,0.03523733,-0.04246817,-1.5773903333333334,0.56549055,1.461100833333333,7.362023999999999,19.5,-18.0,-25.5,21.666666666666668,5.5,232.3333333333333,-1040.8333333333333,0.0,325.1666666666667,1013.594,-2.891992333333333,3621.0,0.03523733,0.0095853066666666,-0.04246817,-0.03149652,-1.5773903333333334,0.0350460366666666,55620.0,26961.0,23150.0,15.0,4.0,-18.0,0,None
2022-12-25 08:58:13.250,313.10119999999995,0.0999999999999999,65.0,1178.0,22439.0,4890.0,98.0,1178.0,250.6,4884.2,143.64574,2.3387194,0.024942025,-0.04221162,-1.583611,55.635000000000005,0.030385515,-0.041118695,-1.5709735,0.63126946,1.09860764,9.6783462,24.2,23.6,-20.6,9.2,10.0,225.0,-1046.4,7.0,331.4,1013.5948,-2.8911718,3621.4,0.030385515,0.0072252825,-0.041118695,0.04030922,-1.5709735,-0.000170092,55630.0,26998.0,23160.0,9.0,5.0,-21.0,0,None
2022-12-25 08:58:13.800,313.6212,0.1039999999999963,65.0,1232.0,22428.0,4877.0,98.0,1230.0,252.4,4884.8,143.561,2.3478664,0.0311405566666666,-0.0365998266666666,-1.5825146666666663,55.64000000000001,0.0373525133333333,-0.03445525,-1.5713143333333333,0.50718042,1.22136034,9.3160902,11.4,-1.8,-14.0,30.8,9.0,248.0,-1069.4,8.2,318.2,1013.5888,-2.8972968,3622.0,0.0373525133333333,0.0103673756666666,-0.03445525,-0.0001168273333333,-1.5713143333333333,0.0132664666666666,55640.0,26997.0,23170.0,7.0,5.0,-23.0,0,None
2022-12-25 08:58:14.350,314.141,0.1039999999999963,65.0,1227.0,22427.0,4896.0,98.0,1178.8,254.0,4885.8,143.491,2.3565803999999995,0.02780928,-0.04199001,-1.5796640000000002,55.64,0.03376975,-0.03997707,-1.5690309999999998,0.4554112,1.7684006,8.990740800000001,19.8,-9.8,-18.8,19.4,-15.6,243.2,-1055.8,-14.6,335.8,1013.6022,-2.8838906,3622.0,0.03376975,-0.0323459799999999,-0.03997707,-0.0219597845,-1.5690309999999998,-0.024802695,55640.0,27016.0,23170.0,5.0,9.0,-20.0,0,None
2022-12-25 08:58:14.900,314.7241666666667,0.1100000000000041,65.0,1165.0,22426.5,4887.5,98.0,1160.8333333333333,256.1666666666667,4888.166666666667,143.40035,2.3690751666666667,0.02282745,-0.0341011166666666,-1.5851126666666666,55.64000000000001,0.0295662066666666,-0.0319089333333333,-1.575233,0.56536685,1.5941083333333337,6.932653166666667,11.916666666666666,28.58333333333333,-18.58333333333333,4.5,7.5,248.16666666666663,-1056.5,-16.333333333333332,333.3333333333333,1013.6060833333332,-2.879954416666666,3622.25,0.0295662066666666,-0.0069552566666666,-0.0319089333333333,0.03293358,-1.575233,0.0117639873333333,55640.0,26970.0,23170.0,2.0,9.0,-20.0,0,None
2022-12-25 08:58:15.450,315.29740000000004,0.0999999999999999,65.0,1282.0,22399.0,4901.0,98.0,1225.0,258.0,4889.0,143.33229999999998,2.3793392,0.0407700066666666,-0.0260358799999999,-1.5895316666666668,55.63333333333333,0.04714925,-0.0239881999999999,-1.5798686666666668,0.4025096999999999,1.868288,11.2752832,21.2,-4.4,-27.8,14.8,72.2,247.2,-1051.0,3.6,333.6,1013.597,-2.8892342,3623.0,0.04714925,0.0670511966666666,-0.0239881999999999,0.0277203566666666,-1.5798686666666668,-0.0058878926666666,55640.0,26950.0,23170.0,3.0,7.0,-22.0,0,None
2022-12-25 08:58:16.000,315.805,0.1039999999999963,65.0,1181.0,22398.0,4890.0,98.0,1223.4,259.6,4892.6,143.25272,2.3890936,0.045401895,-0.03745806,-1.5847275,55.63,0.051474455,-0.035259265,-1.5753405,0.4725024400000001,1.547831,9.4799912,8.2,-22.6,-26.2,34.4,-52.2,244.4,-1078.0,23.0,323.4,1013.588,-2.8980624,3623.0,0.051474455,-0.051401895,-0.035259265,-0.0279795949999999,-1.5753405,0.0010763949999999,55630.0,26966.0,23160.0,7.0,19.0,-24.0,0,None
2022-12-25 08:58:16.550,316.3252,0.1039999999999963,65.0,1175.0,22421.0,4896.0,98.0,1194.8,261.4,4890.8,143.15236,2.3986284,0.0127444423333333,-0.03651784,-1.5813033333333333,55.64000000000001,0.0196293283333333,-0.0332841633333333,-1.572431666666667,0.40482614,1.48631564,8.631968,11.4,13.4,-18.4,10.6,-43.0,240.0,-1018.0,-5.6,334.8,1013.6036,-2.8824062,3623.0,0.0196293283333333,-0.0701888666666666,-0.0332841633333333,0.0076630078666666,-1.572431666666667,-0.0017205133333333,55640.0,26987.0,23170.0,4.0,29.0,-23.0,0,None
2022-12-25 08:58:17.100,316.9071666666667,0.1068333333333365,65.0,1207.0,22396.0,4862.0,98.0,1198.1666666666667,263.1666666666667,4893.0,143.02695000000003,2.4110415,-0.003954639,-0.0301137733333333,-1.577024,55.620000000000005,0.0033181940999999,-0.0269969833333333,-1.5678763333333332,0.5536835999999999,1.5374955,7.4489405,13.083333333333334,7.0,-14.25,16.916666666666668,20.916666666666668,251.0,-1067.9166666666667,12.833333333333334,336.8333333333333,1013.6215833333334,-2.864479,3623.75,0.0033181940999999,0.032603672,-0.0269969833333333,-0.0023343566666666,-1.5678763333333332,0.0111180446666666,55620.0,27018.5,23150.0,2.0,13.5,-21.5,0,None
2022-12-25 08:58:17.650,317.4776,0.103800000000001,65.0,1214.0,22440.0,4895.0,98.0,1214.2,265.4,4896.8,142.96684,2.4204776,0.017106595,-0.02629822,-1.5771455,55.595,0.02362847,-0.0241843299999999,-1.568161,0.57327072,0.999856,8.525615599999998,8.8,1.6,-19.8,16.8,23.4,244.0,-1058.6,-9.6,332.8,1013.633,-2.8532656000000003,3624.0,0.02362847,0.05003677,-0.0241843299999999,0.01954191,-1.568161,-0.0222992955,55590.0,26996.0,23120.0,4.0,3.0,-19.0,0,None
2022-12-25 08:58:18.200,318.0436666666667,0.1000000000000037,65.0,1225.0,22380.0,4877.0,98.0,1257.3333333333333,267.1666666666667,4898.0,142.94359999999998,2.4278789999999995,0.0343446966666666,-0.0312765866666666,-1.5831763333333333,55.57333333333333,0.0406327766666666,-0.0285596366666666,-1.574789,0.44637685,1.4841581666666668,8.390469333333334,7.5,5.666666666666667,-24.0,26.83333333333333,16.166666666666668,240.0,-1067.6666666666667,-2.0,324.1666666666667,1013.6285,-2.857552,3624.0,0.0406327766666666,0.01446223,-0.0285596366666666,0.01403543,-1.574789,-0.0143222996666666,55570.0,26966.0,23100.0,5.0,10.0,-17.0,0,None
