00000_Time_epoch,00000_Time_boot_sec,00000_Span_Time_boot_sec,1_battery_remaining_avg,1_current_battery_avg,1_voltage_battery_avg,125_Vcc_avg,147_battery_remaining_avg,147_current_battery_avg,147_current_consumed_avg,165_Vcc_avg,168_direction_avg,168_speed_avg,178_pitch_avg,178_roll_avg,178_yaw_avg,182_altitude_avg,182_pitch_avg,182_roll_avg,182_yaw_avg,241_vibration_x_avg,241_vibration_y_avg,241_vibration_z_avg,27_xacc_avg,27_xgyro_avg,27_xmag_avg,27_yacc_avg,27_ygyro_avg,27_ymag_avg,27_zacc_avg,27_zgyro_avg,27_zmag_avg,29_press_abs_avg,29_press_diff_avg,29_temperature_avg,30_pitch_avg,30_pitchspeed_avg,30_roll_avg,30_rollspeed_avg,30_yaw_avg,30_yawspeed_avg,33_alt_avg,33_hdg_avg,33_relative_alt_avg,33_vx_avg,33_vy_avg,33_vz_avg,label,diagnosis
2023-01-03 15:54:11.700,209.446,0.5200000000000102,100.0,81.0,24956.0,4866.0,99.0,78.0,43.0,4877.0,-148.57,0.1968361,-0.004934005,-0.0165884,-1.240647,25.66333333333333,-0.0002199069666666,-0.0121937566666666,-1.2501313333333333,0.02358366,0.02611738,0.04264457,-18.0,1.0,76.0,2.0,4.0,258.0,-1078.0,0.0,339.0,1018.668,-0.1815625,3031.0,-0.0002199069666666,0.0043165496666666,-0.0121937566666666,0.0034631206666666,-1.2501313333333333,-0.0003706367166666,25660.0,28838.0,-120.0,5.0,10.0,-32.0,0,None
2023-01-03 15:54:12.250,209.986,0.539999999999992,100.0,68.0,24945.0,4879.0,99.0,58.0,43.0,4877.0,-149.304,0.1915959,-0.0046737,-0.016603415,-1.2401945,25.575,-8.1785955e-05,-0.012080005,-1.2499735,0.02611307,0.02643262,0.04063408,-17.0,2.0,78.0,2.0,4.0,257.0,-1082.0,0.0,339.0,1018.682,-0.1678125,3032.0,-8.1785955e-05,0.0042222175,-0.012080005,0.0025936315,-1.2499735,-0.0003476364,25570.0,28839.0,-210.0,5.0,10.0,-33.0,0,None
2023-01-03 15:54:12.800,210.506,0.5200000000000102,100.0,76.0,24953.0,4869.0,99.0,62.0,43.0,4867.0,-149.4792,0.2046466,-0.0041431483333333,-0.0167382133333333,-1.239604666666667,25.486666666666665,4.249562666666667e-05,-0.01212251,-1.249852,0.02386773,0.02720287,0.04458976,-18.0,3.0,75.0,2.0,4.0,258.0,-1079.0,0.0,339.0,1018.719,-0.1309375,3033.0,4.249562666666667e-05,0.0044325393333333,-0.01212251,0.00289241,-1.249852,-0.0003366915,25480.0,28840.0,-300.0,5.0,11.0,-34.0,0,None
2023-01-03 15:54:13.350,211.046,0.539999999999992,100.0,70.0,24929.0,4861.0,99.0,74.0,43.0,4866.0,-149.4901,0.2353999,-0.004865556,-0.016895815,-1.2386655,25.41,0.000229625,-0.01207103,-1.249284,0.02629258,0.0258607,0.03338185,-16.0,0.0,76.0,13.0,4.0,258.0,-1080.0,0.0,340.0,1018.685,-0.1642969,3034.0,0.000229625,0.000196036,-0.01207103,0.005452627,-1.249284,0.029978035,25410.0,28839.0,-370.0,5.0,12.0,-35.0,0,None
2023-01-03 15:54:13.900,211.567,0.521000000000015,100.0,129.0,24948.0,4869.0,99.0,129.0,44.0,4869.0,-149.0638,0.270889,-0.004285304,-0.01734796,-1.2389193333333333,25.363333333333333,0.000129812417,-0.0123400866666666,-1.2492886666666665,0.1420905,0.211199,0.6109938,-25.0,1.0,71.0,-9.0,3.0,255.0,-1075.0,-39.0,333.0,1018.716,-0.1332031,3035.0,0.000129812417,0.004254825,-0.0123400866666666,0.0036923656666666,-1.2492886666666665,0.0269582833333333,25360.0,28838.0,-420.0,5.0,12.0,-34.0,0,None
2023-01-03 15:54:14.450,212.067,0.5,100.0,1343.0,24442.0,4864.0,99.0,1343.0,44.0,4877.0,-148.8629,0.2969714,0.0083748497,-0.0167224949999999,-1.2403515,25.35,0.013052541,-0.0120864299999999,-1.250742,1.027504,0.7993975,1.932126,-54.0,12.0,84.0,69.0,4.0,240.0,-1173.0,29.0,308.0,1018.854,0.00390625,3036.0,0.013052541,0.106074165,-0.0120864299999999,0.032024455,-1.250742,-0.01954092,25380.0,28832.0,-400.0,0.0,14.0,9.0,0,None
2023-01-03 15:54:15.000,212.607,0.539999999999992,100.0,1647.0,24319.5,4865.5,99.0,1666.0,47.0,4856.0,-149.9327,0.3403845,0.0078885073333333,0.0012849576666666,-1.229012,25.743333333333336,0.01258273,0.0062305123333333,-1.2386966666666668,0.3635559,0.9757633,4.892049,-5.5,-23.0,63.5,-33.5,38.5,264.5,-1194.5,21.5,318.5,1018.8205,-0.0289062,3038.0,0.01258273,0.0282240766666666,0.0062305123333333,-0.0022139546666666,-1.2386966666666668,0.021400077,25820.0,28930.0,40.0,-3.0,19.0,92.0,0,None
2023-01-03 15:54:15.550,213.107,0.5,100.0,1782.0,24276.0,4869.0,99.0,1628.0,49.0,4869.0,-151.4426,0.3704463,-0.0050609689999999,-0.0237950799999999,-1.2201003333333331,26.836666666666662,-0.0016288853333333,-0.01880877,-1.2290276666666664,0.3058877,1.243715,5.731458,-20.0,118.0,63.0,-22.0,-139.0,235.0,-1251.0,-44.0,305.0,1018.497,-0.353125,3039.0,-0.0016288853333333,-0.0788616966666666,-0.01880877,-0.0074598933333333,-1.2290276666666664,-0.0259466306666666,26770.0,28960.0,990.0,-8.0,23.0,175.0,0,None
2023-01-03 15:54:16.100,213.877,0.5100000000000051,100.0,1588.0,24276.5,4869.0,99.0,1721.0,52.5,4874.0,-153.44835,0.4344671,-0.0366428508333332,0.0078719786566666,-1.2287939166666666,29.039166666666667,-0.0311338425,0.0116119298333332,-1.25449425,0.35155725,1.4165415,2.9339495,-5.0,1.5,75.5,4.0,-5.0,271.0,-1153.5,-24.0,306.5,1018.2225,-0.6272656000000001,3040.5,-0.0311338425,0.0193420774999999,0.0116119298333332,0.0150344691666667,-1.25449425,-0.0171329725,28970.0,28821.0,3190.0,-7.5,1.5,270.0,0,None
2023-01-03 15:54:16.650,214.627,0.5,100.0,1395.0,24348.0,4877.0,99.0,1516.0,56.0,4867.0,-153.5446,0.4607136,-0.016149375,0.0088786024999999,-1.2263069999999998,31.56,-0.0110600945,0.012300254,-1.2675345,0.4673274,1.420255,4.927552,3.0,-27.0,73.0,-29.0,16.0,271.0,-1092.0,3.0,283.0,1017.928,-0.9220312,3042.0,-0.0110600945,0.05187774,0.012300254,0.07122984,-1.2675345,-0.001827393,31490.0,28734.0,5710.0,1.0,-30.0,303.0,0,None
2023-01-03 15:54:17.200,215.127,0.5,100.0,807.0,24554.0,4866.0,99.0,1395.0,58.0,4866.0,-154.1118,0.4552634,0.004610094,0.0272387833333333,-1.2421066666666667,33.129999999999995,0.0109025373333333,0.0320127066666666,-1.282838,0.4246131,0.6110882,5.294696,19.0,-65.0,62.0,-21.0,162.0,273.0,-857.0,-31.0,327.0,1017.8,-1.049297,3043.0,0.0109025373333333,0.1070519269999999,0.0320127066666666,0.0443203133333333,-1.282838,-0.07036904,33110.0,28647.0,7330.0,6.0,-42.0,260.0,0,None
2023-01-03 15:54:17.750,215.628,0.5009999999999764,100.0,998.0,24452.0,4871.0,99.0,807.0,59.0,4874.0,-154.5352,0.4465163,0.0508143199999999,0.03602056,-1.2545389999999998,34.230000000000004,0.0530206349999999,0.040773475,-1.2945715,0.7132002,0.684852,2.444951,18.0,33.0,27.0,-49.0,0.0,247.0,-923.0,39.0,316.0,1017.663,-1.186562,3045.0,0.0530206349999999,-0.02555741,0.040773475,0.10518704,-1.2945715,0.007389533,34210.0,28584.0,8430.0,11.0,-36.0,147.0,0,None
2023-01-03 15:54:18.300,216.128,0.5,100.0,982.0,24440.0,4864.0,99.0,998.0,61.0,4874.0,-155.3333,0.4338647,0.05017864,0.0341244233333333,-1.2372166666666666,34.74666666666667,0.0529913866666666,0.0396342966666666,-1.276038,0.7332116,0.6172301,3.64227,24.0,26.0,44.0,-56.0,-11.0,257.0,-970.0,30.0,314.0,1017.582,-1.267812,3045.0,0.0529913866666666,-0.016959829,0.0396342966666666,-0.0042092433333333,-1.276038,0.04018099,34750.0,28681.0,8970.0,17.0,-19.0,56.0,0,None
2023-01-03 15:54:18.850,216.628,0.5,100.0,1128.0,24411.0,4877.0,99.0,982.0,62.0,4875.0,-157.5358,0.4096194,0.056892905,0.019062735,-1.229154,35.004999999999995,0.05967736,0.02450522,-1.266591,0.500872,0.8674214,2.919482,31.0,-30.0,46.0,-33.0,12.0,242.0,-1085.0,-10.0,316.0,1017.524,-1.325469,3046.0,0.05967736,0.0214309219999999,0.02450522,-0.0153562885,-1.266591,-0.034953535,35000.0,28750.0,9220.0,16.0,-8.0,15.0,0,None
2023-01-03 15:54:19.400,217.128,0.5,100.0,1102.0,24427.0,4864.0,99.0,1128.0,63.0,4877.0,-159.7756,0.3901626,0.0632746433333333,0.0208181533333333,-1.247029333333333,35.15333333333333,0.0665308766666666,0.02727068,-1.2836923333333334,0.4308136,1.078539,3.722065,27.0,6.0,45.0,-69.0,9.0,275.0,-1004.0,6.0,293.0,1017.537,-1.312578,3047.0,0.0665308766666666,-0.0096474666666666,0.02727068,0.0150195,-1.2836923333333334,-0.0179213366666666,35150.0,28642.0,9370.0,11.0,7.0,-5.0,0,None
2023-01-03 15:54:19.950,217.628,0.5,100.0,1132.0,24386.0,4882.0,99.0,1102.0,65.0,4880.0,-165.0895,0.3583537,0.058224025,0.015145755,-1.255074,35.239999999999995,0.06250986,0.022585655,-1.2908655,0.3822393,1.345508,7.477163,3.0,25.0,34.0,-36.0,-19.0,250.0,-1005.0,-51.0,301.0,1017.497,-1.352266,3049.0,0.06250986,-0.0067184705,0.022585655,-0.004273865,-1.2908655,0.009966909,35230.0,28603.0,9450.0,7.0,25.0,-14.0,0,None
2023-01-03 15:54:20.500,218.128,0.5,100.0,1116.0,24420.0,4864.0,99.0,1132.0,67.0,4877.0,-170.86,0.3392278,0.04561596,0.02058138,-1.26992,35.303333333333335,0.0502638166666666,0.0274054466666666,-1.3043766666666663,0.4314328,1.46074,6.160034,15.0,64.0,53.0,-57.0,23.0,285.0,-1016.0,-23.0,342.0,1017.498,-1.351719,3050.0,0.0502638166666666,-0.013902877,0.0274054466666666,0.0507132066666666,-1.3043766666666663,-0.04301504,35300.0,28523.0,9520.0,0.0,35.0,-20.0,0,None
2023-01-03 15:54:21.050,218.628,0.5,100.0,1058.0,24445.0,4874.0,99.0,1116.0,68.0,4877.0,177.2028,0.3205926,0.033346255,0.03754015,-1.2760965,35.33,0.03894852,0.043528515,-1.3095955,0.4256773,1.021388,7.333446,23.0,-47.0,47.0,-51.0,-93.0,280.0,-955.0,26.0,327.0,1017.495,-1.354687,3051.0,0.03894852,-0.0460068099999999,0.043528515,0.03055182,-1.3095955,0.0080874275,35320.0,28495.0,9540.0,0.0,42.0,-27.0,0,None
2023-01-03 15:54:21.600,219.408,0.5200000000000102,100.0,944.5,24398.0,4793.0,99.0,997.5,70.5,4875.0,158.24965,0.31850135,0.0149765864999999,0.0426285624999999,-1.2787079166666666,35.35083333333334,0.019683199,0.0486682183333333,-1.3097340833333333,0.52077855,0.8993660000000001,6.5922465,23.0,-120.0,49.5,-50.0,50.5,268.0,-1043.5,29.0,301.5,1017.4755,-1.3742575,3052.5,0.019683199,0.0151719753333333,0.0486682183333333,-0.0063321549999999,-1.3097340833333333,0.0102790586666667,35345.0,28494.5,9565.0,18.5,32.5,-31.0,0,None
2023-01-03 15:54:22.150,220.188,0.5199999999999818,100.0,1032.0,24415.0,4869.0,99.0,1219.0,73.0,4883.0,140.714,0.337713,0.0424606333333333,-0.0114445346666666,-1.2601143333333331,35.32,0.04607406,-0.0044163056666666,-1.288467,0.5324473,0.7066998,4.177388,17.0,-98.0,43.0,-73.0,40.0,257.0,-1019.0,60.0,326.0,1017.48,-1.369609,3054.0,0.04607406,-0.0277945766666666,-0.0044163056666666,-0.0223406666666666,-1.288467,0.0279677776666666,35320.0,28593.0,9540.0,22.0,25.0,-35.0,0,None
2023-01-03 15:54:22.700,220.688,0.5,100.0,1123.0,24373.0,4869.0,99.0,1136.0,74.0,4875.0,133.4975,0.3578275,0.0506983649999999,-0.002363304,-1.2444465,35.305,0.05463318,0.004667311,-1.2721325,0.2911997,0.9950918,4.205753,8.0,113.0,63.0,-71.0,-2.0,244.0,-1036.0,33.0,333.0,1017.504,-1.346016,3055.0,0.05463318,-0.0020630099999999,0.004667311,0.090545845,-1.2721325,0.0209882715,35310.0,28709.0,9530.0,3.0,35.0,-37.0,0,None
2023-01-03 15:54:23.250,221.188,0.5,100.0,1101.0,24393.0,4864.0,99.0,1087.0,76.0,4877.0,125.2612,0.3976872,0.016610665,0.005460212,-1.241168,35.28,0.0203455335333333,0.012303596,-1.268927,0.3365571,1.564315,3.091407,0.0,55.0,69.0,-75.0,-90.0,247.0,-1093.0,-1.0,332.0,1017.485,-1.364219,3056.0,0.0203455335333333,-0.0922675840333333,0.012303596,0.0087071466666666,-1.268927,-0.0177693786666666,35280.0,28741.0,9500.0,-8.0,43.0,-34.0,0,None
2023-01-03 15:54:23.800,221.688,0.5,100.0,1060.0,24258.0,4880.0,99.0,1093.0,77.0,4869.0,120.9937,0.4224921,-0.0069154444999999,0.012576995,-1.2536695,35.28,-0.0019130384,0.0181040999999999,-1.280668,0.452775,1.362713,3.170504,12.0,28.0,59.0,-22.0,-20.0,281.0,-1116.0,-49.0,308.0,1017.485,-1.364531,3057.0,-0.0019130384,-0.0327449999999999,0.0181040999999999,0.01693819845,-1.280668,-0.03697296,35280.0,28666.0,9500.0,-11.0,33.0,-32.0,0,None
2023-01-03 15:54:24.350,222.188,0.5,100.0,1131.0,24356.0,4871.0,99.0,1057.0,79.0,4883.0,115.6487,0.4550861,-0.0177788946666666,0.0187662833333333,-1.2763743333333333,35.26,-0.0126122356666666,0.02449307,-1.3019736666666668,0.3733188,1.015238,5.315903,1.0,86.0,54.0,-67.0,-292.0,254.0,-1193.0,-39.0,321.0,1017.518,-1.332109,3058.0,-0.0126122356666666,-0.1312829833333333,0.02449307,0.0139124376666666,-1.3019736666666668,-0.04773776,35270.0,28548.0,9490.0,-9.0,25.0,-34.0,0,None
2023-01-03 15:54:24.900,222.688,0.5,100.0,1240.0,24313.0,4869.0,99.0,1060.0,80.0,4871.0,112.6041,0.4747578,-0.1449856,0.045778325,-1.293756,35.224999999999994,-0.13781385,0.0512658,-1.318907,0.4306628,1.062607,6.980032,-8.0,39.0,99.0,-30.0,-117.0,251.0,-1082.0,-6.0,286.0,1017.498,-1.35125,3059.0,-0.13781385,-0.198472025,0.0512658,0.08379621,-1.318907,0.0094099865,35240.0,28438.0,9460.0,7.0,-11.0,-28.0,0,None
2023-01-03 15:54:25.450,223.188,0.5,100.0,1552.0,24217.0,4871.0,99.0,1391.0,82.0,4856.0,108.6476,0.5083477,-0.1861701,0.0259406767666666,-1.2778786666666668,35.29666666666666,-0.178234,0.030426545,-1.3019436666666666,0.4031679,1.477797,10.77996,-15.0,-104.0,107.0,19.0,149.0,232.0,-1249.0,44.0,260.0,1017.499,-1.350859,3060.0,-0.178234,0.0149315233333333,0.030426545,-0.0990373633333333,-1.3019436666666666,0.04674221,35280.0,28537.0,9500.0,52.0,-102.0,5.0,0,None
2023-01-03 15:54:26.000,223.688,0.5,100.0,1399.0,24245.0,4869.0,99.0,1519.0,84.0,4871.0,106.1838,0.5350388,-0.13797185,-0.030638475,-1.2586780000000002,35.65,-0.1311713,-0.0247055949999999,-1.281247,0.2608496,2.014252,5.975095,-24.0,-39.0,83.0,-85.0,135.0,245.0,-1122.0,5.0,296.0,1017.455,-1.395156,3061.0,-0.1311713,0.1452265,-0.0247055949999999,-0.119627055,-1.281247,0.0065853349999999,35630.0,28661.0,9850.0,77.0,-203.0,71.0,0,None
2023-01-03 15:54:26.550,224.188,0.5,100.0,1181.0,24191.0,4735.0,99.0,1354.0,86.0,4700.0,103.0673,0.574477,-0.1051192666666666,-0.0372492733333333,-1.252554,36.26666666666667,-0.1023350266666666,-0.0307854033333333,-1.274190333333333,0.3892281,1.525185,3.859399,-27.0,62.0,97.0,-45.0,-48.0,243.0,-1076.0,-35.0,313.0,1017.401,-1.448203,3062.0,-0.1023350266666666,-0.0225345333333333,-0.0307854033333333,0.0324542566666666,-1.274190333333333,0.003150266,36250.0,28700.0,10470.0,72.0,-267.0,101.0,0,None
2023-01-03 15:54:27.100,224.708,0.5200000000000102,100.0,1247.0,24275.0,4871.0,99.0,1237.0,87.0,4883.0,101.3234,0.6005032,-0.1333049,-0.0187852599999999,-1.257134,36.88,-0.129847,-0.01304462,-1.2782695,0.4604948,1.118823,3.177243,-3.0,-10.0,111.0,-22.0,-60.0,261.0,-1073.0,11.0,323.0,1017.329,-1.520703,3063.0,-0.129847,-0.0585373,-0.01304462,0.014829288,-1.2782695,-0.024994426,36860.0,28681.0,11080.0,71.0,-323.0,96.0,0,None
2023-01-03 15:54:27.650,225.208,0.5,100.0,1590.0,24145.0,4864.0,99.0,1318.0,89.0,4871.0,98.96352,0.6376104,-0.1407960333333333,-0.0266743966666666,-1.261557,37.54333333333334,-0.1379193333333333,-0.0201611833333333,-1.2824743333333333,0.5467922,0.9305453,2.842053,-32.0,-5.0,93.0,-40.0,39.0,263.0,-1172.0,28.0,310.0,1017.256,-1.593359,3064.0,-0.1379193333333333,0.0296178733333333,-0.0201611833333333,-0.01594052,-1.2824743333333333,0.0148328579999999,37500.0,28648.0,11720.0,79.0,-392.0,112.0,0,None
2023-01-03 15:54:28.200,225.978,0.5100000000000051,100.0,1318.0,24186.0,4872.5,99.0,1466.5,92.0,4882.0,96.621545,0.68075705,-0.1163825283333332,-0.0162388383333333,-1.2633754166666669,38.825833333333335,-0.1133775266666666,-0.009305903,-1.2836340833333333,0.3466284,1.3513295,5.1216055,-30.5,-17.5,100.5,-42.5,30.0,255.5,-1090.0,-13.0,290.0,1017.065,-1.7847265,3065.5,-0.1133775266666666,0.0314022451666666,-0.009305903,0.0128257016666667,-1.2836340833333333,0.0016635087499999,38795.0,28647.5,13015.0,89.0,-483.0,157.0,0,None
2023-01-03 15:54:28.750,226.748,0.5199999999999818,100.0,1257.0,24246.0,4729.0,99.0,1254.0,95.0,4743.0,94.09731,0.7342404,-0.09962786,-0.03703935,-1.263781,40.24,-0.097981955,-0.029447695,-1.2847035,0.4131789,0.8926108,5.255795,-27.0,-34.0,91.0,2.0,-11.0,233.0,-1073.0,29.0,307.0,1016.9,-1.949375,3067.0,-0.097981955,0.00922806,-0.029447695,-0.03813904,-1.2847035,0.0065686117,40190.0,28632.0,14410.0,92.0,-549.0,161.0,0,None
2023-01-03 15:54:29.300,227.308,0.5600000000000023,100.0,1270.0,24202.0,4877.0,99.0,1234.0,97.0,4875.0,93.13377,0.7574165,-0.0975319366666666,-0.015254332,-1.2524496666666665,41.21,-0.0956352333333333,-0.0068925333333333,-1.2733653333333332,0.4318133,1.504517,5.609571,-23.0,129.0,98.0,-3.0,28.0,248.0,-1041.0,23.0,292.0,1016.781,-2.068437,3068.0,-0.0956352333333333,0.00930068,-0.0068925333333333,0.0935816866666666,-1.2733653333333332,0.0112462573333333,41140.0,28708.0,15360.0,84.0,-592.0,159.0,0,None
2023-01-03 15:54:29.850,227.828,0.5200000000000102,100.0,1252.0,24256.0,4877.0,99.0,1242.0,99.0,4732.0,91.81252,0.7933457,-0.08784468,0.010369459,-1.2546309999999998,42.17,-0.085585065,0.0186466949999999,-1.2758155,0.337745,1.268065,4.785817,-51.0,-76.0,94.0,-15.0,47.0,252.0,-1146.0,-67.0,322.0,1016.65,-2.199687,3069.0,-0.085585065,0.018925584,0.0186466949999999,0.060076215,-1.2758155,-0.045906475,42120.0,28702.0,16340.0,92.0,-629.0,155.0,0,None
2023-01-03 15:54:30.400,228.368,0.539999999999992,100.0,1102.0,24137.0,4872.0,99.0,1234.0,101.0,4869.0,90.63234,0.8314624,-0.0689502833333333,0.0243628833333333,-1.2677203333333331,43.13,-0.0667805533333333,0.0314423466666666,-1.289059,0.4070362,1.518241,6.510587,-53.0,-48.0,82.0,-12.0,-33.0,250.0,-1055.0,-49.0,280.0,1016.56,-2.290078,3070.0,-0.0667805533333333,0.01450863,0.0314423466666666,0.0456436133333333,-1.289059,-0.0027260436666666,43070.0,28610.0,17290.0,102.0,-654.0,161.0,0,None
2023-01-03 15:54:30.950,228.888,0.5200000000000102,100.0,1124.0,24245.0,4867.0,99.0,1196.0,103.0,4874.0,89.84248,0.858304,-0.0562461499999999,0.02666511,-1.2604415,44.09,-0.055227595,0.035821585,-1.2814895,0.5525802,0.8049761,5.866083,-50.0,-17.0,95.0,1.0,-24.0,270.0,-1087.0,7.0,307.0,1016.481,-2.368672,3071.0,-0.055227595,-0.002923385,0.035821585,0.012921835,-1.2814895,-0.004896579,44030.0,28665.0,18250.0,116.0,-662.0,157.0,0,None
2023-01-03 15:54:31.500,229.408,0.5199999999999818,100.0,1155.0,24253.0,4724.0,99.0,1226.0,104.0,4877.0,88.73721,0.9008902,-0.0775921466666666,0.0252378433333333,-1.2678376666666666,45.02333333333333,-0.0758302966666666,0.0346518699999999,-1.2892623333333333,0.5153562,0.9982168,6.924879,-53.0,26.0,87.0,10.0,-73.0,256.0,-1177.0,-17.0,296.0,1016.378,-2.471797,3072.0,-0.0758302966666666,-0.0737687766666666,0.0346518699999999,0.0128342133333333,-1.2892623333333333,-0.0199074842566666,44930.0,28619.0,19150.0,130.0,-667.0,155.0,0,None
2023-01-03 15:54:32.050,229.948,0.5400000000000205,100.0,1341.0,24219.0,4861.0,99.0,1309.0,106.0,4845.0,87.78255,0.9465374,-0.08952171,0.0049294275,-1.277356,45.95,-0.08643279,0.0137770049999999,-1.2984425,0.4757563,0.940405,6.141748,-53.0,-62.0,104.0,8.0,-39.0,235.0,-1142.0,-26.0,258.0,1016.244,-2.605391,3073.0,-0.08643279,0.026557745,0.0137770049999999,-0.03967756,-1.2984425,-0.0072878355,45840.0,28561.0,20060.0,142.0,-690.0,154.0,0,None
2023-01-03 15:54:32.600,230.468,0.5199999999999818,100.0,1256.0,24222.0,4871.0,99.0,1325.0,108.0,4877.0,87.22826,0.9781588,-0.0648801633333333,-0.0105061336666666,-1.2828596666666667,46.91666666666666,-0.06128074,-0.0007007260299999,-1.303832,0.4676321,1.057848,4.05371,-39.0,-19.0,80.0,0.0,-63.0,231.0,-1170.0,-39.0,292.0,1016.126,-2.723672,3074.0,-0.06128074,0.07720729,-0.0007007260299999,0.0192367866666666,-1.303832,0.0054501833333333,46820.0,28520.0,21040.0,145.0,-716.0,159.0,0,None
2023-01-03 15:54:33.150,230.988,0.5200000000000102,100.0,1284.0,24103.0,4732.0,99.0,1212.0,110.0,4871.0,86.55454,1.027476,-0.046178185,0.0007216567,-1.270443,47.895,-0.043613235,0.0097684755,-1.291114,0.50084,1.193051,6.605588,-63.0,129.0,73.0,-74.0,48.0,261.0,-1025.0,37.0,329.0,1016.023,-2.826797,3076.0,-0.043613235,0.0511097749999999,0.0097684755,0.069309665,-1.291114,0.046686555,47800.0,28600.0,22020.0,137.0,-730.0,161.0,0,None
2023-01-03 15:54:33.700,231.508,0.5200000000000102,100.0,1325.0,24204.0,4869.0,99.0,1284.0,112.0,4864.0,86.20268,1.063153,-0.02513459,0.011993114,-1.2623723333333332,48.89666666666667,-0.0230374933333333,0.0211175866666666,-1.2829106666666668,0.4444523,1.169388,5.471496,-47.0,88.0,82.0,-28.0,-5.0,263.0,-1094.0,-8.0,290.0,1015.893,-2.956953,3076.0,-0.0230374933333333,0.01842239,0.0211175866666666,0.00724051,-1.2829106666666668,-0.0082464236666666,48800.0,28646.0,23020.0,138.0,-732.0,157.0,0,None
2023-01-03 15:54:34.250,232.028,0.5199999999999818,100.0,1263.0,24200.0,4869.0,99.0,1264.0,114.0,4867.0,85.90647,1.124332,-0.01754358,0.01583616,-1.2646075,49.900000000000006,-0.014557315,0.02363076,-1.284443,0.4011255,1.073509,5.387326,-46.0,-2.0,69.0,-46.0,66.0,236.0,-1121.0,-50.0,280.0,1015.748,-3.10125,3077.0,-0.014557315,0.054587585,0.02363076,0.01245048,-1.284443,-0.006608317,49780.0,28645.0,24000.0,142.0,-730.0,155.0,0,None
2023-01-03 15:54:34.800,232.568,0.5400000000000205,100.0,1308.0,24171.0,4874.0,99.0,1231.0,115.0,4867.0,85.85632,1.196457,0.0018193736666666,0.0038533255666666,-1.26755,50.89666666666667,0.0041378773333333,0.0123858126666666,-1.287167,0.3910931,1.223885,3.927154,-56.0,-83.0,73.0,-16.0,50.0,235.0,-1142.0,-48.0,278.0,1015.674,-3.176094,3078.0,0.0041378773333333,0.0355754395,0.0123858126666666,-0.024553533,-1.287167,0.0105677116666666,50820.0,28617.0,25040.0,147.0,-723.0,152.0,0,None
2023-01-03 15:54:35.350,233.088,0.5199999999999818,100.0,1149.0,24247.0,4871.0,99.0,1149.0,117.0,4874.0,85.94859,1.25011,0.049239755,-0.0022430525,-1.2645735,51.78,0.0509001399999999,0.0063490484999999,-1.2841870000000002,0.5863338,0.9280274,2.954505,-45.5,-25.0,47.0,4.0,111.5,230.0,-1008.5,-13.0,308.0,1015.5185,-3.331172,3079.5,0.0509001399999999,0.1306638,0.0063490484999999,0.01445846,-1.2841870000000002,-0.0025352375,51700.0,28643.0,25920.0,141.0,-708.0,120.0,0,None
2023-01-03 15:54:35.900,233.609,0.521000000000015,100.0,1033.0,24181.0,4867.0,99.0,1033.0,119.0,4871.0,86.16447,1.332195,0.1160091666666666,-0.0007467083999999,-1.2706776666666666,52.29666666666666,0.1178364866666666,0.0068898573333333,-1.289588,0.5791818,0.9895403,2.888047,-22.0,32.0,22.0,30.0,58.0,262.0,-1036.0,-24.0,338.0,1015.405,-3.444844,3080.0,0.1178364866666666,0.1149907666666666,0.0068898573333333,0.0099269296666666,-1.289588,-0.0157486625,52270.0,28622.0,26490.0,124.0,-668.0,58.0,0,None
2023-01-03 15:54:36.450,234.168,0.5589999999999975,100.0,1202.5,24225.5,4871.5,99.0,1154.0,120.0,4874.0,86.35379,1.41142,0.1485261999999999,0.0144497616666666,-1.2803056666666668,52.72,0.1502605,0.0219872799999999,-1.2982236666666669,0.3679025,1.193779,3.737275,-20.0,59.0,7.0,7.0,-12.0,254.0,-1080.0,0.0,307.0,1015.392,-3.457969,3082.0,0.1502605,-0.0077287833333333,0.0219872799999999,0.0437416166666666,-1.2982236666666669,-0.0089291466666666,52610.0,28557.0,26830.0,102.0,-595.0,40.0,0,None
2023-01-03 15:54:37.000,234.649,0.4809999999999945,100.0,1270.0,24220.0,4879.0,99.0,1262.0,123.0,4885.0,86.45274,1.462269,0.1375968,0.042287165,-1.2811245,53.035,0.13967715,0.048814015,-1.2977880000000002,0.3423198,0.9180718,5.458878,-17.0,27.0,6.0,-14.0,-37.0,258.0,-1097.0,-31.0,304.0,1015.33,-3.519297,3083.0,0.13967715,-0.03674901,0.048814015,0.07869215,-1.2977880000000002,-0.0104763475,52930.0,28568.0,27150.0,84.0,-518.0,39.0,0,None
2023-01-03 15:54:37.550,235.149,0.5,100.0,1353.0,24215.0,4883.0,99.0,1266.0,124.0,4887.0,86.55273,1.536474,0.1174463666666666,0.04917973,-1.2859166666666668,53.36333333333334,0.1213365,0.05503859,-1.3007003333333331,0.5468854,1.042358,1.644604,-5.0,-13.0,23.0,-57.0,-25.0,271.0,-1079.0,22.0,301.0,1015.308,-3.541484,3083.0,0.1213365,-0.0211463483333333,0.05503859,0.0036390166666666,-1.3007003333333331,-0.0091287966666666,53250.0,28540.0,27470.0,81.0,-448.0,40.0,0,None
2023-01-03 15:54:38.100,235.899,0.5,100.0,1313.5,24176.5,4806.5,99.0,1280.0,127.0,4876.0,86.618955,1.621474,0.1367459166666666,0.0377175966666666,-1.2750996666666667,53.8775,0.1426538416666666,0.0443099408333332,-1.2874641666666666,0.3959772,0.95947195,3.407713,-7.0,1.5,14.5,-14.0,48.5,272.5,-1093.5,2.0,313.5,1015.2375,-3.6121485,3085.5,0.1426538416666666,0.0574918649999999,0.0443099408333332,-0.0046953211666666,-1.2874641666666666,0.01224048175,53760.0,28606.0,27980.0,84.5,-357.5,44.0,0,None
2023-01-03 15:54:38.650,236.649,0.5,100.0,1357.0,24237.0,4887.0,99.0,1319.0,130.0,4885.0,86.66286,1.704676,0.16779905,0.034914675,-1.2714395,54.43,0.1729509,0.041712645,-1.2824795,0.3556232,0.995548,4.551202,22.0,22.0,0.0,-12.0,2.0,252.0,-1075.0,9.0,286.0,1015.179,-3.670469,3087.0,0.1729509,0.013189135,0.041712645,0.037779655,-1.2824795,-0.0137673075,54320.0,28658.0,28540.0,74.0,-264.0,41.0,0,None
2023-01-03 15:54:39.200,237.149,0.5,100.0,1178.0,24115.0,4888.0,99.0,1308.0,132.0,4890.0,86.7096,1.774924,0.1749596666666666,0.03845192,-1.2739526666666663,54.78,0.1800286666666666,0.04465008,-1.284738333333333,0.2516811,1.006478,3.451844,50.0,10.0,-8.0,55.0,70.0,262.0,-1201.0,11.0,305.0,1015.107,-3.742656,3087.0,0.1800286666666666,0.0462738,0.04465008,0.0031434633333333,-1.284738333333333,0.01012015,54660.0,28643.0,28880.0,67.0,-197.0,39.0,0,None
2023-01-03 15:54:39.750,237.649,0.5,100.0,1445.0,24175.0,4890.0,99.0,1187.0,133.0,4887.0,86.77344,1.822275,0.20594435,0.007397074,-1.2648915,55.14,0.2116653,0.0125261904499999,-1.275328,0.4007559,1.551086,7.605151,56.0,7.0,4.0,18.0,53.0,262.0,-1082.0,-24.0,317.0,1015.031,-3.818203,3088.0,0.2116653,0.09417613,0.0125261904499999,-0.06700338,-1.275328,0.0057445156,55020.0,28672.0,29240.0,71.0,-134.0,37.0,0,None
2023-01-03 15:54:40.300,238.149,0.5,100.0,1303.0,24212.0,4888.0,99.0,1373.0,135.0,4887.0,86.94097,1.893397,0.2296212,-0.0128324363333333,-1.263499,55.50666666666667,0.2349100333333333,-0.0064976004,-1.27325,0.3875528,1.396102,10.38936,49.0,88.0,-16.0,-38.0,-38.0,215.0,-1096.0,-27.0,287.0,1014.975,-3.875,3089.0,0.2349100333333333,0.0112289933333333,-0.0064976004,-0.0059611699999999,-1.27325,0.0110075533333333,55380.0,28685.0,29600.0,48.0,-64.0,33.0,0,None
2023-01-03 15:54:40.850,238.649,0.5,100.0,1208.0,24228.0,4883.0,99.0,1324.0,137.0,4883.0,87.12888,1.942013,0.1762413,0.0172100645,-1.2657175,55.875,0.18340485,0.02267924,-1.2762455,0.5088618,1.561801,4.364777,76.0,-22.0,18.0,-28.0,-62.0,269.0,-1120.0,-12.0,336.0,1014.988,-3.861797,3090.0,0.18340485,-0.1321156,0.02267924,0.11534583,-1.2762455,-0.0122332475,55750.0,28711.0,29970.0,6.0,4.0,37.0,0,None
2023-01-03 15:54:41.400,239.15,0.5010000000000048,100.0,1063.0,24259.0,4885.0,99.0,941.0,139.0,4883.0,87.48711,2.017891,0.1090950433333333,0.0296689933333333,-1.2702403333333334,56.24,0.1177504033333333,0.0332221033333333,-1.2822639999999998,0.632959,1.218843,7.15914,43.0,5.0,25.0,-25.0,-132.0,260.0,-1064.0,1.0,277.0,1014.94,-3.909219,3091.0,0.1177504033333333,-0.1098615333333333,0.0332221033333333,0.0323366966666666,-1.2822639999999998,-0.0280993433333333,56130.0,28667.0,30350.0,-5.0,42.0,32.0,0,None
2023-01-03 15:54:41.950,239.65,0.5,100.0,734.0,24248.0,4890.0,99.0,1022.0,140.0,4883.0,87.72606,2.070544,0.073767265,0.026275305,-1.2749674999999998,56.57,0.083693255,0.028865645,-1.2873685,0.6609138,0.9672084,7.744627,53.0,-21.0,38.0,33.0,-27.0,270.0,-1193.0,-20.0,326.0,1014.94,-3.909297,3092.0,0.083693255,0.0192824099999999,0.028865645,-0.0240088305,-1.2873685,-0.036848015,56470.0,28640.0,30690.0,-3.0,55.0,32.0,0,None
2023-01-03 15:54:42.500,240.37,0.1839999999999975,100.0,711.0,24376.0,4885.0,99.0,813.0,142.2,4880.2,88.1565,2.169236,0.0694075655555555,0.0136121544444444,-1.2866023333333334,56.785555555555554,0.0776855777777777,0.0161401122222222,-1.2993504444444444,1.1050507,1.2979252,9.7570736,63.2,6.8,38.2,-40.0,-1401.1,261.2,-935.8,-19.0,332.8,1014.9156,-3.934125,3093.2,0.0776855777777777,0.0506543479999999,0.0161401122222222,-0.0003931126495555,-1.2993504444444444,-0.0087666203333333,56770.0,28577.5,30990.0,-1.0,51.0,-3.5,1,27_ygyro_avg_abrupt_-1409.1
2023-01-03 15:54:43.050,240.87,0.0999999999999999,100.0,865.0,24349.0,4883.0,99.0,889.4,143.6,4847.4,88.418688,2.2281284,0.051033675,0.011654635,-1.2948745000000002,56.705,0.0588724999999999,0.01379222,-1.308466,1.04849098,1.3242834,9.160532,46.8,3.4,37.2,-16.4,-1437.8999999999999,253.6,-1106.2,-17.6,325.0,1014.9328000000002,-3.9166720000000006,3094.2,0.0588724999999999,-0.01454837,0.01379222,-0.02328169,-1.308466,0.0111376225,56710.0,28498.0,30930.0,0.0,49.0,-34.0,1,27_ygyro_avg_abrupt_-1409.1
2023-01-03 15:54:43.600,241.3702,0.1002000000000009,100.0,862.0,24362.0,4885.0,99.0,946.2,144.8,4875.4,88.68917400000001,2.2861744,0.0542690166666666,0.0102296303333333,-1.2938103333333333,56.623333333333335,0.0618962833333333,0.0119934439999999,-1.3075656666666668,0.99833822,1.3270308,10.505486,54.4,-14.2,41.2,-7.2,-1412.5,259.4,-1133.4,17.4,317.0,1014.9262,-3.9234528,3095.0,0.0618962833333333,-0.0111249933333333,0.0119934439999999,0.00327827,-1.3075656666666668,0.0173402866666666,56630.0,28497.0,30850.0,3.0,44.0,-38.0,1,27_ygyro_avg_abrupt_-1409.1
2023-01-03 15:54:44.150,241.9535,0.1065000000000016,100.0,880.0,24309.0,4794.5,99.0,981.3333333333334,146.5,4829.333333333333,88.93951499999999,2.339885333333333,0.0698880833333333,-0.00409219,-1.2739713333333331,56.54666666666666,0.07681913,-0.0018081056666666,-1.2879366666666667,0.8828984333333333,1.3583973333333337,8.779446333333333,46.91666666666666,-49.41666666666666,44.583333333333336,1.0833333333333333,-1361.0166666666667,259.1666666666667,-1074.0833333333333,23.5,336.5,1014.9325,-3.917259,3096.1666666666665,0.07681913,-0.0095288799999999,-0.0018081056666666,-0.02136959,-1.2879366666666667,0.04665272,56560.0,28586.0,30780.0,6.0,39.0,-30.0,1,27_ygyro_avg_abrupt_-1409.1
2023-01-03 15:54:44.700,242.5182,0.1039999999999962,100.0,737.0,24414.0,4882.0,99.0,913.4,147.8,4878.4,89.186104,2.3920838,0.07743897,-0.021927555,-1.268873,56.54,0.083028605,-0.017690255,-1.283163,0.8034688000000001,1.4362444,12.4436414,69.8,26.6,44.4,-7.8,-1409.6999999999998,249.6,-1084.4,0.0,337.4,1014.8854,-3.9642188,3097.2,0.083028605,-0.0138893949999999,-0.017690255,0.0241410949999999,-1.283163,0.010317,56540.0,28647.0,30760.0,0.0,37.0,-21.0,1,27_ygyro_avg_abrupt_-1409.1
2023-01-03 15:54:45.250,243.054,0.108000000000004,100.0,1218.0,24235.0,4871.0,99.0,917.4,149.4,4877.4,89.44103400000002,2.439471,0.0600240033333333,0.0038136119999999,-1.2801806666666666,56.59333333333333,0.0660644466666666,0.0069509536666666,-1.2956766666666668,0.89401358,1.241286,9.5835144,46.8,61.2,47.8,-50.8,-1442.8999999999999,250.8,-1039.4,-29.0,321.0,1014.868,-3.9815624,3098.2,0.0660644466666666,-0.0474638633333333,0.0069509536666666,0.0135614166666666,-1.2956766666666668,-0.023026454,56570.0,28588.0,30790.0,-17.0,32.0,-16.0,1,27_ygyro_avg_abrupt_-1409.1
2023-01-03 15:54:45.800,243.5822,0.1079999999999983,100.0,602.0,24448.0,4877.0,99.0,801.0,150.4,4876.0,89.690934,2.480982,0.049375125,0.03109625,-1.29397,56.64,0.055231655,0.033113735,-1.310317,0.91999514,1.22291176,10.167906,54.8,22.7,42.2,-14.4,-1412.3999999999999,272.4,-1090.1,-6.2,307.1,1014.9016,-3.9481249,3099.2,0.055231655,0.023051835,0.033113735,-0.0022754949999999,-1.310317,-0.019244865,56630.0,28500.0,30850.0,-22.0,25.0,-31.0,1,27_ygyro_avg_abrupt_-1409.1
2023-01-03 15:54:46.350,244.102,0.0999999999999999,100.0,1074.0,24288.0,4877.0,99.0,992.0,151.8,4874.4,89.89131,2.519977,0.0473094833333333,0.02090313,-1.286879,56.63666666666666,0.0537816533333333,0.0233352033333333,-1.3029106666666666,0.7709804200000001,1.14301,8.5559126,50.8,-15.2,46.8,-56.4,-1398.1,264.8,-1116.0,16.8,320.2,1014.872,-3.977578,3100.2,0.0537816533333333,0.027050631,0.0233352033333333,-0.0138033546666666,-1.3029106666666666,0.0017287819999999,56640.0,28505.0,30860.0,-8.0,17.0,-32.0,1,27_ygyro_avg_abrupt_-1409.1
2023-01-03 15:54:46.900,244.6705,0.1035000000000015,100.0,918.0,24199.0,4883.0,99.0,835.3333333333334,153.16666666666666,4853.833333333333,90.04096166666666,2.561154166666667,0.05607912,0.0182143266666666,-1.2855656666666666,56.653333333333336,0.0625020033333333,0.02182533,-1.3013756666666667,0.8339348666666667,1.1411065,9.473869166666669,62.16666666666666,9.0,43.16666666666666,-36.16666666666666,-1390.9333333333332,263.6666666666667,-981.6666666666666,-3.8333333333333335,315.6666666666667,1014.8571666666666,-3.9924218333333337,3101.0,0.0625020033333333,0.0115660933333333,0.02182533,0.0173526193333333,-1.3013756666666667,-0.0062695413333333,56645.0,28549.5,30865.0,-4.0,1.5,-34.0,1,27_ygyro_avg_abrupt_-1409.1
2023-01-03 15:54:47.450,245.2464,0.1039999999999963,100.0,840.0,24373.0,4877.0,99.0,920.2,154.6,4873.6,90.1428,2.5985776,0.061208525,0.0171814,-1.2841455,56.64,0.067808535,0.021433815,-1.2996695,0.79323294,1.07207194,9.4581048,58.8,14.6,39.6,-39.6,-1418.1,266.0,-1077.6,-18.8,328.8,1014.8454,-4.0043436,3102.0,0.067808535,0.053782249,0.021433815,0.014562832,-1.2996695,-0.0058721699999999,56630.0,28541.0,30850.0,0.0,-6.0,-38.0,1,27_ygyro_avg_abrupt_-1409.1
2023-01-03 15:54:48.000,245.801,0.099999999999999,100.0,915.0,24307.0,4882.0,99.0,916.8333333333334,156.16666666666666,4833.666666666667,90.22051333333332,2.632862333333333,0.07009589,0.0233734733333333,-1.2836636666666668,56.64000000000001,0.07651228,0.02849098,-1.2989456666666668,0.7200256333333334,1.0235646,7.9259135,64.83333333333333,3.8333333333333335,35.833333333333336,-32.0,-1404.1,270.0,-1063.6666666666667,9.0,322.6666666666667,1014.8521666666668,-3.9976951666666665,3103.1666666666665,0.07651228,-0.014588213,0.02849098,0.0017404966666666,-1.2989456666666668,0.0146607066666666,56640.0,28584.0,30860.0,2.0,-4.0,-39.0,1,27_ygyro_avg_abrupt_-1409.1
2023-01-03 15:54:48.550,246.35100000000003,0.0999999999999999,100.0,914.0,24266.0,4882.0,99.0,938.6,157.6,4879.4,90.276374,2.666505,0.0676748333333333,0.02028922,-1.2748376666666668,56.620000000000005,0.0740398,0.0253095433333333,-1.2897256666666668,0.60515932,1.18603488,8.291676800000001,53.0,-5.0,36.4,-61.4,-1434.6999999999998,256.0,-1075.2,-0.8,314.8,1014.8724,-3.977328,3104.0,0.0740398,-0.0085072036666666,0.0253095433333333,-0.0123467566666666,-1.2897256666666668,0.0055386356666666,56610.0,28623.0,30830.0,4.0,-4.0,-36.0,1,27_ygyro_avg_abrupt_-1409.1
2023-01-03 15:54:49.100,246.90100000000004,0.1000000000000037,100.0,896.0,24290.5,4795.5,99.0,949.6666666666666,159.0,4836.666666666667,90.31496,2.6987235,0.06765134,0.0154177233333333,-1.2735116666666668,56.57333333333333,0.0748615133333333,0.0212476566666666,-1.2884763333333331,0.69542825,1.3240411666666667,8.9391445,67.83333333333333,-0.6666666666666666,43.333333333333336,-16.166666666666668,-1414.2666666666667,262.5,-1077.6666666666667,10.333333333333334,316.6666666666667,1014.8716666666666,-3.978008,3105.0,0.0748615133333333,0.01380005,0.0212476566666666,0.0029351259999999,-1.2884763333333331,0.007704198,56570.0,28619.0,30790.0,4.0,-4.0,-40.0,1,27_ygyro_avg_abrupt_-1409.1
2023-01-03 15:54:49.650,247.451,0.0999999999999999,100.0,1050.0,24272.0,4890.0,99.0,987.4,160.4,4857.2,90.349538,2.730448,0.069465165,0.018264885,-1.27048,56.53,0.07755579,0.02473455,-1.285334,0.66374248,1.0762661,7.4213944,69.4,11.8,33.4,-21.6,-1414.3,262.0,-1097.4,4.0,322.0,1014.8614,-3.9880936,3106.0,0.07755579,-0.034443565,0.02473455,0.000396275,-1.285334,0.012221296,56520.0,28630.0,30740.0,5.0,-6.0,-37.0,1,27_ygyro_avg_abrupt_-1409.1
2023-01-03 15:54:50.200,248.001,0.099999999999999,100.0,978.0,24309.0,4883.0,98.5,1008.5,162.0,4885.166666666667,90.39098666666666,2.7626980000000003,0.0753374966666666,0.01661105,-1.2671356666666669,56.5,0.0837470433333333,0.0233259333333333,-1.2819296666666666,0.5963141666666667,1.03334165,7.2080515,61.66666666666666,-0.1666666666666666,44.16666666666666,-28.5,-1403.4333333333332,255.0,-1059.1666666666667,-6.666666666666667,316.1666666666667,1014.8473333333332,-4.0023045,3106.6666666666665,0.0837470433333333,0.0168956266666666,0.0233259333333333,-0.0228872699999999,-1.2819296666666666,-0.0092188836333333,56500.0,28661.0,30720.0,5.0,-6.0,-38.0,1,27_ygyro_avg_abrupt_-1409.1
2023-01-03 15:54:50.750,248.551,0.0999999999999999,100.0,929.0,24227.0,4887.0,98.0,876.6,163.4,4859.2,90.429476,2.7950078,0.07124998,0.0169293066666666,-1.2706946666666663,56.48333333333333,0.0792291733333333,0.0233382733333333,-1.2858186666666669,0.77077906,1.1442341800000002,10.419115,45.4,2.6,38.2,-40.6,-1402.6999999999998,261.4,-1066.4,-23.6,310.6,1014.8886,-3.9608438000000006,3107.6,0.0792291733333333,0.0006715936666666,0.0233382733333333,0.0126085433333333,-1.2858186666666669,-0.0310497533333333,56490.0,28634.0,30710.0,5.0,-3.0,-32.0,1,27_ygyro_avg_abrupt_-1409.1
2023-01-03 15:54:51.300,249.10100000000003,0.099999999999999,100.0,779.0,24403.0,4887.0,98.0,971.1666666666666,164.83333333333334,4887.166666666667,90.45576166666666,2.8264345,0.0724247166666666,0.0061915016666666,-1.276089,56.43,0.0801953066666666,0.01358077,-1.290886,0.83417635,1.1442446666666666,8.868358833333334,72.16666666666667,-6.666666666666667,36.833333333333336,-29.666666666666668,-1422.7666666666667,256.6666666666667,-1121.5,-5.833333333333333,320.8333333333333,1014.8701666666666,-3.979322833333333,3108.6666666666665,0.0801953066666666,-0.038937467,0.01358077,-0.0064450703333333,-1.290886,-0.0074419236666666,56450.0,28606.0,30670.0,5.0,1.0,-33.0,1,27_ygyro_avg_abrupt_-1409.1
2023-01-03 15:54:51.850,249.651,0.0999999999999999,100.0,1046.0,24255.0,4888.0,98.0,972.4,166.4,4886.6,90.491486,2.857512,0.078986675,0.0195699999999999,-1.275633,56.4,0.087735205,0.02695601,-1.290387,0.6861331399999999,1.09071868,9.0966232,71.6,39.2,35.8,-62.4,-1359.5,265.8,-1064.6,5.6,313.8,1014.853,-3.9968436,3109.8,0.087735205,0.05074693,0.02695601,0.02800883,-1.290387,0.006876785,56410.0,28599.0,30630.0,-2.0,0.0,-35.0,1,27_ygyro_avg_abrupt_-1409.1
2023-01-03 15:54:52.400,250.201,0.099999999999999,100.0,864.0,24324.0,4885.0,98.0,947.1666666666666,167.66666666666666,4887.5,90.54636666666666,2.889177666666667,0.08862087,0.02891707,-1.2721353333333332,56.39000000000001,0.0981276866666666,0.03578403,-1.2867836666666668,0.7272523833333334,1.08022645,7.802597833333333,80.5,6.833333333333333,30.5,-29.5,-1392.6,266.3333333333333,-1076.8333333333333,6.333333333333333,318.8333333333333,1014.8433333333334,-4.006302166666667,3110.5,0.0981276866666666,0.0257402533333333,0.03578403,0.01638993,-1.2867836666666668,0.008624943,56390.0,28635.5,30610.0,0.0,-3.5,-34.0,1,27_ygyro_avg_abrupt_-1409.1
2023-01-03 15:54:52.950,250.751,0.0999999999999999,100.0,1058.0,24262.0,4883.0,98.0,1002.2,169.4,4884.8,90.592098,2.921542,0.0925885366666666,0.0307008066666666,-1.268863,56.39333333333334,0.1013695033333333,0.0375198666666666,-1.283758,0.67703878,1.0667239000000002,7.545350600000001,59.2,4.8,36.8,-43.6,-1437.6999999999998,266.0,-1072.2,-16.0,308.6,1014.8476,-4.0018592,3111.6,0.1013695033333333,-0.0336781703333333,0.0375198666666666,0.0144398553333333,-1.283758,-0.013204829,56390.0,28648.0,30610.0,6.0,6.0,-35.0,1,27_ygyro_avg_abrupt_-1409.1
2023-01-03 15:54:53.500,251.301,0.099999999999999,100.0,921.0,24235.0,4862.0,98.0,902.6666666666666,170.66666666666666,4883.0,90.60918166666666,2.954421833333333,0.0812334666666666,0.0211050333333333,-1.2678476666666665,56.370000000000005,0.0902812766666666,0.0279724333333333,-1.283124,0.8280629666666668,1.07607315,9.831470833333332,66.16666666666667,-19.666666666666668,37.5,-20.5,-1445.4333333333332,259.1666666666667,-1120.5,4.166666666666667,307.5,1014.869,-3.980651,3112.333333333333,0.0902812766666666,-0.0550869276666666,0.0279724333333333,-0.0173568866666666,-1.283124,0.0025208286666666,56360.0,28647.0,30580.0,11.0,12.0,-33.0,1,27_ygyro_avg_abrupt_-1409.1
2023-01-03 15:54:54.050,251.85100000000003,0.0999999999999999,100.0,1006.0,24303.0,4888.0,98.0,977.2,172.2,4887.6,90.610364,2.9881642,0.07859801,0.01076943,-1.2672285,56.325,0.088153285,0.01749644,-1.282448,0.69519028,1.1587867399999998,10.8669532,68.0,-6.8,37.8,-42.4,-1400.5,256.4,-1028.8,-19.0,312.8,1014.8734,-3.9762498,3113.2,0.088153285,0.008390425,0.01749644,-0.0103950888,-1.282448,-0.0325739649999999,56320.0,28660.0,30540.0,10.0,12.0,-36.0,1,27_ygyro_avg_abrupt_-1409.1
2023-01-03 15:54:54.600,252.40100000000004,0.1000000000000037,100.0,900.5,24293.5,4878.5,98.0,898.5,173.66666666666666,4810.166666666667,90.61205666666666,3.023077666666667,0.0801019733333333,0.007518713,-1.2656066666666668,56.29333333333333,0.0896377366666666,0.0147297466666666,-1.281324666666667,0.6826998666666667,1.180692,11.673616333333332,59.333333333333336,1.6666666666666667,39.66666666666666,-47.333333333333336,-1368.9333333333332,249.5,-1062.8333333333333,-5.833333333333333,319.1666666666667,1014.8745,-3.9752865,3114.333333333333,0.0896377366666666,0.04247902,0.0147297466666666,-0.0080429676666666,-1.281324666666667,-0.00872155,56280.0,28666.0,30500.0,6.0,11.0,-32.0,1,27_ygyro_avg_abrupt_-1409.1
2023-01-03 15:54:55.150,252.951,0.0999999999999999,100.0,1066.0,24260.0,4874.0,98.0,999.2,175.2,4881.6,90.626902,3.0573992,0.0847718766666666,0.0127387723333333,-1.2684453333333332,56.24666666666667,0.0942639266666666,0.01957643,-1.2843173333333333,0.64306396,1.1858714,10.1264678,78.2,21.0,35.8,-15.0,-1414.8999999999999,256.0,-1144.2,6.6,309.8,1014.8492,-4.0006248,3115.0,0.0942639266666666,-0.0162416266666666,0.01957643,-0.0062193516666666,-1.2843173333333333,0.0112452795999999,56240.0,28639.0,30460.0,2.0,11.0,-31.0,1,27_ygyro_avg_abrupt_-1409.1
2023-01-03 15:54:55.700,253.501,0.099999999999999,100.0,731.0,24285.0,4729.0,98.0,878.5,176.5,4803.333333333333,90.65212333333334,3.0900885,0.0841474366666666,0.0191372466666666,-1.2690906666666666,56.220000000000006,0.0933865099999999,0.0253017466666666,-1.2855456666666667,0.8225201833333333,1.2561453833333334,11.013236,65.5,8.166666666666666,39.16666666666666,-35.0,-1430.6,264.0,-1077.5,-16.5,325.5,1014.8663333333334,-3.983346,3116.333333333333,0.0933865099999999,-0.07186208,0.0253017466666666,0.0018649633333333,-1.2855456666666667,-0.0141082533333333,56220.0,28639.0,30440.0,0.0,12.0,-30.0,1,27_ygyro_avg_abrupt_-1409.1
2023-01-03 15:54:56.250,254.051,0.0999999999999999,100.0,1198.0,24232.0,4877.0,98.0,954.8,177.8,4878.4,90.680234,3.1225566,0.0815217249999999,0.0220948799999999,-1.270571,56.165,0.09074745,0.02856361,-1.2867765,0.86539438,1.1771942,10.0601688,73.6,2.0,37.2,-20.6,-1421.5,268.0,-1108.4,3.8,328.2,1014.8814,-3.9683906000000007,3117.2,0.09074745,0.0193047455,0.02856361,0.015607237,-1.2867765,0.010267525,56170.0,28625.0,30390.0,1.0,14.0,-31.0,1,27_ygyro_avg_abrupt_-1409.1
2023-01-03 15:54:56.800,254.60100000000003,0.099999999999999,100.0,736.0,24373.0,4875.0,98.0,874.1666666666666,179.33333333333334,4852.0,90.70729333333334,3.155791333333333,0.0785450033333333,0.0157567366666666,-1.2729673333333331,56.10333333333333,0.0885167166666666,0.0226010833333333,-1.288638,0.70416965,1.173697166666667,9.890387166666669,55.66666666666666,2.6666666666666665,33.166666666666664,-41.333333333333336,-1378.7666666666667,257.8333333333333,-1032.0,-15.0,327.0,1014.871,-3.978697833333333,3118.333333333333,0.0885167166666666,0.0378798733333333,0.0226010833333333,-0.012197005,-1.288638,-0.0206982866666666,56100.0,28628.0,30320.0,1.0,16.0,-33.0,1,27_ygyro_avg_abrupt_-1409.1
2023-01-03 15:54:57.350,255.19100000000003,0.1120000000000004,100.0,826.0,24354.0,4869.0,98.0,874.0,180.6,4880.2,90.73542,3.188225,0.0709759666666666,0.0227660633333333,-1.2794206666666668,56.056666666666665,0.08024206,0.0291281066666666,-1.2953626666666669,0.7524097399999999,1.180838,8.9533028,58.8,17.1,40.0,-35.3,-1427.8999999999999,263.9,-1089.9,-1.5,326.8,1014.884,-3.9657032,3119.0,0.08024206,0.0039928056666666,0.0291281066666666,-0.0106136299999999,-1.2953626666666669,-0.001751791,56070.0,28585.0,30290.0,-2.0,20.0,-34.0,1,27_ygyro_avg_abrupt_-1409.1
2023-01-03 15:54:57.900,255.707,0.0999999999999999,100.0,971.0,24263.0,4888.0,98.0,943.2,181.8,4887.6,90.756064,3.2152818,0.057478665,0.029411475,-1.2790645,56.005,0.067183085,0.03573547,-1.2955055,0.8470735399999999,1.1600343,9.8130722,60.2,-1.0,41.6,-38.0,-37.2,266.8,-1132.8,-1.4,305.6,1014.869,-3.980625,3119.6,0.067183085,0.0241369049999999,0.03573547,0.05673826,-1.2955055,0.006004865,56020.0,28566.0,30240.0,0.0,22.0,-37.0,0,None
2023-01-03 15:54:58.450,256.21500000000003,0.0999999999999999,100.0,1008.0,24169.0,4746.0,98.0,856.6,183.2,4799.6,90.761528,3.2434824,0.0621235566666666,0.0226807033333333,-1.2781563333333334,55.94333333333333,0.0723132733333333,0.0284776066666666,-1.2941583333333335,0.8049316,1.263831,10.5812252,66.0,-15.8,41.0,-38.6,24.4,266.8,-976.6,-10.6,310.8,1014.8904,-3.959281,3120.6,0.0723132733333333,0.0598109876666666,0.0284776066666666,-0.025895652,-1.2941583333333335,-0.0047267181333333,55950.0,28590.0,30170.0,5.0,17.0,-39.0,0,None
2023-01-03 15:54:59.000,256.7676666666667,0.103333333333334,100.0,814.0,24359.0,4887.0,98.0,945.8333333333334,184.5,4886.666666666667,90.74746166666664,3.272766333333333,0.0699576,0.0164897299999999,-1.2830946666666667,55.85666666666666,0.07951658,0.0227183699999999,-1.2989666666666668,0.7467002666666666,1.11260295,8.846924666666666,70.66666666666667,9.5,35.166666666666664,-71.66666666666667,60.833333333333336,265.8333333333333,-1044.0,-10.333333333333334,330.3333333333333,1014.8746666666668,-3.974961,3121.5,0.07951658,0.0952649566666666,0.0227183699999999,0.0102015113333333,-1.2989666666666668,-0.0043506399999999,55850.0,28560.5,30070.0,4.5,11.0,-31.5,0,None
2023-01-03 15:54:59.550,257.339,0.1039999999999963,100.0,993.0,24278.0,4887.0,98.0,999.6,186.2,4890.6,90.723808,3.3009402000000003,0.07319004,0.0275050599999999,-1.2861076666666669,55.79,0.0827407766666666,0.0340463166666666,-1.301604,0.56732786,1.03533238,6.735263600000001,77.8,53.8,27.2,-52.4,-44.2,262.8,-1088.8,2.2,322.0,1014.8504,-3.9990626,3122.6,0.0827407766666666,-0.0907541113333333,0.0340463166666666,0.07308277,-1.301604,-0.0227850093333333,55770.0,28539.0,29990.0,-1.0,5.0,-36.0,0,None
2023-01-03 15:55:00.100,257.85920000000004,0.1002000000000065,100.0,1154.0,24149.0,4888.0,98.0,955.6,187.6,4891.6,90.701288,3.325266,0.076629535,0.031676665,-1.2858545,55.775000000000006,0.085271525,0.0385448699999999,-1.300615,0.69800748,1.02184306,7.861159599999999,53.2,-5.4,27.4,-49.0,54.2,260.6,-1061.2,1.2,315.6,1014.8666,-3.9830312,3123.0,0.085271525,-0.0279059799999999,0.0385448699999999,0.035386415,-1.300615,0.025288475,55750.0,28544.0,29970.0,3.0,7.0,-31.0,0,None
2023-01-03 15:55:00.650,258.4543333333333,0.1098333333333319,100.0,881.0,24282.0,4889.5,98.0,931.1666666666666,189.0,4880.5,90.66555,3.351075,0.0651489166666666,0.0388354833333333,-1.283089666666667,55.71,0.0747089833333333,0.0453034433333333,-1.2971543333333333,0.6595595166666667,1.0744114,7.4409505,62.083333333333336,-23.416666666666668,28.83333333333333,-26.166666666666668,-15.416666666666666,273.6666666666667,-1080.0833333333333,18.83333333333333,308.75,1014.8803333333332,-3.969303333333334,3124.1666666666665,0.0747089833333333,0.0498873506333333,0.0453034433333333,0.0088267203333333,-1.2971543333333333,0.032972804,55710.0,28578.0,29930.0,14.0,10.0,-32.0,0,None
2023-01-03 15:55:01.200,259.051,0.1120000000000004,100.0,932.0,24302.0,4891.0,98.0,970.8,190.6,4883.0,90.60532,3.3797666,0.0743779999999999,0.0127416653333333,-1.2783236666666669,55.65333333333333,0.0836323066666666,0.0202641333333333,-1.292085666666667,0.6531337199999999,1.11397526,7.828629199999999,68.2,-31.4,37.2,-37.6,-11.4,263.0,-1105.8,16.2,304.6,1014.8618,-3.9877968,3125.0,0.0836323066666666,-0.0054141166666666,0.0202641333333333,-0.0205006217333333,-1.292085666666667,0.015878212,55650.0,28590.0,29870.0,15.0,10.0,-37.0,0,None
2023-01-03 15:55:01.750,259.583,0.1039999999999963,100.0,949.0,24296.0,4885.0,98.0,966.8,192.2,4881.0,90.550068,3.4024396,0.07589539,0.013867765,-1.277522,55.625,0.085263485,0.021607625,-1.2920159999999998,0.6381840000000001,1.0810369400000002,7.296342,55.2,25.5,37.0,-44.0,-7.5,263.0,-1105.0,-12.1,327.5,1014.8721,-3.9778593,3125.9,0.085263485,0.0183510045,0.021607625,0.0233406299999999,-1.2920159999999998,-0.014007794765,55630.0,28597.0,29850.0,8.0,9.0,-32.0,0,None
2023-01-03 15:55:02.300,260.09900000000005,0.1039999999999963,100.0,1018.0,24199.0,4891.0,98.0,941.0,193.4,4880.8,90.504964,3.4230384000000003,0.0690321566666666,0.0225084266666666,-1.2790039999999998,55.60333333333333,0.0787678766666666,0.0299629733333333,-1.2936053333333333,0.6787658400000001,1.11141052,7.47048,59.8,36.4,37.8,-36.2,24.8,260.6,-1082.6,2.6,323.0,1014.8944,-3.955234200000001,3126.8,0.08003906,-0.020671057,0.02522185,0.045275735,-1.2918945,0.0016584549999999,55610.0,28578.0,29830.0,4.0,8.0,-34.0,0,None
2023-01-03 15:55:02.850,260.6272,0.1081999999999993,100.0,1040.0,24250.0,4887.0,98.0,982.6,194.8,4886.4,90.455766,3.4466794,0.07832148,0.029933605,-1.2762105,55.57,0.087325165,0.0371991049999999,-1.290707,0.6390061000000001,1.04176752,7.081361599999999,66.8,-23.4,32.8,-56.2,8.0,257.6,-1064.2,4.6,315.0,1014.8388,-4.0110782,3127.4,0.087325165,0.07179266,0.0371991049999999,-0.0176823149999999,-1.290707,0.020791165,55570.0,28608.0,29790.0,7.0,9.0,-36.0,0,None
2023-01-03 15:55:03.400,261.2176666666667,0.1031666666666713,100.0,1082.0,24248.0,4743.0,98.0,1057.0,196.66666666666663,4886.5,90.39936,3.471699333333333,0.0842958099999999,0.0187278733333333,-1.2694006666666666,55.56,0.0936027633333333,0.0260630466666666,-1.2833803333333331,0.5471964666666668,1.1357923166666668,7.324024833333333,64.0,12.333333333333334,32.833333333333336,-46.66666666666666,1.0,251.3333333333333,-1018.0,-7.5,319.0,1014.8133333333334,-4.036367000000001,3128.333333333333,0.0936027633333333,0.0056813146666666,0.0260630466666666,0.0064232183333333,-1.2833803333333331,0.0020586196666666,55560.0,28641.0,29780.0,0.0,9.0,-37.0,0,None
2023-01-03 15:55:03.950,261.80740000000003,0.108000000000004,100.0,1016.0,24248.0,4887.0,98.0,985.4,198.2,4889.0,90.351036,3.495063,0.07209697,0.0343771366666666,-1.270153,55.580000000000005,0.0820031466666666,0.0415348266666666,-1.284465,0.57847812,1.1101977,6.805855599999999,71.2,37.4,36.4,-37.0,1.2,269.8,-1078.2,-17.3,321.0,1014.8427,-4.0068747,3129.0,0.0820031466666666,0.00340485223,0.0415348266666666,0.0409128313333333,-1.284465,-0.02567121,55580.0,28654.0,29800.0,-8.0,8.0,-39.0,0,None
2023-01-03 15:55:04.500,262.3192,0.1039999999999963,100.0,931.0,24285.0,4880.0,98.0,952.8,199.6,4830.2,90.30901,3.5166024,0.07643269,0.04764652,-1.2803503333333333,55.56333333333333,0.0864144266666666,0.05506592,-1.294190333333333,0.5834545999999999,0.98544092,5.932659800000001,77.0,11.2,33.6,-66.0,28.2,273.8,-1069.8,-4.0,309.2,1014.844,-4.0057656,3130.2,0.0864144266666666,0.0200364703333333,0.05506592,0.0135253799999999,-1.294190333333333,-0.0026055216,55570.0,28589.0,29790.0,-3.0,5.0,-38.0,0,None
2023-01-03 15:55:05.050,262.827,0.0999999999999999,100.0,984.0,24130.0,4745.0,98.0,1021.2,200.8,4860.8,90.24738,3.5397774,0.0903885,0.048940985,-1.280904,55.535,0.0998723099999999,0.05633695,-1.2943685,0.58849902,1.04124602,6.715098,74.6,-13.2,29.2,-51.2,55.4,270.4,-1057.2,8.8,314.6,1014.8574,-3.9921872,3130.8,0.0998723099999999,0.048054725,0.05633695,-0.0205244665,-1.2943685,-0.0020617149999999,55540.0,28578.0,29760.0,5.0,3.0,-39.0,0,None
2023-01-03 15:55:05.600,263.38466666666665,0.103333333333334,100.0,1064.5,24227.5,4884.5,98.0,1103.3333333333333,202.5,4881.0,90.164006,3.5634406,0.0935584,0.0331022299999999,-1.2692753333333335,55.48333333333333,0.1029252333333333,0.0405391833333333,-1.2824986666666665,0.5418071833333333,1.0900450666666666,6.781737499999999,82.33333333333333,-13.333333333333334,27.83333333333333,-38.5,10.0,268.8333333333333,-1051.0,7.0,313.3333333333333,1014.8334999999998,-4.015924166666667,3131.833333333333,0.1029252333333333,0.00994755,0.0405391833333333,0.0002321906666666,-1.2824986666666665,0.0065809952666666,55500.0,28634.0,29720.0,12.0,7.0,-40.0,0,None
2023-01-03 15:55:06.150,263.97900000000004,0.1120000000000004,100.0,1075.0,24256.0,4879.0,98.0,1068.6,204.4,4821.8,90.06873399999999,3.5880348,0.08820111,0.0288663366666666,-1.2644183333333334,55.46,0.0974029666666666,0.0372325266666666,-1.2770763333333333,0.57909328,1.2035298,7.143663800000001,81.8,2.5,30.8,-43.5,-20.5,254.6,-1103.8,11.4,308.1,1014.8541,-3.9954609,3132.4,0.0974029666666666,0.0058075199999999,0.0372325266666666,0.0111495,-1.2770763333333333,-0.0217005156666666,55455.0,28680.0,29675.0,11.0,13.0,-35.5,0,None
2023-01-03 15:55:06.700,264.4952,0.1001999999999952,100.0,976.0,24255.0,4879.0,98.0,964.6,205.8,4877.0,89.986022,3.6097248,0.08200015,0.024490085,-1.27149,55.435,0.091743665,0.032474145,-1.2847715000000002,0.6821445199999999,1.13569124,6.8566794,75.4,-7.8,34.2,-37.6,10.4,265.0,-1049.4,7.2,320.6,1014.8658,-3.9837184,3133.6,0.091743665,0.0093984215,0.032474145,-0.013144624,-1.2847715000000002,-0.04342896,55420.0,28633.0,29640.0,10.0,17.0,-37.0,0,None
2023-01-03 15:55:07.250,265.061,0.0998333333333315,100.0,990.0,24142.0,4885.0,98.0,1015.0,207.5,4882.333333333333,89.89214,3.6351776666666673,0.0763937,0.0230299866666666,-1.2707433333333331,55.38999999999999,0.08605323,0.0318651466666666,-1.28352,0.65792785,1.1009271166666668,6.2024946666666665,76.16666666666667,-3.1666666666666665,37.5,-22.33333333333333,-1.8333333333333333,257.6666666666667,-1064.3333333333333,21.666666666666668,321.6666666666667,1014.8763333333332,-3.9733985,3134.1666666666665,0.08605323,-0.0062214376666666,0.0318651466666666,0.0089968916666666,-1.28352,0.02933034,55370.0,28654.0,29590.0,8.0,18.0,-35.0,0,None
2023-01-03 15:55:07.800,265.6394,0.1120000000000004,100.0,962.0,24277.0,4887.0,98.0,979.8,209.0,4878.0,89.798316,3.661988,0.0709252899999999,0.0243955566666666,-1.270848,55.34333333333333,0.0815389566666666,0.0323420466666666,-1.2834976666666666,0.6747048,1.0349024999999998,6.9474708000000005,70.4,-1.0,42.6,-22.0,9.8,267.8,-1074.2,1.2,320.8,1014.8844,-3.9653746,3135.0,0.0815389566666666,0.0314111333333333,0.0323420466666666,-0.002339612,-1.2834976666666666,0.0013181563333333,55340.0,28642.0,29560.0,9.0,16.0,-31.0,0,None
2023-01-03 15:55:08.350,266.187,0.1040000000000076,100.0,1136.0,24180.0,4888.0,98.0,1051.2,210.6,4886.8,89.71705,3.6860644,0.079274485,0.017524915,-1.270832,55.3,0.08885601,0.024718265,-1.283272,0.59563674,1.04212268,7.234581199999999,59.9,-22.7,35.3,-30.0,24.0,257.4,-997.5,-9.5,309.9,1014.8792,-3.9705078,3136.0,0.08885601,-0.0137621755,0.024718265,-0.02579148,-1.283272,-0.0093502174,55290.0,28653.0,29510.0,8.0,16.0,-34.0,0,None
2023-01-03 15:55:08.900,266.70320000000004,0.1039999999999963,100.0,975.0,24201.0,4890.0,98.0,1017.6,212.0,4888.4,89.65242599999999,3.7060588,0.0792382766666666,0.010124035,-1.2712503333333334,55.26,0.08949628,0.0177891,-1.2832643333333331,0.64947186,1.1774506,6.9385624,65.2,9.4,37.0,-27.8,29.8,257.4,-1049.2,-6.4,326.6,1014.873,-3.9766718,3136.8,0.08949628,-0.00993829,0.0177891,-8.32800000000004e-05,-1.2832643333333331,-0.016767413,55250.0,28654.0,29470.0,0.0,16.0,-33.0,0,None
2023-01-03 15:55:09.450,267.2678333333334,0.1001666666666664,100.0,1078.0,24233.0,4885.0,98.0,1063.0,213.66666666666663,4862.333333333333,89.59175,3.729941166666667,0.07727652,0.0201789466666666,-1.2714096666666668,55.23,0.0875221266666666,0.0280811033333333,-1.283526333333333,0.5257488666666666,1.0871141,7.1136455,80.83333333333333,25.5,34.5,-37.333333333333336,32.666666666666664,255.3333333333333,-1074.8333333333333,14.5,318.6666666666667,1014.8773333333334,-3.9723305,3137.5,0.0875221266666666,0.0152890563333333,0.0280811033333333,0.0309324606666666,-1.283526333333333,-0.0046181416666666,55230.0,28651.0,29450.0,-7.0,14.0,-29.0,0,None
2023-01-03 15:55:10.000,267.831,0.103800000000001,100.0,1159.0,24082.0,4743.0,98.0,1099.0,215.4,4833.2,89.552972,3.7533306,0.078103365,0.02703036,-1.2661945,55.205,0.088158365,0.0345957199999999,-1.27807,0.57428976,1.1549674600000002,6.872022200000001,79.4,14.8,41.0,-24.0,25.4,257.4,-1047.6,34.6,311.2,1014.861,-3.9886094,3138.2,0.088158365,0.035842135,0.0345957199999999,0.03363625,-1.27807,0.00457442375,55200.0,28686.0,29420.0,-8.0,10.0,-33.0,0,None
2023-01-03 15:55:10.550,268.35119999999995,0.1039999999999963,100.0,1067.0,24220.0,4895.0,98.0,1085.2,217.0,4890.0,89.525828,3.7727586,0.0806172533333333,0.04072094,-1.2624836666666666,55.18666666666667,0.0911228966666666,0.0480818933333333,-1.2748976666666667,0.60607228,1.20960986,6.215803200000001,73.6,34.0,40.8,-60.0,16.0,262.0,-1062.2,-1.4,312.8,1014.8668,-3.9828752,3139.0,0.0911228966666666,0.0239565611,0.0480818933333333,0.0229753266666666,-1.2748976666666667,-0.0234674966666666,55190.0,28695.0,29410.0,-6.0,8.0,-34.0,0,None
2023-01-03 15:55:11.100,268.9243333333333,0.103333333333334,100.0,1091.0,24113.5,4890.5,98.0,1092.6666666666667,218.8333333333333,4857.333333333333,89.48696666666666,3.7930005,0.08839595,0.0471348766666666,-1.260641,55.15333333333333,0.0983643933333333,0.05365255,-1.2728216666666663,0.59697345,1.2093685166666666,5.8643073333333335,76.83333333333333,1.5,34.166666666666664,-27.166666666666668,9.333333333333334,265.1666666666667,-1075.1666666666667,-1.5,304.0,1014.8498333333332,-3.9999086666666654,3139.6666666666665,0.0983643933333333,-0.019527297,0.05365255,0.0040457606666666,-1.2728216666666663,-0.00184472,55150.0,28707.0,29370.0,0.0,9.0,-33.0,0,None
2023-01-03 15:55:11.650,269.4872,0.108000000000004,100.0,1153.0,24184.0,4893.0,98.0,1121.0,220.4,4884.4,89.43238000000001,3.8137596,0.09051186,0.04898872,-1.2584785,55.12,0.100314325,0.056319965,-1.2697575,0.56866492,1.1391871999999998,5.364141,66.6,8.3,30.5,-61.2,3.1,266.7,-1086.3,7.0,312.0,1014.8475,-4.0022031,3140.8,0.100314325,0.01720073,0.056319965,0.033238035,-1.2697575,0.010190928,55120.0,28722.0,29340.0,4.0,12.0,-36.0,0,None
2023-01-03 15:55:12.200,270.00719999999995,0.0999999999999999,100.0,1028.0,24219.0,4893.0,98.0,1080.2,222.0,4831.2,89.367866,3.8342642,0.0849663233333333,0.0494709166666666,-1.2596189999999998,55.13,0.0948952799999999,0.0563446,-1.2710003333333333,0.60135608,1.2933112,5.8673472,77.8,10.0,38.0,-35.8,9.8,264.4,-1041.4,1.4,303.6,1014.8722,-3.977390600000001,3141.4,0.0948952799999999,0.0347657876666666,0.0563446,-0.0127316929999999,-1.2710003333333333,-0.02673078,55130.0,28725.0,29350.0,10.0,17.0,-36.0,0,None
2023-01-03 15:55:12.750,270.5643333333333,0.0999999999999943,100.0,1073.0,24213.0,4880.0,98.0,1038.3333333333333,223.5,4867.0,89.29331666666667,3.8557135,0.07843067,0.03946762,-1.2670286666666668,55.13333333333333,0.0888502633333333,0.0464180966666666,-1.2784386666666665,0.56694415,1.0728451833333337,6.286664999999999,68.66666666666667,-27.33333333333333,35.5,-64.0,-31.83333333333333,273.0,-1084.5,-19.0,307.8333333333333,1014.87,-3.9795568333333335,3142.333333333333,0.0888502633333333,-0.0193490973333333,0.0464180966666666,-0.0242234166666666,-1.2784386666666665,0.0064462234333333,55130.0,28682.0,29350.0,19.0,21.0,-34.0,0,None
2023-01-03 15:55:13.300,271.1232,0.108000000000004,100.0,1017.0,24241.0,4887.0,98.0,954.0,225.2,4884.6,89.20967,3.87835,0.07576446,0.0220866433333333,-1.277328,55.13666666666666,0.08570092,0.0295002766666666,-1.288595333333333,0.70778494,1.1153262599999998,7.323717200000002,54.8,-1.6,37.8,-62.2,2.0,265.4,-1074.4,-26.6,325.0,1014.89,-3.9597498,3143.0,0.08570092,-0.0132357034,0.0295002766666666,-0.0011939066666666,-1.288595333333333,-0.0165758926666666,55150.0,28649.0,29370.0,23.0,22.0,-31.0,0,None
2023-01-03 15:55:13.850,271.63199999999995,0.0961999999999988,100.0,941.0,24104.0,4890.0,98.0,921.2,226.4,4893.2,89.130778,3.89945,0.0678294999999999,0.025415385,-1.2868915,55.125,0.078751225,0.0327108849999999,-1.297434,0.68294336,1.08217808,6.849601,62.4,13.0,33.2,-41.8,0.2,265.8,-1059.8,6.2,319.8,1014.9187999999998,-3.9310622,3143.8,0.078751225,-0.0376642928,0.0327108849999999,0.040004128,-1.297434,0.0035661875,55130.0,28578.0,29350.0,18.0,24.0,-33.0,0,None
2023-01-03 15:55:14.400,272.1853333333333,0.1000000000000037,100.0,1159.0,24163.0,4893.0,98.0,1093.8333333333333,228.0,4893.0,89.05728333333333,3.919490666666666,0.06809232,0.0158662066666666,-1.276977,55.083333333333336,0.0790095233333333,0.02369451,-1.2875283333333332,0.5546069333333333,1.209608566666667,7.387595666666666,61.5,-20.666666666666668,37.5,-69.33333333333333,21.5,263.5,-1041.3333333333333,1.8333333333333333,313.3333333333333,1014.8723333333334,-3.977460833333333,3144.5,0.0790095233333333,0.0090167333333333,0.02369451,-0.0278625866666666,-1.2875283333333332,0.04521952,55085.0,28621.0,29305.0,15.5,22.5,-31.0,0,None
2023-01-03 15:55:14.950,272.732,0.0999999999999999,100.0,1012.0,24227.0,4737.0,98.0,1014.6,229.6,4802.6,88.987408,3.9385666,0.06561388,0.0206901766666666,-1.269927,55.086666666666666,0.0773747233333333,0.0292652,-1.2801196666666668,0.6716701200000001,1.0923962,6.903505999999998,71.8,30.8,41.6,-41.0,17.4,262.4,-1046.2,-7.8,323.0,1014.8794,-3.970203,3145.4,0.0773747233333333,0.0241278646666666,0.0292652,0.0566129633333333,-1.2801196666666668,-0.0005624233333333,55100.0,28665.0,29320.0,8.0,8.0,-28.0,0,None
