00000_Time_epoch,00000_Time_boot_sec,00000_Span_Time_boot_sec,1_battery_remaining_avg,1_current_battery_avg,1_voltage_battery_avg,125_Vcc_avg,147_battery_remaining_avg,147_current_battery_avg,147_current_consumed_avg,165_Vcc_avg,168_direction_avg,168_speed_avg,178_pitch_avg,178_roll_avg,178_yaw_avg,182_altitude_avg,182_pitch_avg,182_roll_avg,182_yaw_avg,241_vibration_x_avg,241_vibration_y_avg,241_vibration_z_avg,27_xacc_avg,27_xgyro_avg,27_xmag_avg,27_yacc_avg,27_ygyro_avg,27_ymag_avg,27_zacc_avg,27_zgyro_avg,27_zmag_avg,29_press_abs_avg,29_press_diff_avg,29_temperature_avg,30_pitch_avg,30_pitchspeed_avg,30_roll_avg,30_rollspeed_avg,30_yaw_avg,30_yawspeed_avg,33_alt_avg,33_hdg_avg,33_relative_alt_avg,33_vx_avg,33_vy_avg,33_vz_avg,label,diagnosis
2023-01-03 19:03:17.650,93.027,0.519999999999996,100.0,67.0,25005.0,4871.0,99.0,73.0,20.0,4862.0,-179.1604,0.1429385,0.0041491605,-0.011418225,-1.075745,26.985,0.006546458,-0.0093957885,-1.0715645,0.02751441,0.02981005,0.1461526,-8.0,2.0,109.0,-1.0,4.0,248.0,-1076.0,2.0,337.0,1019.212,-0.13,2992.0,0.006546458,0.004372001,-0.0093957885,0.0018115804999999,-1.0715645,0.001455951,26990.0,29860.0,0.0,2.0,12.0,-17.0,0,None
2023-01-03 19:03:18.200,93.547,0.519999999999996,100.0,74.0,25018.0,4882.0,99.0,78.0,20.0,4871.0,-177.809,0.1461034,0.0043899113333333,-0.0115200666666666,-1.0761556666666667,26.96,0.0065626186666666,-0.0094943086666666,-1.0718426666666667,0.02981075,0.04293389,0.2542931,-8.0,1.0,113.0,-1.0,3.0,248.0,-1076.0,0.0,337.0,1019.219,-0.1238281,2995.0,0.0065626186666666,0.0034075663333333,-0.0094943086666666,0.0022067603333333,-1.0718426666666667,0.0001164562333333,26960.0,29859.0,-30.0,1.0,12.0,-18.0,0,None
2023-01-03 19:03:18.750,94.047,0.5,100.0,79.0,25037.0,4864.0,99.0,74.0,20.0,4867.0,-176.9909,0.1558412,0.0046108339999999,-0.01103563,-1.0765295,26.925,0.006552128,-0.009513127,-1.0720585,0.02375529,0.02865609,0.0626996,-10.0,1.0,110.0,-1.0,3.0,250.0,-1078.0,1.0,338.0,1019.19,-0.1521875,2996.0,0.006552128,0.003896776,-0.009513127,0.002970287,-1.0720585,0.00053258599,26920.0,29858.0,-70.0,2.0,11.0,-19.0,0,None
2023-01-03 19:03:19.300,94.827,0.5200000000000031,100.0,136.0,25013.0,4881.5,99.0,105.5,20.5,4867.0,-175.94285,0.1927941,0.0048343301666666,-0.0109145116666665,-1.07684825,26.885,0.0068449799166666,-0.00931188825,-1.07231575,0.10700935,0.19392525,1.683852,-8.5,2.0,114.5,17.0,0.0,248.0,-1121.0,-13.5,331.0,1019.231,-0.11148435,2998.5,0.0068449799166666,0.0077394539666666,-0.00931188825,0.0043236148,-1.07231575,0.0082369675833333,26885.0,29854.5,-105.0,1.0,12.0,-20.5,0,None
2023-01-03 19:03:19.850,95.607,0.519999999999996,100.0,147.0,25002.0,4879.0,99.0,121.0,21.0,4880.0,-175.5987,0.2260548,0.0049984366666666,-0.0107261633333333,-1.0764593333333334,26.83333333333333,0.0070902766666666,-0.009117245,-1.072194,0.06775828,0.2287771,2.21367,-12.0,-1.0,110.0,11.0,0.0,247.0,-1112.0,2.0,339.0,1019.241,-0.1014844,3001.0,0.0070902766666666,0.005574347,-0.009117245,0.0016771903333333,-1.072194,0.0057321732,26840.0,29856.0,-150.0,2.0,12.0,-19.0,0,None
2023-01-03 19:03:20.400,96.107,0.5,100.0,1744.0,24441.0,4871.0,99.0,1561.0,22.0,4875.0,-175.6754,0.2570023,0.03260083,-0.0121033099999999,-1.077074,26.87,0.034078685,-0.0098938455,-1.0706965,0.2376114,1.2757,4.045873,0.0,4.0,91.0,1.0,48.0,218.0,-1281.0,7.0,274.0,1019.621,0.2786719,3003.0,0.034078685,0.0819277549999999,-0.0098938455,-0.0085175599999999,-1.0706965,0.03126872,26950.0,29875.0,-40.0,-8.0,21.0,47.0,0,None
2023-01-03 19:03:20.950,96.607,0.5,100.0,1650.0,24426.0,4869.0,99.0,1522.0,24.0,4877.0,-174.1634,0.2704839,0.0070370703333333,-0.003266259,-1.071649,27.343333333333334,0.0080140123333333,-0.0009820167,-1.065607,0.4630066,0.9996365,2.49875,-22.0,-33.0,97.0,-10.0,-95.0,241.0,-1278.0,-29.0,320.0,1019.321,-0.02132813,3005.0,0.0080140123333333,-0.0816006133333333,-0.0009820167,0.0280241166666666,-1.065607,0.0210803336666666,27570.0,29904.0,580.0,-12.0,27.0,141.0,0,None
2023-01-03 19:03:21.500,97.107,0.5,100.0,1831.0,24352.0,4869.0,99.0,1811.0,26.0,4875.0,-173.9722,0.2907593,-0.029035895,0.00278792,-1.0683825,28.3,-0.025728895,0.004276481,-1.061823,0.2262996,1.312073,3.264332,-22.0,1.0,114.0,-40.0,-45.0,250.0,-1242.0,1.0,308.0,1019.078,-0.2639062,3007.0,-0.025728895,-0.0623134199999999,0.004276481,0.032892435,-1.061823,-0.0170490095,28710.0,29909.0,1720.0,-3.0,14.0,232.0,0,None
2023-01-03 19:03:22.050,97.607,0.5,100.0,1668.0,24368.0,4854.0,99.0,1720.0,29.0,4877.0,-173.5049,0.300403,-0.0220589833333333,-0.0079853104633333,-1.0784556666666665,29.76,-0.01790595,-0.0062206696666666,-1.0714306666666669,0.1984128,1.302748,2.566628,-20.0,-45.0,106.0,-16.0,39.0,222.0,-1167.0,-27.0,281.0,1018.924,-0.4185937,3008.0,-0.01790595,0.039684527,-0.0062206696666666,-0.0445855166666666,-1.0714306666666669,-0.024692302,30280.0,29843.0,3290.0,3.0,-2.0,288.0,0,None
2023-01-03 19:03:22.600,98.107,0.5,100.0,1644.0,24379.0,4871.0,99.0,1643.0,31.0,4882.0,-171.867,0.3052168,-0.0016017923499999,-0.016423785,-1.0901365,31.425,-0.000663372,-0.01447739,-1.1731604999999998,0.4400127,1.23108,2.162394,-9.0,44.0,92.0,19.0,50.0,234.0,-1148.0,-18.0,313.0,1018.756,-0.5864062,3010.0,-0.000663372,0.021982997,-0.01447739,0.05929175,-1.1731604999999998,-0.00148454535,31980.0,29285.0,4990.0,-3.0,-12.0,316.0,0,None
2023-01-03 19:03:23.150,98.607,0.5,100.0,1336.0,24489.0,4882.0,99.0,1487.0,33.0,4875.0,-171.8722,0.3062706,-0.0012578096666666,0.011095,-1.0888056666666668,33.15,-0.0002394256666666,0.0133461043333333,-1.169517,0.3670106,1.41241,1.949385,-12.0,38.0,97.0,-20.0,52.0,261.0,-1080.0,16.0,294.0,1018.536,-0.8059375,3011.0,-0.0002394256666666,0.0206715665333333,0.0133461043333333,0.0234115733333333,-1.169517,0.0075389443333333,33690.0,29297.0,6700.0,0.0,-13.0,301.0,0,None
2023-01-03 19:03:23.700,99.107,0.5,100.0,896.0,24635.0,4869.0,99.0,1198.0,35.0,4875.0,-172.3237,0.3073489,0.0002565045,0.020852095,-1.0890145,34.67,0.0010561624999999,0.022744005,-1.168278,0.5830508,1.063471,1.554001,-2.0,-2.0,100.0,-9.0,32.0,251.0,-858.0,29.0,308.0,1018.359,-0.9832813,3013.0,0.0010561624999999,0.04129403,0.022744005,-0.0077088565,-1.168278,0.0232774035,35060.0,29329.0,8070.0,8.0,-11.0,206.0,0,None
2023-01-03 19:03:24.250,99.607,0.5,100.0,933.0,24601.0,4882.0,99.0,1009.0,36.0,4871.0,-172.8517,0.3049989,0.0158377533333333,0.01429301,-1.0802106666666669,35.63333333333333,0.0164327666666666,0.01678215,-1.1582593333333333,0.4665772,1.206702,1.171687,24.0,-7.0,87.0,-14.0,0.0,232.0,-864.0,34.0,293.0,1018.227,-1.115156,3014.0,0.0164327666666666,0.0101120398666666,0.01678215,-0.0163646566666666,-1.1582593333333333,0.02035768,35860.0,29373.0,8870.0,9.0,-4.0,104.0,0,None
2023-01-03 19:03:24.800,100.357,0.5,100.0,1125.5,24545.0,4865.0,99.0,1066.5,38.5,4866.5,-175.0539,0.29810725,0.0182368966666666,0.00083906375,-1.0808425833333333,36.29083333333334,0.0199751108333333,0.0040331664999999,-1.1565886666666667,0.44688235,1.1608015,1.922257,-26.0,-32.5,90.5,-4.0,30.5,250.5,-1013.0,-22.0,328.0,1018.137,-1.205664,3017.0,0.0199751108333333,-0.00665971625,0.0040331664999999,-0.0126489109166666,-1.1565886666666667,0.0038333081666666,36380.0,29367.5,9390.0,4.5,7.0,30.5,0,None
2023-01-03 19:03:25.350,101.107,0.5,100.0,1153.0,24535.0,4837.0,99.0,1157.0,41.0,4877.0,-178.6498,0.295927,0.006156511,-0.0057369694999999,-1.0876235,36.615,0.0094491105,-0.000950364,-1.160451,0.5529959,1.150486,2.356552,-13.0,53.0,94.0,-54.0,9.0,232.0,-1053.0,-19.0,324.0,1018.057,-1.284844,3019.0,0.0094491105,-0.0038372944999999,-0.000950364,0.04078919,-1.160451,-0.0021681765,36670.0,29341.0,9680.0,-5.0,9.0,3.0,0,None
2023-01-03 19:03:25.900,101.607,0.5,100.0,1131.0,24513.0,4882.0,99.0,1103.0,42.0,4879.0,179.3522,0.2974726,0.0037694476666666,0.01645119,-1.0963686666666668,36.75,0.0069935046666666,0.01963701,-1.167668666666667,0.3412066,0.8710921,2.028075,0.0,27.0,108.0,-30.0,-9.0,257.0,-1053.0,-2.0,316.0,1018.061,-1.281094,3022.0,0.0069935046666666,-0.0113293205666666,0.01963701,0.0379053166666666,-1.167668666666667,-0.02035486,36780.0,29293.0,9790.0,-3.0,8.0,-8.0,0,None
2023-01-03 19:03:26.450,102.107,0.5,100.0,1151.0,24537.0,4850.0,99.0,1144.0,44.0,4875.0,176.4391,0.299497,0.0058049404999999,0.0233738699999999,-1.103953,36.835,0.0083910785,0.025990895,-1.173574,0.5246546,1.056288,1.701994,-12.0,-14.0,91.0,11.0,10.0,254.0,-1086.0,7.0,315.0,1018.065,-1.277734,3023.0,0.0083910785,0.0064854505,0.025990895,-0.012626598,-1.173574,-0.0062629345,36850.0,29279.0,9860.0,4.0,10.0,-15.0,0,None
2023-01-03 19:03:27.000,102.608,0.5010000000000048,100.0,1143.0,24516.0,4879.0,99.0,1147.0,46.0,4872.0,174.1462,0.2984607,0.0071390659999999,0.018848,-1.1038883333333331,36.87,0.009696296,0.02132127,-1.1717423333333332,0.2972255,1.24447,1.972887,-25.0,-21.0,94.0,4.0,-19.0,245.0,-1083.0,-9.0,283.0,1018.02,-1.321953,3025.0,0.009696296,0.0018171233333333,0.02132127,-0.0023557936666666,-1.1717423333333332,0.00169421,36880.0,29296.0,9890.0,12.0,12.0,-19.0,0,None
2023-01-03 19:03:27.550,103.107,0.4989999999999952,100.0,1100.0,24516.0,4869.0,99.0,1129.0,47.0,4862.0,169.8097,0.2935705,0.011717321,0.019813705,-1.105193,36.895,0.014176425,0.022965495,-1.1711520000000002,0.373981,1.1449,2.538932,13.0,11.0,94.0,-50.0,44.0,241.0,-1084.0,14.0,290.0,1018.054,-1.288594,3026.0,0.014176425,0.0274309675,0.022965495,0.0077811825,-1.1711520000000002,-0.0147996585,36900.0,29284.0,9910.0,18.0,16.0,-20.0,0,None
2023-01-03 19:03:28.100,103.607,0.5,100.0,1141.0,24506.0,4882.0,99.0,1110.0,49.0,4883.0,166.1728,0.2890497,0.01229123,0.009954381,-1.107019,36.90333333333333,0.0152465,0.0133664753333333,-1.1716263333333332,0.5489976,0.8127539,2.09885,-5.0,-23.0,81.0,-2.0,5.0,256.0,-1086.0,7.0,351.0,1018.056,-1.286562,3028.0,0.0152465,0.0091777203333333,0.0133664753333333,-0.023478,-1.1716263333333332,0.0130859983666666,36910.0,29290.0,9920.0,23.0,17.0,-21.0,0,None
2023-01-03 19:03:28.650,104.107,0.5,100.0,1128.0,24504.0,4871.0,99.0,1129.0,50.0,4879.0,160.0626,0.2840299,0.018381845,-0.0031487859999999,-1.1022470000000002,36.915,0.0210178499999999,0.0006281985,-1.164931,0.3563408,1.10807,2.360148,-21.0,-16.0,86.0,-2.0,21.0,236.0,-1107.0,-20.0,322.0,1018.032,-1.309922,3029.0,0.0210178499999999,0.02767982,0.0006281985,-0.03393123,-1.164931,0.040995985,36920.0,29332.0,9930.0,20.0,17.0,-21.0,0,None
2023-01-03 19:03:29.200,104.607,0.5,100.0,1082.0,24528.0,4882.0,99.0,1067.0,52.0,4880.0,156.0193,0.2839061,0.0235511166666666,-0.0110440466666666,-1.1000793333333334,36.93,0.0263045533333333,-0.006768836,-1.1605753333333333,0.5868912,0.811727,1.599046,11.0,-7.0,84.0,-30.0,-13.0,235.0,-1079.0,15.0,322.0,1018.066,-1.276484,3032.0,0.0263045533333333,0.0112959460333333,-0.006768836,-0.00256686,-1.1605753333333333,-0.0025434066666666,36930.0,29360.0,9940.0,12.0,18.0,-23.0,0,None
2023-01-03 19:03:29.750,105.107,0.5,100.0,1089.0,24528.0,4871.0,99.0,1101.0,53.0,4879.0,150.6707,0.2905196,0.025143785,-0.011143564,-1.0991879999999998,36.93,0.028040495,-0.006955975,-1.1578475,0.5519598,0.6555794,4.153107,13.0,27.0,86.0,-12.0,13.0,244.0,-1066.0,9.0,306.0,1018.038,-1.304531,3033.0,0.028040495,0.00330506305,-0.006955975,0.02713466,-1.1578475,0.004303364,36930.0,29354.0,9940.0,2.0,19.0,-22.0,0,None
2023-01-03 19:03:30.300,105.607,0.5,100.0,1056.0,24526.0,4879.0,99.0,1081.0,55.0,4882.0,147.6393,0.2991648,0.0257016866666666,-0.0070438756666666,-1.1029723333333332,36.92333333333333,0.0290296633333333,-0.0034463543333333,-1.1607143333333332,0.7305639,0.9128279,3.075473,-20.0,-12.0,89.0,-10.0,43.0,248.0,-1067.0,-27.0,345.0,1018.058,-1.284297,3035.0,0.0290296633333333,-0.00899928,-0.0034463543333333,-0.0093459313333333,-1.1607143333333332,0.0333584366666666,36920.0,29352.0,9930.0,-6.0,21.0,-23.0,0,None
2023-01-03 19:03:30.850,106.377,0.509999999999998,100.0,1090.0,24431.5,4791.0,99.0,1154.5,57.0,4873.0,141.87245,0.32268905,0.0227297098333333,0.0070696765,-1.09575725,36.905,0.0255160983333333,0.0109405455833332,-1.1513136666666668,0.49818205,1.14447285,2.3724015,-7.5,15.0,94.5,-24.5,-22.5,241.5,-1085.0,-11.0,326.0,1018.064,-1.2784375,3037.0,0.0255160983333333,0.0078673485,0.0109405455833332,0.0298200429999999,-1.1513136666666668,0.0182663611666666,36900.0,29406.5,9910.0,-17.5,22.5,-21.5,0,None
2023-01-03 19:03:31.400,107.147,0.5200000000000102,100.0,1177.0,24476.0,4871.0,99.0,1154.0,59.0,4883.0,136.4178,0.3493474,0.009323583,0.028130305,-1.1059905,36.905,0.013039055,0.031856425,-1.1599075,0.4444194,1.054633,5.252293,8.0,65.0,102.0,-34.0,7.0,217.0,-1097.0,-24.0,287.0,1018.022,-1.320625,3039.0,0.013039055,0.002434745,0.031856425,0.0253040199999999,-1.1599075,-0.0211769144999999,36910.0,29344.0,9920.0,-16.0,21.0,-22.0,0,None
2023-01-03 19:03:31.950,107.647,0.5,100.0,1187.0,24455.0,4883.0,99.0,1184.0,61.0,4875.0,133.8935,0.3630478,0.0110629166666666,0.0244497166666666,-1.1059943333333333,36.92,0.0147143533333333,0.0278450566666666,-1.1580173333333332,0.368288,0.8723122,3.471024,4.0,-10.0,100.0,-14.0,-16.0,256.0,-1088.0,9.0,331.0,1018.044,-1.298437,3041.0,0.0147143533333333,0.0078185127184666,0.0278450566666666,0.005301769,-1.1580173333333332,0.0127455103333333,36920.0,29371.0,9930.0,-10.0,18.0,-23.0,0,None
2023-01-03 19:03:32.500,108.167,0.519999999999996,100.0,1144.0,24411.0,4875.0,99.0,1175.0,63.0,4883.0,130.333,0.3834711,0.016002075,0.029273055,-1.1099145,36.935,0.019810235,0.03303625,-1.1597135,0.3469256,0.7387524,3.562345,9.0,37.0,105.0,-72.0,36.0,259.0,-1092.0,-30.0,306.0,1018.016,-1.326406,3043.0,0.019810235,0.0066657099999999,0.03303625,0.01857278285,-1.1597135,-0.024975075,36940.0,29362.0,9950.0,-6.0,19.0,-24.0,0,None
2023-01-03 19:03:33.050,108.668,0.5010000000000048,100.0,1140.0,24438.0,4882.0,99.0,1159.0,64.0,4882.0,126.7241,0.4039141,0.0149103,0.0273430766666666,-1.1111986666666664,36.94,0.0185545433333333,0.0315970766666666,-1.1592233333333333,0.3892719,1.268344,2.954746,-1.0,5.0,99.0,-16.0,-16.0,277.0,-1073.0,-23.0,343.0,1018.049,-1.293828,3044.0,0.0185545433333333,0.0099022486666666,0.0315970766666666,0.0027472478666666,-1.1592233333333333,-0.0157008223333333,36940.0,29344.0,9950.0,-1.0,18.0,-24.0,0,None
2023-01-03 19:03:33.600,109.187,0.5189999999999912,100.0,1084.0,24344.0,4877.0,99.0,1191.0,66.0,4882.0,124.2285,0.4176461,0.0063863635,0.03437029,-1.1143495,36.94,0.0092722645,0.039072525,-1.1606424999999998,0.5907426,1.139672,4.735327,19.0,33.0,93.0,-13.0,-20.0,257.0,-1003.0,14.0,297.0,1018.039,-1.303594,3046.0,0.0092722645,-0.0089197695,0.039072525,-0.017798335,-1.1606424999999998,0.0358391449999999,36930.0,29372.0,9940.0,6.0,18.0,-24.0,0,None
2023-01-03 19:03:34.150,109.687,0.5,100.0,1186.0,24424.0,4888.0,99.0,1194.0,68.0,4882.0,120.3973,0.4374194,0.0058588274333333,0.013133383,-1.1035583333333334,36.93,0.00873577,0.01817821,-1.1485783333333333,0.5857849,0.9853091,2.585712,-2.0,-67.0,94.0,-77.0,37.0,246.0,-1082.0,43.0,279.0,1018.055,-1.287422,3047.0,0.00873577,0.0184256683333333,0.01817821,-0.0315509333333333,-1.1485783333333333,0.0062342989999999,36930.0,29439.0,9940.0,6.0,13.0,-23.0,0,None
2023-01-03 19:03:34.700,110.207,0.519999999999996,100.0,1125.0,24461.0,4871.0,99.0,1168.0,69.0,4875.0,118.002,0.450204,0.0151143499999999,0.018761685,-1.112483,36.945,0.0185404799999999,0.02411016,-1.1567785000000002,0.4924014,1.817841,6.757712,-10.0,50.0,97.0,-15.0,13.0,264.0,-1145.0,-90.0,326.0,1018.035,-1.307187,3049.0,0.01774035,-0.00365402,0.0235391699999999,0.036440965,-1.1564075,-0.07584386,36940.0,29343.0,9950.0,4.0,12.0,-24.0,0,None
2023-01-03 19:03:35.250,110.708,0.5010000000000048,100.0,1143.0,24299.0,4879.0,99.0,1142.0,71.0,4871.0,114.6165,0.4697806,0.005227697,0.0167723733333333,-1.1268223333333334,36.94,0.0085116936666666,0.0217749233333333,-1.1698166666666665,0.4301021,1.081257,6.743047,25.0,-27.0,85.0,-25.0,0.0,233.0,-1114.0,-26.0,302.0,1018.03,-1.312266,3050.0,0.0085116936666666,-0.05622071,0.0217749233333333,-0.0126262633333333,-1.1698166666666665,-0.0234129833333333,36930.0,29270.0,9940.0,7.0,8.0,-22.0,0,None
2023-01-03 19:03:35.800,111.228,0.519999999999996,100.0,1340.0,24379.0,4851.0,99.0,1357.0,73.0,4877.0,112.3788,0.4837883,-0.121554265,0.0098782075,-1.1466525,36.99,-0.117371825,0.01571666,-1.1883665,0.531065,1.284855,3.682238,11.0,-36.0,108.0,-36.0,-490.0,246.0,-1184.0,-15.0,296.0,1018.037,-1.305391,3052.0,-0.117371825,-0.39127495,0.01571666,-0.042675645,-1.1883665,-0.023817315,37040.0,29150.0,10050.0,27.0,-44.0,18.0,0,None
2023-01-03 19:03:36.350,111.748,0.5200000000000102,100.0,1609.0,24283.0,4738.0,99.0,1599.0,75.0,4885.0,109.588,0.5154403,-0.2116998666666666,0.0116239893333333,-1.155644,37.35,-0.2033514333333333,0.0164469666666666,-1.196161,0.3371021,1.87398,7.207717,-6.0,22.0,148.0,-56.0,-72.0,240.0,-1318.0,-20.0,270.0,1017.989,-1.353203,3054.0,-0.2033514333333333,0.0047068269999999,0.0164469666666666,-0.0038895313333333,-1.196161,0.0234415363333333,37540.0,29168.0,10550.0,74.0,-167.0,106.0,0,None
2023-01-03 19:03:36.900,112.269,0.5210000000000008,100.0,1517.0,24304.0,4877.0,99.0,1532.0,77.0,4882.0,107.5023,0.5508313,-0.16987445,0.015740305,-1.1295765000000002,38.145,-0.1639283,0.01960474,-1.168301,0.3795199,1.155293,6.346317,-28.0,49.0,154.0,-107.0,109.0,257.0,-1143.0,82.0,256.0,1017.94,-1.4025,3055.0,-0.1639283,0.1162703,0.01960474,0.006312865,-1.168301,0.0630518,38440.0,29352.0,11450.0,115.0,-265.0,155.0,0,None
2023-01-03 19:03:37.450,112.788,0.5189999999999912,100.0,1373.0,24351.0,4888.0,99.0,1427.0,79.0,4887.0,106.2269,0.5736176,-0.1488150333333333,0.0073335923333333,-1.124175,39.10666666666666,-0.1466730666666666,0.0124996333333333,-1.160491,0.3684796,0.8909858,4.307127,-20.0,-9.0,153.0,-70.0,1.0,228.0,-1036.0,9.0,245.0,1017.842,-1.499922,3057.0,-0.1466730666666666,-0.0132417633333333,0.0124996333333333,-0.02702343,-1.160491,-0.0217809563333333,39420.0,29338.0,12430.0,141.0,-332.0,161.0,0,None
2023-01-03 19:03:38.000,113.309,0.5210000000000008,100.0,1338.0,24238.0,4734.0,99.0,1392.0,81.0,4882.0,104.4573,0.6054272,-0.16638625,0.0059764375,-1.13683,40.085,-0.1651227,0.011274608,-1.1697705,0.4274536,1.379539,5.150832,-49.0,-12.0,133.0,-35.0,-33.0,233.0,-1081.0,-58.0,268.0,1017.721,-1.62125,3058.0,-0.1651227,-0.021697657,0.011274608,0.02103184,-1.1697705,-0.02907122,40380.0,29286.0,13390.0,166.0,-402.0,161.0,0,None
2023-01-03 19:03:38.550,113.848,0.5390000000000015,100.0,1412.0,24317.5,4880.5,99.0,1447.0,83.0,4875.0,103.354,0.6250929,-0.1837631666666666,0.0079407793333333,-1.1415593333333334,40.99333333333333,-0.1823799666666666,0.013151291,-1.1713146666666665,0.5314761,1.082726,4.391765,-45.0,-4.5,149.0,-38.0,-11.0,235.0,-1122.5,-9.0,263.5,1017.5885,-1.75375,3060.0,-0.1823799666666666,0.0009727533333333,0.013151291,-0.0187624799999999,-1.1713146666666665,-0.0019075523333333,41280.0,29289.0,14290.0,196.0,-472.0,163.0,0,None
2023-01-03 19:03:39.100,114.629,0.5204999999999984,100.0,1435.5,24300.0,4870.5,99.0,1408.0,86.0,4890.5,100.93755,0.665269,-0.1780015249999999,0.0072935216666666,-1.1418174166666666,42.611666666666665,-0.1775730416666666,0.0144616766666666,-1.16800075,0.4705017,1.0753695,4.378552,-75.5,47.5,140.0,-44.0,52.5,234.0,-1124.5,-12.5,272.0,1017.359,-1.9834375,3063.0,-0.1775730416666666,0.01970945875,0.0144616766666666,0.0108666648333332,-1.16800075,-0.0051078490833333,42715.0,29314.0,15725.0,232.0,-577.5,163.5,0,None
2023-01-03 19:03:39.650,115.41,0.5210000000000008,100.0,1301.0,24180.0,4874.0,99.0,1432.0,89.0,4740.0,99.08546,0.6929029,-0.1629076666666666,0.0137506566666666,-1.14505,44.06666666666666,-0.1636301666666666,0.0211044133333333,-1.1693203333333333,0.5258002,1.086176,4.753878,-73.0,19.0,150.0,-8.0,74.0,229.0,-1057.0,6.0,252.0,1017.195,-2.146797,3065.0,-0.1636301666666666,-0.0168018666666666,0.0211044133333333,0.00696648,-1.1693203333333333,0.0042285846666666,44170.0,29296.0,17180.0,262.0,-660.0,168.0,0,None
2023-01-03 19:03:40.200,115.91,0.5,100.0,1377.0,24238.0,4864.0,99.0,1346.0,91.0,4871.0,97.45569,0.7145925,-0.16753955,0.01955637,-1.14942,45.04,-0.1689195,0.02762751,-1.1723955,0.6109635,1.080532,7.715135,-99.0,6.0,148.0,-55.0,19.0,227.0,-1096.0,-15.0,251.0,1017.095,-2.246953,3067.0,-0.1689195,0.0007035645,0.02762751,-0.0028194225,-1.1723955,-0.030572375,45150.0,29278.0,18160.0,286.0,-705.0,166.0,0,None
2023-01-03 19:03:40.750,116.45,0.5400000000000063,100.0,1325.0,24301.0,4875.0,99.0,1320.0,93.0,4861.0,96.34001,0.7287809,-0.1698499333333333,0.0147794833333333,-1.154559,45.98,-0.1707305,0.0240616433333333,-1.1770423333333333,0.6646346,0.8281938,7.361683,-97.0,29.0,149.0,-59.0,29.0,243.0,-1077.0,-13.0,255.0,1016.97,-2.372266,3068.0,-0.1707305,-0.0073478236666666,0.0240616433333333,-0.0079851853333333,-1.1770423333333333,-0.0130922076666666,46080.0,29246.0,19090.0,305.0,-746.0,171.0,0,None
2023-01-03 19:03:41.300,116.95,0.5,100.0,1212.0,24305.0,4879.0,99.0,1295.0,95.0,4883.0,94.66291,0.7498313,-0.16318765,0.014833025,-1.153987,46.94,-0.1640231,0.02434248,-1.1750474999999998,0.5595769,0.987066,6.788841,-112.0,-32.0,167.0,-9.0,0.0,227.0,-1093.0,-35.0,249.0,1016.867,-2.475078,3070.0,-0.1640231,0.04056634525,0.02434248,0.0053825449999999,-1.1750474999999998,-0.021510372,47060.0,29272.0,20070.0,322.0,-782.0,164.0,0,None
2023-01-03 19:03:41.850,117.45,0.5,100.0,1279.0,24270.0,4890.0,99.0,1212.0,97.0,4871.0,93.5554,0.7638787,-0.1576277333333333,0.0159854333333333,-1.152313333333333,47.86666666666667,-0.1585825666666666,0.0261690466666666,-1.1729936666666667,0.653119,1.207998,9.777997,-114.0,-7.0,148.0,-45.0,2.0,239.0,-992.0,18.0,287.0,1016.762,-2.579922,3071.0,-0.1585825666666666,0.02033115,0.0261690466666666,0.0123931366666666,-1.1729936666666667,0.0023397066666666,47970.0,29288.0,20980.0,337.0,-813.0,170.0,0,None
2023-01-03 19:03:42.400,117.97,0.519999999999996,100.0,1201.0,24217.0,4719.0,99.0,1279.0,99.0,4738.0,91.92823,0.7849252,-0.1537274,0.0154253,-1.151513,48.785,-0.15543695,0.0254421999999999,-1.1710555,0.7178531,1.04575,7.026113,-117.0,-28.0,143.0,-60.0,19.0,244.0,-1156.0,-4.0,289.0,1016.616,-2.726484,3072.0,-0.15543695,0.029416615,0.0254421999999999,-0.03282522,-1.1710555,-0.0130795845,48900.0,29289.0,21910.0,347.0,-835.0,163.0,0,None
2023-01-03 19:03:42.950,118.471,0.5010000000000048,100.0,1298.0,24254.0,4883.0,99.0,1303.0,100.0,4880.0,90.32079,0.8073623,-0.1530101333333333,0.0213398,-1.1538450000000002,49.73333333333333,-0.1545066666666666,0.0319355766666666,-1.1711503333333333,0.7229283,1.121919,10.23808,-102.0,-16.0,130.0,-12.0,46.0,250.0,-1162.0,-3.0,297.0,1016.506,-2.836484,3074.0,-0.1545066666666666,-0.0284549333333333,0.0319355766666666,0.07534988,-1.1711503333333333,-0.0088422473333333,49850.0,29292.0,22860.0,354.0,-859.0,165.0,0,None
2023-01-03 19:03:43.500,118.99,0.5189999999999912,100.0,1235.0,24352.0,4859.0,99.0,1170.0,102.0,4883.0,89.27089,0.8231333,-0.1575843499999999,0.028097665,-1.154922,50.7,-0.15928005,0.03770039,-1.1696650000000002,0.7469882,1.371346,7.74929,-122.0,-6.0,147.0,-45.0,10.0,272.0,-997.0,-10.0,313.0,1016.382,-2.960391,3076.0,-0.15928005,0.059304245,0.03770039,-0.0031425984,-1.1696650000000002,-0.006355754,50810.0,29298.0,23820.0,364.0,-879.0,165.0,0,None
2023-01-03 19:03:44.050,119.511,0.5210000000000008,100.0,1276.0,24234.0,4883.0,99.0,1328.0,104.0,4879.0,87.78317,0.848125,-0.1487672,0.0411398366666666,-1.157017,51.67666666666667,-0.1498118,0.04935302,-1.1696350000000002,0.7592029,1.034596,5.731952,-128.0,11.0,146.0,-47.0,-24.0,268.0,-1137.0,-28.0,307.0,1016.265,-3.077109,3077.0,-0.1498118,0.0350691879999999,0.04935302,0.02453514,-1.1696350000000002,0.02520017,51780.0,29297.0,24790.0,375.0,-895.0,158.0,0,None
2023-01-03 19:03:44.600,120.031,0.5200000000000102,100.0,1366.0,24302.0,4882.0,99.0,1404.0,106.0,4875.0,86.84792,0.8658901,-0.1448557,0.0408695149999999,-1.155745,52.67,-0.1465452,0.048756485,-1.1673105,0.6509263,1.258557,8.094291,-133.0,-29.0,133.0,-18.0,22.0,272.0,-1127.0,-8.0,312.0,1016.161,-3.181484,3079.0,-0.1465452,0.0554861799999999,0.048756485,-0.034112345,-1.1673105,0.005689545,52770.0,29314.0,25780.0,394.0,-908.0,155.0,0,None
2023-01-03 19:03:45.150,120.571,0.539999999999992,100.0,1178.0,24261.0,4877.0,99.0,1254.0,108.0,4871.0,85.56343,0.8949452,-0.1355545,0.0276866333333333,-1.1571673333333334,53.66666666666666,-0.1364461666666666,0.0348193766666666,-1.1658989999999998,0.7616794,1.149893,6.638162,-157.0,42.0,139.0,-46.0,79.0,261.0,-1103.0,-9.0,301.0,1016.088,-3.254531,3080.0,-0.1364461666666666,0.0373343866666666,0.0348193766666666,-3.692333333333436e-05,-1.1658989999999998,-0.00132750311,53720.0,29324.0,26730.0,409.0,-916.0,159.0,0,None
2023-01-03 19:03:45.700,121.092,0.5210000000000008,100.0,1252.0,24359.0,4877.0,99.0,1092.0,109.0,4875.0,84.40706,0.9257918,-0.13934985,0.01392675,-1.157316,54.68,-0.14121465,0.02224393,-1.1646545,0.7721093,1.034335,10.38523,-136.0,-51.0,132.0,-7.0,39.0,215.0,-1031.0,9.0,271.0,1015.992,-3.350703,3081.0,-0.14121465,-0.042883475,0.02224393,-0.0091875515,-1.1646545,-0.0008335349999999,54740.0,29329.0,27750.0,419.0,-920.0,161.0,0,None
2023-01-03 19:03:46.250,121.633,0.5409999999999968,100.0,1264.0,24309.0,4871.0,99.0,1188.0,111.0,4875.0,83.76188,0.9467528,-0.1318139,0.0084298523333333,-1.158551,55.623333333333335,-0.133535,0.0164889066666666,-1.1633616666666668,0.857318,0.9236894,10.23088,-148.0,-64.0,132.0,-18.0,132.0,257.0,-1028.0,-18.0,294.0,1015.894,-3.447969,3082.0,-0.133535,0.1307834433333333,0.0164889066666666,-0.0653895233333333,-1.1633616666666668,-0.0051953116666666,55680.0,29331.0,28690.0,422.0,-929.0,162.0,0,None
2023-01-03 19:03:46.800,122.133,0.5,100.0,670.0,24396.0,4883.0,99.0,916.0,113.0,4882.0,83.03166,0.9792185,0.030416152,0.005938795,-1.158184,56.51,0.0278697449999999,0.01291548,-1.160195,0.7592673,1.094545,5.953732,-152.0,45.0,103.0,-50.0,480.0,230.0,-962.0,-20.0,321.0,1015.845,-3.497422,3084.0,0.0278697449999999,0.2570845499999999,0.01291548,0.000464269,-1.160195,0.0026012349999999,56540.0,29355.0,29550.0,408.0,-902.0,133.0,0,None
2023-01-03 19:03:47.350,122.883,0.5,100.0,855.5,24491.0,4807.5,99.0,793.0,114.5,4881.5,82.66898,1.025282,0.1469539916666666,0.0103895406666666,-1.162461,57.0225,0.1400958566666666,0.0184670558333333,-1.158497,0.99212135,1.440666,8.67291,-122.0,-8.5,57.5,-63.0,158.0,246.0,-1065.0,-9.0,338.0,1015.8145,-3.527539,3085.5,0.1400958566666666,0.0473698566666666,0.0184670558333333,0.0317962775,-1.158497,-0.0042201922499999,57040.0,29359.5,30050.0,346.5,-780.5,24.5,0,None
2023-01-03 19:03:47.900,123.633,0.5,100.0,1118.0,24399.0,4895.0,99.0,987.0,116.0,4864.0,82.46916,1.072805,0.1423201333333333,0.0333514266666666,-1.1577156666666666,56.97666666666667,0.1374957333333333,0.04135338,-1.1444056666666669,1.261028,1.334015,8.534835,-76.0,-15.0,53.0,-66.0,-61.0,258.0,-1090.0,29.0,325.0,1015.789,-3.553125,3088.0,0.1374957333333333,-0.10382359,0.04135338,0.0104033816666666,-1.1444056666666669,0.0160079346666666,56970.0,29451.0,29980.0,279.0,-628.0,-5.0,0,None
2023-01-03 19:03:48.450,124.133,0.5,100.0,1073.0,24394.0,4882.0,99.0,1063.0,118.0,4740.0,82.31111,1.113587,0.08455801,0.025607555,-1.162502,56.945,0.08332773,0.0345371649999999,-1.142738,0.877201,1.084193,6.902499,-84.0,0.0,61.0,-27.0,-1569.1,239.0,-1153.0,-40.0,311.0,1015.729,-3.613437,3089.0,0.08332773,-0.0510922199999999,0.0345371649999999,-0.020924399,-1.142738,-0.03496431,56950.0,29452.0,29960.0,248.0,-548.0,-2.0,1,27_ygyro_avg_abrupt_-1409.1
2023-01-03 19:03:49.000,124.633,0.5,100.0,1005.0,24283.0,4735.0,99.0,1058.0,119.0,4851.0,82.19765,1.140161,0.0651908133333333,0.0262135033333333,-1.1700799999999998,57.01333333333333,0.0667751566666666,0.0346956766666666,-1.1455456666666668,0.5912383,1.33382,8.025822,-101.0,-13.0,75.0,-10.0,-1414.1,266.0,-1092.0,-11.0,329.0,1015.69,-3.652266,3091.0,0.0667751566666666,0.0210482073333333,0.0346956766666666,0.0065595873333333,-1.1455456666666668,0.0030327356666666,57020.0,29432.0,30030.0,226.0,-495.0,-6.0,1,27_ygyro_avg_abrupt_-1409.1
2023-01-03 19:03:49.550,125.133,0.5,100.0,1033.0,24419.0,4877.0,99.0,1060.0,121.0,4885.0,81.98006,1.178443,0.086161385,0.03293941,-1.172467,57.11,0.087643355,0.041457835,-1.1443055000000002,0.5629563,1.221681,7.616793,-32.0,7.0,65.0,-67.0,-1332.1,240.0,-953.0,7.0,302.0,1015.649,-3.693281,3092.0,0.087643355,0.054892775,0.041457835,0.03867527,-1.1443055000000002,0.00678760215,57120.0,29446.0,30130.0,203.0,-447.0,-14.0,1,27_ygyro_avg_abrupt_-1409.1
2023-01-03 19:03:50.100,125.633,0.5,100.0,1064.0,24388.0,4891.0,99.0,1039.0,122.0,4732.0,81.79186,1.202639,0.1155381333333333,0.03920579,-1.172284,57.19,0.1155895666666666,0.0475320666666666,-1.141841,0.6297266,0.7926613,8.184676,-51.0,-7.0,51.0,-40.0,-1399.1,236.0,-1000.0,12.0,312.0,1015.625,-3.717266,3094.0,0.1155895666666666,0.026351525,0.0475320666666666,-0.0062569986666666,-1.141841,0.0055012662666666,57190.0,29458.0,30200.0,182.0,-387.0,-21.0,1,27_ygyro_avg_abrupt_-1409.1
2023-01-03 19:03:50.650,126.153,0.5200000000000102,100.0,1070.0,24418.0,4882.0,99.0,1052.0,124.0,4895.0,81.46763,1.237529,0.1274115,0.038079685,-1.1722025,57.28,0.1275804999999999,0.04571886,-1.1396215,0.5784866,0.9668397,9.822695,-32.0,-12.0,50.0,-63.0,-1402.1,266.0,-1044.0,-2.0,321.0,1015.547,-3.794844,3095.0,0.1275804999999999,0.0005592949999999,0.04571886,-0.0106796249999999,-1.1396215,0.0106016209999999,57280.0,29471.0,30290.0,159.0,-319.0,-28.0,1,27_ygyro_avg_abrupt_-1409.1
2023-01-03 19:03:51.200,126.674,0.5210000000000008,100.0,1090.0,24410.0,4895.0,99.0,1048.0,125.0,4883.0,81.11214,1.271077,0.1282995333333333,0.02992752,-1.177116,57.370000000000005,0.1287260666666666,0.0374895066666666,-1.1424773333333331,0.5609145,1.136545,9.00788,-43.0,11.0,38.0,-16.0,-1416.1,243.0,-1070.0,-46.0,319.0,1015.577,-3.765078,3096.0,0.1287260666666666,-0.0027276253333333,0.0374895066666666,-0.0073404573333333,-1.1424773333333331,-0.0126252866666666,57380.0,29449.0,30390.0,134.0,-256.0,-39.0,1,27_ygyro_avg_abrupt_-1409.1
2023-01-03 19:03:51.750,127.193,0.5189999999999912,100.0,1140.0,24239.0,4879.0,99.0,1111.0,127.0,4888.0,80.86697,1.292855,0.1280033,0.03416167,-1.1783635,57.415,0.1285366,0.041734135,-1.1430135,0.5039713,1.002654,9.690312,-28.0,22.0,42.0,-35.0,-1413.1,269.0,-1100.0,-25.0,334.0,1015.612,-3.730078,3098.0,0.1285366,-0.01520768,0.041734135,0.0008110749999999,-1.1430135,0.0059028295,57420.0,29448.0,30430.0,111.0,-194.0,-45.0,1,27_ygyro_avg_abrupt_-1409.1
2023-01-03 19:03:52.300,127.733,0.5400000000000063,100.0,1145.0,24360.0,4890.0,99.0,1142.0,128.0,4895.0,80.50845,1.325022,0.1352716666666666,0.0295569866666666,-1.1859566666666668,57.41666666666666,0.1362927,0.0365744966666666,-1.1508736666666666,0.3562102,0.8263596,8.783251,-21.0,-2.0,43.0,-85.0,-1376.1,243.0,-1168.0,-37.0,300.0,1015.614,-3.728281,3099.0,0.1362927,0.0266207806666666,0.0365744966666666,-0.0037974533333333,-1.1508736666666666,-0.0286161,57420.0,29406.0,30430.0,86.0,-132.0,-43.0,1,27_ygyro_avg_abrupt_-1409.1
2023-01-03 19:03:52.850,128.233,0.5,100.0,1161.0,24361.0,4862.0,99.0,1158.0,130.0,4879.0,80.27961,1.346236,0.1525022,0.01657118,-1.197397,57.405,0.15342265,0.024046295,-1.1620435,0.4629614,1.497383,10.06949,17.0,-29.0,24.0,-1.0,-1407.1,236.0,-1066.0,-32.0,283.0,1015.633,-3.709453,3100.0,0.15342265,0.0605276349999999,0.024046295,-0.0156061405,-1.1620435,-0.034485215,57410.0,29336.0,30420.0,62.0,-76.0,-41.0,1,27_ygyro_avg_abrupt_-1409.1
2023-01-03 19:03:53.400,128.753,0.5199999999999818,100.0,1157.0,24356.0,4893.0,99.0,1139.0,132.0,4858.0,79.98537,1.378342,0.1615755,0.01189623,-1.206499,57.38666666666666,0.1628049666666666,0.0197629966666666,-1.1725656666666666,0.5209995,1.064457,6.591625,-1.0,-20.0,39.0,-70.0,-1363.1,264.0,-1036.0,-22.0,356.0,1015.62,-3.722109,3101.0,0.1628049666666666,-0.02252767,0.0197629966666666,0.02081922,-1.1725656666666666,0.0144370213333333,57390.0,29279.0,30400.0,28.0,-18.0,-38.0,1,27_ygyro_avg_abrupt_-1409.1
2023-01-03 19:03:53.950,129.274,0.521000000000015,100.0,1079.0,24385.0,4893.0,99.0,1099.0,133.0,4724.0,79.79355,1.411627,0.1087364,0.0185614233333333,-1.2043726666666668,57.38,0.1109202066666666,0.0254887066666666,-1.1712969999999998,0.5016354,1.331873,8.011404,32.0,-17.0,44.0,-19.0,-1498.1,252.0,-1078.0,40.0,295.0,1015.639,-3.703203,3103.0,0.1109202066666666,-0.06821315,0.0254887066666666,0.0106824173333333,-1.1712969999999998,-0.0147539723333333,57380.0,29296.0,30390.0,0.0,25.0,-36.0,1,27_ygyro_avg_abrupt_-1409.1
2023-01-03 19:03:54.500,130.0535,0.173333333333332,100.0,1026.5,24325.5,4814.0,99.0,1065.8333333333333,136.5,4889.833333333333,79.75730500000002,1.4547241666666668,0.06764194,0.03236851375,-1.2156094999999998,57.36625000000001,0.0716808125,0.0385875675,-1.1827415,0.45944,1.1578428833333332,6.049804166666667,27.166666666666668,25.33333333333333,54.333333333333336,-47.333333333333336,-1445.2666666666667,261.1666666666667,-1097.0,-20.666666666666668,311.8333333333333,1015.6153333333332,-3.727018166666667,3105.5,0.0716808125,0.0058053849999999,0.0385875675,0.010618930875,-1.1827415,0.0120948335624999,57375.0,29225.0,30385.0,-13.5,52.0,-35.5,1,27_ygyro_avg_abrupt_-1409.1
2023-01-03 19:03:55.050,130.614,0.0999999999999999,100.0,1048.0,24384.0,4869.0,99.0,1061.2,138.6,4881.6,79.800488,1.4882304,0.059622725,0.03320873,-1.2182875,57.35,0.063118645,0.0394477,-1.1849575,0.47908024,1.2836873999999998,6.703337199999998,28.6,-17.8,54.2,-22.6,-1392.8999999999999,277.6,-1085.8,14.8,331.4,1015.6465999999998,-3.6958592,3107.2,0.063118645,0.017326961,0.0394477,-0.010694326,-1.1849575,0.0077593055,57360.0,29215.0,30370.0,-14.0,61.0,-35.0,1,27_ygyro_avg_abrupt_-1409.1
2023-01-03 19:03:55.600,131.114,0.0999999999999999,100.0,1142.0,24246.0,4882.0,99.0,1065.6,140.2,4882.6,79.792378,1.5196165999999998,0.0578994533333333,0.0246618033333333,-1.2207893333333333,57.32666666666666,0.06061759,0.0309812866666666,-1.1869249999999998,0.6623211199999999,1.0938013999999998,6.955740999999999,15.2,0.8,51.4,-56.8,-1406.8999999999999,263.8,-1070.0,-14.4,313.6,1015.6483999999998,-3.6938124,3108.2,0.06061759,0.00882632,0.0309812866666666,-0.0035553133333333,-1.1869249999999998,-0.0169935116666666,57330.0,29206.0,30340.0,-16.0,63.0,-30.0,1,27_ygyro_avg_abrupt_-1409.1
2023-01-03 19:03:56.150,131.6965,0.1065000000000016,100.0,1080.5,24371.5,4882.0,99.0,1054.0,141.66666666666666,4846.333333333333,79.75124166666667,1.5515861666666666,0.0402768666666666,0.02385008,-1.2211513333333333,57.31,0.0425162833333333,0.0299654266666666,-1.1881903333333332,0.5262807666666666,1.2934283333333332,5.014572,25.25,4.833333333333333,62.583333333333336,-69.75,-1448.0166666666667,257.75,-1057.1666666666667,-15.833333333333334,307.0,1015.6590833333332,-3.68319,3110.0,0.0425162833333333,-0.0423336633333333,0.0299654266666666,-0.0012237606666666,-1.1881903333333332,-0.0185975299999999,57320.0,29199.0,30330.0,-17.0,65.0,-30.0,1,27_ygyro_avg_abrupt_-1409.1
2023-01-03 19:03:56.700,132.257,0.0999999999999999,100.0,1087.0,24382.0,4896.0,99.0,1042.0,143.4,4882.0,79.69970799999999,1.5827611999999998,0.029082375,0.020649765,-1.224685,57.285,0.03123974,0.02720253,-1.191725,0.56419866,0.8789429200000001,6.1382656,14.8,-3.0,65.4,-35.2,-1430.1,260.4,-1060.8,-23.2,316.0,1015.6772,-3.664828,3111.6,0.03123974,-0.012709201,0.02720253,0.010723959,-1.191725,-0.02605728,57300.0,29174.0,30310.0,-15.0,61.0,-28.0,1,27_ygyro_avg_abrupt_-1409.1
2023-01-03 19:03:57.250,132.7572,0.104000000000002,100.0,1106.0,24366.0,4887.0,99.0,1084.8,144.6,4881.2,79.64278199999998,1.6116472000000002,0.0272435566666666,0.02041524,-1.2204576666666669,57.25,0.0301579766666666,0.02657836,-1.1878993333333332,0.65589554,1.11085986,5.4261822,16.4,-17.0,64.2,-66.6,-1388.5,257.6,-1055.4,-5.8,308.8,1015.6652,-3.6768904,3112.6,0.0301579766666666,0.0098932326666666,0.02657836,-0.0152264976666666,-1.1878993333333332,-0.0062499533333333,57260.0,29185.0,30270.0,-12.0,52.0,-30.0,1,27_ygyro_avg_abrupt_-1409.1
2023-01-03 19:03:57.800,133.3371666666667,0.1068333333333318,100.0,1093.0,24247.0,4890.0,99.0,1096.1666666666667,146.5,4882.833333333333,79.54925666666668,1.6445183333333333,0.03003511,0.0127343166666666,-1.2088556666666666,57.22666666666667,0.03193492,0.0192466066666666,-1.1760243333333331,0.5128692666666667,1.419711333333333,5.333797833333333,12.333333333333334,5.0,61.833333333333336,-50.333333333333336,-1393.4333333333332,258.3333333333333,-1049.5,1.0,312.6666666666667,1015.6785,-3.663919,3113.833333333333,0.03193492,0.0073827266666666,0.0192466066666666,0.0011932299999999,-1.1760243333333331,-0.002424217,57225.0,29255.5,30235.0,-11.5,38.0,-25.0,1,27_ygyro_avg_abrupt_-1409.1
2023-01-03 19:03:58.350,133.893,0.0957999999999969,100.0,1087.0,24372.0,4890.0,99.0,1086.4,148.2,4891.8,79.467748,1.6710338,0.016110385,0.0146673899999999,-1.201706,57.22,0.01880946,0.02130882,-1.168212,0.49200054,1.14440862,4.9978878,23.2,6.6,70.4,-58.6,-1433.3,260.8,-1087.0,0.8,317.8,1015.6762,-3.6659374000000007,3115.4,0.01880946,-0.01897901735,0.02130882,0.015550885,-1.168212,0.018773095,57230.0,29295.0,30240.0,-12.0,25.0,-22.0,1,27_ygyro_avg_abrupt_-1409.1
2023-01-03 19:03:58.900,134.44333333333336,0.1001666666666665,100.0,1072.0,24385.0,4735.0,99.0,1060.5,149.83333333333334,4819.5,79.39453166666667,1.6943303333333333,0.01338571,0.01957072,-1.20484,57.23,0.0167042366666666,0.0265120066666666,-1.1727506666666665,0.3972212,1.0642775666666666,3.2061341666666663,16.166666666666668,14.5,78.16666666666667,-65.83333333333333,-1394.6,252.8333333333333,-1045.5,-3.8333333333333335,312.5,1015.681,-3.6615365,3116.6666666666665,0.0167042366666666,0.0056524123333333,0.0265120066666666,0.0158478799999999,-1.1727506666666665,0.0068005916666666,57230.0,29272.0,30240.0,-10.0,14.0,-25.0,1,27_ygyro_avg_abrupt_-1409.1
2023-01-03 19:03:59.450,135.01,0.104000000000002,100.0,1084.0,24372.0,4890.0,99.0,1084.0,151.6,4885.8,79.304874,1.7151618000000002,0.01557501,0.0225115433333333,-1.206697666666667,57.22,0.0188142533333333,0.02867462,-1.175442,0.50173852,0.78390138,6.1607156000000005,28.2,1.6,73.8,-25.8,-1397.3,260.4,-1040.2,1.8,306.4,1015.685,-3.6572654,3118.2,0.0188142533333333,-0.0026778880666666,0.02867462,0.0067401733333333,-1.175442,-0.0177808796666666,57210.0,29268.0,30220.0,-7.0,7.0,-25.0,1,27_ygyro_avg_abrupt_-1409.1
2023-01-03 19:04:00.000,135.564,0.099999999999999,100.0,1043.0,24370.0,4895.0,99.0,1054.0,153.33333333333334,4891.0,79.18095999999998,1.7342909999999998,0.01465857,0.0288861566666666,-1.2092446666666667,57.20333333333334,0.0176437599999999,0.0348973066666666,-1.1785880000000002,0.4428859,1.1437419999999998,5.4434955,27.83333333333333,7.833333333333333,78.5,-17.5,-1405.6,258.0,-1032.0,7.5,307.3333333333333,1015.6876666666668,-3.6546226666666666,3119.333333333333,0.0176437599999999,0.033655405,0.0348973066666666,0.0065182276666666,-1.1785880000000002,-0.0149671383333333,57200.0,29233.0,30210.0,-1.0,0.0,-21.0,1,27_ygyro_avg_abrupt_-1409.1
2023-01-03 19:04:00.550,136.114,0.0999999999999999,100.0,1065.0,24249.0,4748.0,99.0,1048.4,155.0,4892.4,79.01299800000001,1.7509728,0.01879225,0.02000737,-1.2049485,57.2,0.0224430649999999,0.02618415,-1.173843,0.50274048,0.95438494,4.565323,23.0,-31.4,74.2,-37.0,-1409.5,262.2,-1064.6,18.8,311.8,1015.7074,-3.634875,3120.6,0.0224430649999999,0.0270181325,0.02618415,-0.047392465,-1.173843,0.010300349,57200.0,29275.0,30210.0,7.0,-2.0,-21.0,1,27_ygyro_avg_abrupt_-1409.1
2023-01-03 19:04:01.100,136.638,0.104000000000002,100.0,1040.0,24373.0,4890.0,99.0,1049.6,156.4,4879.2,78.833962,1.7633523999999998,0.0224455566666666,0.008623955,-1.2023753333333334,57.196666666666665,0.02621782,0.01534671,-1.1713196666666663,0.4861186199999999,1.0492514,3.84149,13.3,6.3,73.3,-43.3,-1402.3999999999999,248.7,-1079.7,-4.5,323.6,1015.6989,-3.6434294,3121.8,0.02621782,-0.0005611907333333,0.01534671,-0.0048427666666666,-1.1713196666666663,0.0070431896666666,57190.0,29290.0,30200.0,7.0,-6.0,-19.0,1,27_ygyro_avg_abrupt_-1409.1
2023-01-03 19:04:01.650,137.20400000000004,0.103333333333334,100.0,1068.0,24356.0,4888.0,99.0,1034.3333333333333,158.0,4809.0,78.62409666666667,1.7760573333333334,0.0298188933333333,0.0155203499999999,-1.2056223333333334,57.19,0.0341307833333333,0.0227580333333333,-1.174297666666667,0.5612898333333334,1.1052494333333334,5.192001333333334,20.83333333333333,20.33333333333333,67.5,-61.333333333333336,-1381.9333333333332,254.5,-1011.5,-14.5,316.8333333333333,1015.7108333333334,-3.631445166666667,3123.333333333333,0.0341307833333333,-0.00892354,0.0227580333333333,0.0212719370933333,-1.174297666666667,-0.0281598853333333,57190.0,29278.0,30200.0,5.0,-11.0,-19.0,1,27_ygyro_avg_abrupt_-1409.1
2023-01-03 19:04:02.200,137.75799999999998,0.1039999999999963,100.0,1020.0,24360.0,4891.0,99.0,1052.2,159.6,4880.4,78.430238,1.7895134,0.045983185,0.021456005,-1.2100965,57.18,0.05030374,0.02839466,-1.178306,0.38330008,1.07608396,5.5861362,23.2,-5.4,61.4,-51.6,-1366.6999999999998,257.2,-1075.6,-5.6,312.0,1015.6976,-3.6447030000000007,3124.2,0.05030374,0.037244615,0.02839466,-0.0024542663,-1.178306,-0.015977175,57180.0,29253.0,30190.0,5.0,-13.0,-20.0,1,27_ygyro_avg_abrupt_-1409.1
2023-01-03 19:04:02.750,138.27800000000002,0.0999999999999999,100.0,1034.0,24231.0,4882.0,99.0,1069.6,161.0,4882.4,78.28661,1.806082,0.0545179899999999,0.0146899133333333,-1.209583,57.10333333333333,0.0594093166666666,0.02155627,-1.1778956666666665,0.55690802,1.10522464,5.182298,34.8,9.4,57.4,-58.2,-1412.3,249.4,-1074.8,5.2,319.0,1015.6934,-3.649031200000001,3125.6,0.0594093166666666,0.02003893,0.02155627,0.0045608383333333,-1.1778956666666665,-0.0175365699999999,57100.0,29253.0,30110.0,3.0,-9.0,-18.0,1,27_ygyro_avg_abrupt_-1409.1
2023-01-03 19:04:03.300,138.85066666666668,0.1066666666666691,100.0,1073.0,24362.0,4895.0,98.16666666666669,1064.3333333333333,162.83333333333334,4892.0,78.220015,1.822036,0.0581627566666666,0.0180493233333333,-1.2123223333333333,56.93,0.06275776,0.02480714,-1.1803616666666663,0.5297842833333333,0.88358925,4.988152,29.33333333333333,10.5,56.66666666666666,-49.0,-1392.9333333333332,256.8333333333333,-1051.6666666666667,11.0,314.8333333333333,1015.6961666666668,-3.6460806666666654,3126.833333333333,0.06275776,0.0023410663333333,0.02480714,0.0080294999999999,-1.1803616666666663,0.0055204066666666,56990.0,29237.0,30000.0,-1.0,-3.0,-18.0,1,27_ygyro_avg_abrupt_-1409.1
2023-01-03 19:04:03.850,139.41400000000002,0.0999999999999999,100.0,1059.0,24354.0,4890.0,98.0,1074.6,164.6,4829.4,78.19947199999999,1.83903,0.056780395,0.020325145,-1.206244,56.785,0.063052395,0.027383165,-1.174464,0.3788121400000001,1.22176562,4.939779799999999,30.0,11.0,58.0,-17.8,-25.8,251.6,-1091.8,31.2,316.2,1015.697,-3.6455312000000006,3128.2,0.063052395,-0.02265591,0.027383165,0.018236465,-1.174464,0.0291248,56810.0,29262.0,29820.0,-5.0,4.0,-20.0,0,None
2023-01-03 19:04:04.400,139.926,0.1039999999999963,100.0,1090.0,24291.0,4895.0,98.0,1088.4,166.2,4855.0,78.21675400000001,1.8565278,0.05340653,0.0259916066666666,-1.202432,56.66,0.0593900933333333,0.0330254733333333,-1.170521,0.4716507999999999,1.04721938,4.194463799999999,37.3,11.4,61.0,-45.1,-10.3,259.2,-1041.7,28.5,317.5,1015.6939,-3.6483435,3129.6,0.0593900933333333,-0.007868927,0.0330254733333333,0.0095376966666666,-1.170521,0.0248145366666666,56710.0,29289.0,29720.0,-9.0,10.0,-19.0,0,None
2023-01-03 19:04:04.950,140.446,0.104000000000002,100.0,1075.0,24344.0,4869.0,98.0,1078.6,167.6,4864.8,78.25210999999999,1.873663,0.0453619,0.032321825,-1.1990415,56.555,0.0513156949999999,0.0388257699999999,-1.1669,0.4394212,0.94194572,4.239383200000001,20.6,2.8,62.4,-45.6,-15.6,259.4,-1056.8,12.6,311.2,1015.6868,-3.6556092,3130.8,0.0513156949999999,-0.020276177,0.0388257699999999,0.0099692475,-1.1669,0.02856135,56570.0,29305.0,29580.0,-9.0,16.0,-21.0,0,None
2023-01-03 19:04:05.500,141.04066666666668,0.1066666666666691,100.0,1101.0,24172.0,4737.0,98.0,1076.0,169.33333333333334,4801.666666666667,78.30439000000001,1.898236,0.0390031574999999,0.0283324975,-1.1962160000000002,56.455,0.0463626775,0.0350009975,-1.163586,0.5367471333333333,1.097860983333333,3.9959535,14.0,-0.1666666666666666,65.33333333333333,-40.833333333333336,-10.0,259.6666666666667,-1072.1666666666667,-9.166666666666666,305.8333333333333,1015.6861666666668,-3.6560676666666665,3131.833333333333,0.0463626775,-0.0111216032499999,0.0350009975,-0.0047649029999999,-1.163586,0.00992338485,56455.0,29332.0,29465.0,-4.0,21.0,-22.0,0,None
2023-01-03 19:04:06.050,141.615,0.1041999999999973,100.0,1110.0,24309.0,4872.0,98.0,1075.4,171.2,4879.8,78.33740399999999,1.9186018,0.033672415,0.0232511249999999,-1.1990165,56.355,0.0410702,0.03037613,-1.166007,0.4762766399999999,1.08447858,4.490392,30.4,-3.6,64.4,-30.6,-8.8,263.0,-1114.8,-4.0,315.4,1015.6796,-3.662781,3133.2,0.0410702,0.00516898,0.03037613,-0.0021534254999999,-1.166007,-0.0084324055,56310.0,29310.0,29320.0,-2.0,20.0,-22.0,0,None
2023-01-03 19:04:06.600,142.115,0.0999999999999999,100.0,966.0,24365.0,4877.0,98.0,1076.6,172.6,4883.4,78.35879,1.9380862,0.0382543166666666,0.0240194533333333,-1.2035656666666668,56.29333333333333,0.04553276,0.0309727933333333,-1.170877,0.3844958,1.01105352,4.790291,26.4,-12.2,67.2,-43.0,20.0,260.4,-1110.2,8.4,305.6,1015.6876,-3.65475,3134.2,0.04553276,0.0659342533333333,0.0309727933333333,-0.0030932883333333,-1.170877,0.0016677003333333,56260.0,29294.0,29270.0,0.0,21.0,-25.0,0,None
2023-01-03 19:04:07.150,142.69733333333332,0.1098333333333319,100.0,1112.0,24261.0,4888.0,98.0,1131.0,174.5,4871.833333333333,78.37151833333333,1.9578736666666667,0.0421648466666666,0.0261642099999999,-1.1996203333333333,56.17333333333334,0.0492508633333333,0.0334432266666666,-1.166759,0.4771559333333333,1.251537116666667,6.179554833333333,32.0,16.083333333333332,60.333333333333336,-53.25,26.75,260.5833333333333,-1068.5,42.083333333333336,303.5833333333333,1015.6628333333334,-3.6795443333333337,3135.5,0.0492508633333333,-0.0042162133333333,0.0334432266666666,0.0098232223333333,-1.166759,0.0233634233333333,56170.0,29316.0,29180.0,-2.0,20.0,-24.0,0,None
2023-01-03 19:04:07.700,143.279,0.1002000000000008,100.0,1141.0,24280.0,4890.0,98.0,1149.8,176.2,4884.6,78.384664,1.982012,0.04101171,0.03375158,-1.192918,56.115,0.047749995,0.040897335,-1.159808,0.3528727,0.90623218,5.2731086,30.2,18.8,64.6,-43.8,7.8,257.8,-1033.0,7.2,317.2,1015.6682,-3.674328000000001,3137.2,0.047749995,0.02018974,0.040897335,0.0050638255,-1.159808,0.0073554865,56130.0,29355.0,29140.0,-1.0,24.0,-28.0,0,None
2023-01-03 19:04:08.250,143.77519999999998,0.0999999999999999,100.0,1096.0,24304.0,4890.0,98.0,1102.2,177.6,4859.0,78.38872,1.9998688,0.0258249833333333,0.03704191,-1.1899453333333334,56.06,0.0329181833333333,0.0434605466666666,-1.15813,0.43358874,1.0338238,4.792051799999999,27.4,-1.2,79.6,-16.8,-35.2,255.0,-1070.4,2.6,303.8,1015.6834,-3.6589218,3138.0,0.0329181833333333,-0.0257718966666666,0.0434605466666666,-0.0033371867,-1.15813,2.081366666666663e-05,56060.0,29363.0,29070.0,4.0,24.0,-23.0,0,None
2023-01-03 19:04:08.800,144.33533333333332,0.103333333333334,100.0,1105.0,24300.0,4895.0,98.0,1114.8333333333333,179.66666666666666,4890.166666666667,78.36807,2.020219,0.02475017,0.0264418,-1.188598,55.99,0.03249424,0.0327991966666666,-1.1565456666666667,0.4779602666666667,1.03253355,3.7350436666666655,27.666666666666668,-16.0,77.83333333333333,-67.5,23.33333333333333,254.8333333333333,-1066.8333333333333,-8.5,310.0,1015.6708333333336,-3.671354166666666,3139.0,0.03249424,0.0005025699999999,0.0327991966666666,-0.0260420176666666,-1.1565456666666667,-0.0157579533333333,56010.0,29369.0,29020.0,10.0,19.0,-23.0,0,None
2023-01-03 19:04:09.350,144.895,0.0999999999999999,100.0,1150.0,24178.0,4895.0,98.0,1122.2,181.2,4894.2,78.31664,2.0394584,0.0369403799999999,0.019079815,-1.1879620000000002,55.95,0.044379945,0.025738965,-1.1557325,0.4481922799999999,1.16739006,3.6386556,29.0,2.8,70.4,-33.6,24.0,253.8,-1045.8,15.6,313.8,1015.6452,-3.6969532,3140.2,0.044379945,-0.0106446,0.025738965,-0.012599913,-1.1557325,-0.0070495215,55960.0,29377.0,28970.0,10.0,15.0,-25.0,0,None
2023-01-03 19:04:09.900,145.45933333333332,0.103666666666669,100.0,1088.0,24323.0,4891.0,98.0,1095.1666666666667,183.0,4892.333333333333,78.262635,2.056973,0.0338806633333333,0.02678599,-1.1935176666666667,55.91666666666666,0.0412848399999999,0.0332250433333333,-1.1614823333333333,0.5581082666666667,0.8980483333333332,4.428197666666667,27.166666666666668,31.33333333333333,74.0,-30.33333333333333,-5.666666666666667,260.1666666666667,-1061.8333333333333,-19.5,319.8333333333333,1015.6611666666668,-3.681236833333333,3141.5,0.0412848399999999,-0.0239147266666666,0.0332250433333333,0.02110666,-1.1614823333333333,-0.0280614693333333,55930.0,29358.0,28940.0,4.0,15.0,-27.0,0,None
2023-01-03 19:04:10.450,146.017,0.0999999999999999,100.0,1149.0,24286.0,4891.0,98.0,1124.6,184.8,4800.6,78.212586,2.073716,0.03191229,0.03542648,-1.1984506666666668,55.86333333333334,0.0397091533333333,0.0418006166666666,-1.1656133333333334,0.5230091399999999,1.3128968,4.5174166,34.8,2.8,64.4,-9.4,-4.6,269.2,-1062.0,16.4,315.0,1015.646,-3.6964686,3142.4,0.0397091533333333,0.0183609433333333,0.0418006166666666,-0.005997619,-1.1656133333333334,-0.0157881466666666,55880.0,29313.0,28890.0,4.0,12.0,-28.0,0,None
2023-01-03 19:04:11.000,146.53300000000002,0.1039999999999963,100.0,1135.0,24289.0,4896.0,98.0,1111.0,186.4,4875.8,78.15659000000001,2.089713,0.02761663,0.0370092199999999,-1.1986335,55.82,0.035639775,0.043172005,-1.16503,0.5417038,1.10717524,4.8174944,17.1,-18.2,68.3,-59.5,-2.8,267.2,-1086.6,-8.7,303.7,1015.6588,-3.6834687,3143.5,0.035639775,-0.0020331309999999,0.043172005,0.032441765,-1.16503,0.004933285,55840.0,29330.0,28850.0,9.0,9.0,-27.0,0,None
2023-01-03 19:04:11.550,147.09033333333335,0.103333333333334,100.0,1061.0,24294.0,4895.0,98.0,1082.5,188.16666666666663,4878.166666666667,78.08303,2.106666833333333,0.0391831033333333,0.0255448166666666,-1.2001866666666667,55.77,0.0473725833333333,0.0315280933333333,-1.166402,0.4956635166666666,0.94306135,4.7845838333333335,39.66666666666666,-19.0,63.5,-44.66666666666666,37.66666666666666,255.0,-1071.8333333333333,-5.833333333333333,297.0,1015.658,-3.684101666666667,3144.6666666666665,0.0473725833333333,0.0388020566666666,0.0315280933333333,-0.0261027916666666,-1.166402,-0.0030858633333333,55770.0,29309.5,28780.0,14.5,5.5,-27.5,0,None
2023-01-03 19:04:12.100,147.64280000000002,0.1006000000000028,100.0,1052.0,24134.0,4746.0,98.0,1060.8,189.6,4882.4,78.003962,2.123646,0.0463620433333333,0.01983328,-1.2045693333333334,55.71,0.0543240966666666,0.02735251,-1.1711913333333337,0.49796384,1.05357898,5.4108236000000005,31.4,11.6,64.6,-23.6,-31.2,256.2,-1064.8,0.8,315.6,1015.6658,-3.6763906,3146.0,0.0543240966666666,0.00034573,0.02735251,0.0055009364666666,-1.1711913333333337,-0.012706335,55690.0,29285.0,28700.0,11.0,10.0,-28.0,0,None
2023-01-03 19:04:12.650,148.19333333333336,0.0966666666666639,100.0,1033.5,24326.5,4890.5,98.0,1050.8333333333333,191.3333333333333,4874.0,77.93853333333333,2.140802,0.0414087833333333,0.0229602566666666,-1.205277,55.64666666666667,0.04876684,0.0302739533333333,-1.1716313333333332,0.536613,1.07190385,4.894478666666666,29.666666666666668,1.5,63.833333333333336,-50.66666666666666,-32.666666666666664,257.1666666666667,-1054.3333333333333,7.166666666666667,321.1666666666667,1015.6746666666668,-3.6676561666666654,3147.0,0.04876684,0.0011985216666666,0.0302739533333333,-0.007619438,-1.1716313333333332,-0.0076759676666666,55640.0,29284.0,28650.0,10.0,14.0,-26.0,0,None
2023-01-03 19:04:13.200,148.744,0.0999999999999999,100.0,983.0,24351.0,4893.0,98.0,996.8,192.8,4852.2,77.89159800000002,2.1577476,0.0331015449999999,0.019772275,-1.2091175,55.59,0.041774585,0.02675714,-1.1754435,0.54637618,1.0403469600000002,5.2876442,29.6,-6.8,66.6,-52.8,5.0,258.6,-1052.4,3.4,315.8,1015.695,-3.6472188,3147.8,0.041774585,0.0077905679999999,0.02675714,-0.019343754,-1.1754435,0.0022587055,55580.0,29263.0,28590.0,9.0,14.0,-25.0,0,None
2023-01-03 19:04:13.750,149.29333333333332,0.099999999999999,100.0,1082.0,24323.0,4895.0,98.0,1069.3333333333333,194.5,4882.166666666667,77.85970333333333,2.173778,0.04417721,0.0177112,-1.214470333333333,55.52,0.05307668,0.0245766166666666,-1.180657,0.5038648,1.16898125,5.6593928333333325,38.333333333333336,14.333333333333334,56.66666666666666,-24.166666666666668,13.666666666666666,255.5,-1083.0,-1.3333333333333333,317.6666666666667,1015.6956666666666,-3.6466145,3149.333333333333,0.05307668,0.01189425,0.0245766166666666,0.009525837,-1.180657,-0.028415786,55510.0,29217.0,28520.0,5.0,13.0,-27.0,0,None
2023-01-03 19:04:14.300,149.84380000000002,0.0999999999999999,100.0,1069.0,24166.0,4895.0,98.0,1067.2,196.2,4786.0,77.84226199999998,2.189274,0.0504987866666666,0.0218894366666666,-1.219179,55.45333333333334,0.0590971899999999,0.02841413,-1.184861,0.4691090599999999,0.8587929599999999,7.141351800000001,38.2,-0.2,58.6,-39.0,7.8,255.4,-1071.6,9.0,316.2,1015.6808,-3.661530999999999,3150.6,0.0590971899999999,0.0122007899999999,0.02841413,0.0111025503333333,-1.184861,-0.00955416,55450.0,29211.0,28460.0,3.0,17.0,-24.0,0,None
2023-01-03 19:04:14.850,150.40316666666666,0.103333333333334,100.0,1069.0,24319.0,4890.0,98.0,1076.3333333333333,197.66666666666663,4878.333333333333,77.84183666666668,2.205261,0.05084651,0.0167799933333333,-1.2118416666666667,55.423333333333325,0.0599570933333333,0.02313866,-1.1776483333333332,0.5743509833333333,1.0839545833333333,5.965686333333333,20.5,-0.5,59.333333333333336,-47.333333333333336,-3.0,252.3333333333333,-1043.5,-14.5,317.6666666666667,1015.6598333333332,-3.682356500000001,3151.5,0.0599570933333333,0.0006323479999999,0.02313866,0.000896405,-1.1776483333333332,0.04078002,55430.0,29248.0,28440.0,0.0,20.0,-22.0,0,None
2023-01-03 19:04:15.400,150.96,0.0999999999999999,100.0,1056.0,24295.0,4888.0,98.0,1047.4,199.4,4878.6,77.861284,2.2215764,0.04389622,0.01661767,-1.205479,55.42,0.052778205,0.023075865,-1.171227,0.50138722,1.10531376,5.9136968,23.8,16.6,68.6,-50.4,5.4,258.8,-1023.6,-7.4,316.8,1015.6816,-3.6607188,3152.8,0.052778205,-0.015338095,0.023075865,-0.0024017465,-1.171227,0.027218065,55420.0,29285.0,28430.0,-4.0,21.0,-25.0,0,None
2023-01-03 19:04:15.950,151.47200000000004,0.104000000000002,100.0,1059.0,24247.0,4883.0,98.0,1074.8,200.8,4882.4,77.901456,2.2381976,0.0410685033333333,0.0220114566666666,-1.2046836666666667,55.41,0.05019637,0.0290420599999999,-1.1699773333333334,0.5176306800000001,1.17122268,5.1555610000000005,30.2,11.2,64.4,-59.8,7.8,260.8,-1041.0,-12.0,311.6,1015.6658,-3.6764842,3153.4,0.05019637,0.0097419466666666,0.0290420599999999,0.009305479,-1.1699773333333334,0.0180560433333333,55420.0,29297.0,28430.0,-6.0,20.0,-28.0,0,None
2023-01-03 19:04:16.500,152.02983333333336,0.099999999999999,100.0,1041.0,24311.0,4862.0,98.0,1068.6666666666667,202.5,4878.666666666667,77.95204166666667,2.2552771666666667,0.03886629,0.0245065166666666,-1.2071356666666666,55.38,0.0476861666666666,0.0310289433333333,-1.1723883333333334,0.5332000333333333,1.02453145,5.067685666666667,12.0,8.0,64.16666666666667,-46.66666666666666,14.833333333333334,259.0,-1084.1666666666667,-21.0,308.0,1015.6618333333334,-3.6804296666666665,3154.6666666666665,0.0476861666666666,-0.0219835166666666,0.0310289433333333,0.0064486536666666,-1.1723883333333334,0.0183038833333333,55390.0,29285.0,28400.0,-7.0,19.0,-23.0,0,None
2023-01-03 19:04:17.050,152.58380000000002,0.0999999999999999,100.0,1029.0,24221.0,4729.0,98.0,1067.4,204.2,4857.6,77.99820000000001,2.2708296,0.0370462266666666,0.02598177,-1.2048983333333334,55.35333333333333,0.04649977,0.0327700833333333,-1.170092,0.46048998,0.95780034,5.928081,17.4,3.4,68.4,-37.4,3.6,265.2,-1057.2,5.0,321.8,1015.661,-3.6813122,3155.4,0.04649977,-0.0054798129999999,0.0327700833333333,-0.0097552628,-1.170092,0.0171708815666666,55370.0,29280.0,28380.0,-4.0,20.0,-26.0,0,None
2023-01-03 19:04:17.600,153.13333333333335,0.103333333333334,100.0,1063.5,24299.5,4891.5,98.0,1035.6666666666667,205.66666666666663,4889.166666666667,78.03815999999999,2.2865636666666664,0.03025934,0.0199182333333333,-1.199731,55.333333333333336,0.0387514366666666,0.0267944066666666,-1.1649563333333333,0.49974165,1.1073601999999998,4.137965,22.83333333333333,-7.666666666666667,67.66666666666667,-64.16666666666667,11.666666666666666,255.66666666666663,-1033.1666666666667,0.3333333333333333,312.8333333333333,1015.6708333333332,-3.6713151666666666,3156.6666666666665,0.0387514366666666,0.017198474,0.0267944066666666,-0.0093510057,-1.1649563333333333,0.0223694316666666,55340.0,29316.0,28350.0,1.0,19.0,-26.5,0,None
2023-01-03 19:04:18.150,153.7,0.0999999999999999,100.0,1022.0,24178.0,4890.0,98.0,1047.8,207.4,4798.0,78.06908200000001,2.301617,0.033955395,0.017623935,-1.2055425,55.305,0.042920115,0.02476955,-1.170647,0.50149864,1.11010864,5.3235958,24.8,10.4,66.2,-58.4,9.6,254.0,-1054.8,-24.8,303.2,1015.673,-3.6693124,3157.8,0.042920115,0.0105681605,0.02476955,0.0054326885,-1.170647,0.0002588224999999,55300.0,29278.0,28310.0,1.0,14.0,-26.0,0,None
2023-01-03 19:04:18.700,154.25666666666666,0.103333333333334,100.0,1055.0,24285.0,4896.0,98.0,1056.8333333333333,208.8333333333333,4887.0,78.096735,2.315435333333333,0.0436428833333333,0.0192328866666666,-1.213856,55.28,0.05197826,0.0264613433333333,-1.1798229999999998,0.4706744666666666,0.9043957833333331,6.486501833333333,28.0,1.6666666666666667,70.66666666666667,-37.66666666666666,21.83333333333333,257.1666666666667,-1082.5,-2.1666666666666665,320.5,1015.6855,-3.656731666666666,3158.833333333333,0.05197826,-0.00386534,0.0264613433333333,0.0092461282,-1.1798229999999998,-0.0114314463333333,55270.0,29231.0,28280.0,0.0,14.0,-30.0,0,None
2023-01-03 19:04:19.250,154.82,0.0999999999999999,100.0,1064.0,24313.0,4748.0,98.0,1066.4,210.8,4890.8,78.127464,2.3289318000000003,0.0421347866666666,0.0254635833333333,-1.215532,55.23333333333333,0.0504005533333333,0.03235168,-1.181294,0.57553024,1.07580958,6.4703912,39.6,18.0,55.4,-18.0,-3.6,257.0,-1065.8,12.4,307.4,1015.6708,-3.6715777999999992,3159.8,0.0504005533333333,-0.0155815522333333,0.03235168,0.016813937,-1.181294,0.0107387266666666,55230.0,29232.0,28240.0,0.0,16.0,-25.0,0,None
2023-01-03 19:04:19.800,155.32840000000002,0.1041999999999973,100.0,984.0,24334.0,4898.0,98.0,1034.8,212.4,4881.4,78.15997200000001,2.3418846,0.0394819599999999,0.024598535,-1.211404,55.205,0.047868455,0.030627025,-1.17693,0.4325111599999999,1.01857382,6.817509800000001,21.3,-17.2,63.5,-45.5,7.0,253.5,-1060.0,-5.5,312.2,1015.6897,-3.6525783,3160.4,0.047868455,0.0023284899999999,0.030627025,-0.0134104149999999,-1.17693,0.01380529,55200.0,29256.0,28210.0,4.0,17.0,-26.0,0,None
2023-01-03 19:04:20.350,155.9076666666667,0.103333333333334,100.0,1067.0,24297.0,4893.0,98.0,1072.3333333333333,213.8333333333333,4860.333333333333,78.19091999999999,2.3551345,0.0447068533333333,0.0137672466666666,-1.2082100000000002,55.17666666666667,0.0526546833333333,0.0202154066666666,-1.1738190000000002,0.4394731333333332,1.1702709166666667,6.137632333333333,25.166666666666668,0.8333333333333334,58.333333333333336,-59.333333333333336,20.33333333333333,246.5,-1052.6666666666667,3.333333333333333,313.6666666666667,1015.6736666666666,-3.6685413333333337,3161.6666666666665,0.0526546833333333,-0.0057280133333333,0.0202154066666666,-0.0101080066666666,-1.1738190000000002,-0.0192764977666666,55170.0,29277.0,28180.0,2.0,19.0,-23.0,0,None
2023-01-03 19:04:20.900,156.4732,0.1041999999999973,100.0,1048.0,24153.0,4896.0,98.0,1041.6,215.6,4831.4,78.23336400000001,2.3702702,0.04248719,0.0166648866666666,-1.2049736666666666,55.156666666666666,0.05068935,0.02290876,-1.1700843333333333,0.5368784000000001,0.87352542,5.5124034,38.4,6.6,61.0,-24.4,-9.0,256.2,-1068.8,23.0,316.2,1015.6686,-3.673640399999999,3162.8,0.05068935,-0.0057520721,0.02290876,0.0122919956666666,-1.1700843333333333,0.0213672133333333,55160.0,29289.0,28170.0,0.0,19.0,-25.0,0,None
2023-01-03 19:04:21.450,156.982,0.0999999999999999,100.0,1066.0,24245.0,4880.0,98.0,1060.6,217.0,4883.4,78.279242,2.3827136,0.0398132,0.01691186,-1.2030045,55.14,0.04892794,0.022936165,-1.168646,0.38007714,1.1673154799999998,6.3288018,29.8,0.2,67.8,-28.2,3.8,257.2,-1130.2,4.8,318.4,1015.675,-3.667203,3163.4,0.04892794,0.004779597,0.022936165,-0.02859337,-1.168646,0.0059187825,55150.0,29302.0,28160.0,-3.0,20.0,-27.0,0,None
