00000_Time_epoch,00000_Time_boot_sec,00000_Span_Time_boot_sec,1_battery_remaining_avg,1_current_battery_avg,1_voltage_battery_avg,125_Vcc_avg,147_battery_remaining_avg,147_current_battery_avg,147_current_consumed_avg,165_Vcc_avg,168_direction_avg,168_speed_avg,178_pitch_avg,178_roll_avg,178_yaw_avg,182_altitude_avg,182_pitch_avg,182_roll_avg,182_yaw_avg,241_vibration_x_avg,241_vibration_y_avg,241_vibration_z_avg,27_xacc_avg,27_xgyro_avg,27_xmag_avg,27_yacc_avg,27_ygyro_avg,27_ymag_avg,27_zacc_avg,27_zgyro_avg,27_zmag_avg,29_press_abs_avg,29_press_diff_avg,29_temperature_avg,30_pitch_avg,30_pitchspeed_avg,30_roll_avg,30_rollspeed_avg,30_yaw_avg,30_yawspeed_avg,33_alt_avg,33_hdg_avg,33_relative_alt_avg,33_vx_avg,33_vy_avg,33_vz_avg,label,diagnosis
2023-01-04 06:53:23.350,211.199,0.5200000000000102,93.0,88.0,23783.0,4864.0,99.0,88.0,45.0,4877.0,-155.0891,0.1829225,-0.001818789,-0.0154624933333333,-1.213388,27.14,0.0035953956666666,-0.0104678833333333,-1.218762,0.02259727,0.03561131,0.2388058,-14.0,4.0,78.0,-1.0,3.0,253.0,-1063.0,0.0,340.0,1019.564,-0.1533594,3016.0,0.0035953956666666,0.0042866523333333,-0.0104678833333333,0.003054991,-1.218762,-0.0007206538999999,27140.0,29017.0,-30.0,2.0,13.0,-33.0,0,None
2023-01-04 06:53:23.900,211.739,0.539999999999992,93.0,85.0,23785.0,4880.0,99.0,87.0,45.0,4877.0,-156.3507,0.1725316,-0.0018031375,-0.015305715,-1.214202,27.085,0.003452712,-0.010393775,-1.219036,0.03043303,0.02753156,0.1513318,-15.0,3.0,76.0,0.0,4.0,250.0,-1077.0,0.0,340.0,1019.562,-0.1552344,3017.0,0.003452712,0.0040192945,-0.010393775,0.0032156644999999,-1.219036,-0.0002005305,27080.0,29016.0,-90.0,3.0,13.0,-34.0,0,None
2023-01-04 06:53:24.450,212.259,0.5199999999999818,93.0,81.0,23782.0,4864.0,99.0,83.0,45.0,4869.0,-156.4588,0.1811364,-0.0016864423333333,-0.0151004133333333,-1.2147573333333332,27.02,0.0034152673333333,-0.0102868466666666,-1.219298,0.02591187,0.02615425,0.04745399,-14.0,3.0,75.0,1.0,3.0,250.0,-1074.0,0.0,339.0,1019.56,-0.1564844,3019.0,0.0034152673333333,0.004278833,-0.0102868466666666,0.0034025593333333,-1.219298,-0.0007229191333333,27010.0,29014.0,-160.0,3.0,13.0,-35.0,0,None
2023-01-04 06:53:25.000,212.759,0.5,93.0,87.0,23777.0,4872.0,99.0,78.0,45.0,4864.0,-156.0268,0.203292,-0.0018439285,-0.015185745,-1.2150305,26.965,0.0033908245,-0.01015195,-1.2192425,0.02692983,0.02484664,0.03456694,-13.0,2.0,75.0,0.0,4.0,249.0,-1074.0,-1.0,340.0,1019.58,-0.1366406,3020.0,0.0033908245,0.003162347,-0.01015195,0.0050293695,-1.2192425,0.01919956335,26970.0,29016.0,-200.0,4.0,14.0,-35.0,0,None
2023-01-04 06:53:25.550,213.26,0.5010000000000048,93.0,147.0,23761.0,4848.0,99.0,202.0,45.0,4872.0,-155.8303,0.2350296,-0.001769912,-0.01556817,-1.2160366666666669,26.94,0.0034237826666666,-0.0101510466666666,-1.2198056666666668,0.0767537,0.2587456,1.655986,-2.0,3.0,78.0,39.0,8.0,255.0,-1084.0,5.0,343.0,1019.592,-0.1253125,3021.0,0.0034237826666666,0.0037709966666666,-0.0101510466666666,0.0016518954,-1.2198056666666668,-0.0045143116666666,26940.0,29012.0,-230.0,4.0,14.0,-36.0,0,None
2023-01-04 06:53:26.100,214.041,0.5204999999999984,93.0,1175.5,23449.0,4858.5,99.0,833.0,47.0,4873.0,-155.08595,0.2707268499999999,0.0113921999999999,-0.0119578508333332,-1.2158104166666666,27.066666666666663,0.01680624775,-0.00643248085,-1.2166853333333332,0.3295440249999999,0.710295,1.8810295,-17.5,59.0,65.0,33.5,40.0,260.0,-1151.5,-17.0,288.0,1019.816,0.09910154,3022.5,0.01680624775,0.0259379208333333,-0.00643248085,0.0131645949999999,-1.2166853333333332,0.0071031455833333,27120.0,29034.0,-50.0,-2.5,15.5,35.0,0,None
2023-01-04 06:53:27.200,215.131,0.5500000000000114,91.5,1885.75,23258.0,4872.5,99.0,1839.5,52.0,4875.0,-154.5085,0.3034198999999999,-0.011156151,0.00107615005,-1.2183064166666666,28.734166666666667,-0.0056681812083333,0.0048248720833333,-1.213051916666667,0.4845697,1.01373435,2.3311345,-9.0,34.0,61.0,-17.0,-16.75,245.0,-1201.5,0.5,316.5,1019.345,-0.371914025,3026.0,-0.0056681812083333,-0.0297584403333333,0.0048248720833333,-0.0076351415833333,-1.213051916666667,-0.0121634768333333,28975.0,29045.0,1805.0,-4.0,13.0,207.0,0,None
2023-01-04 06:53:27.750,215.902,0.5009999999999764,91.0,1813.0,23210.0,4854.0,99.0,1900.0,56.0,4866.0,-152.7306,0.3120223,-0.01515687,0.0065524354999999,-1.222221,31.130000000000003,-0.008712673,0.012672193,-1.3190065,0.4654277,0.5400537,1.881503,10.0,-40.0,56.0,13.0,131.0,277.0,-1119.0,5.0,335.0,1019.037,-0.6803906,3028.0,-0.008712673,0.014623423,0.012672193,0.0577114815,-1.3190065,-0.004218531,31460.0,28448.0,4290.0,-1.0,-5.0,288.0,0,None
2023-01-04 06:53:28.300,216.402,0.5,90.0,1477.0,23255.0,4851.0,99.0,1734.0,59.0,4877.0,-150.7512,0.3124859,0.0056806556666666,0.010289619,-1.2262926666666667,32.846666666666664,0.0113777383333333,0.0161973066666666,-1.3197766666666666,0.4552875,1.382484,2.05816,-2.0,1.0,54.0,9.0,43.0,253.0,-1034.0,20.0,316.0,1018.841,-0.8755469,3029.0,0.0113777383333333,0.0227207216666666,0.0161973066666666,0.0120651443333333,-1.3197766666666666,-0.0061423076666666,33200.0,28434.0,6030.0,3.0,-8.0,302.0,0,None
2023-01-04 06:53:28.850,216.921,0.5190000000000055,90.0,949.0,23411.0,4877.0,99.0,1377.0,61.0,4877.0,-148.0085,0.3089979,0.0098063306666666,0.0246319133333333,-1.2324366666666666,34.75666666666667,0.0150884633333333,0.0305455866666666,-1.3231663333333332,0.2783863,1.041569,3.726238,8.0,-77.0,64.0,-9.0,28.0,263.0,-828.0,-15.0,312.0,1018.671,-1.045547,3030.0,0.0150884633333333,0.0037395663333333,0.0305455866666666,-0.0066530066666666,-1.3231663333333332,-0.0262340249999999,34790.0,28419.0,7620.0,9.0,-5.0,241.0,0,None
2023-01-04 06:53:29.400,217.421,0.5,90.0,991.0,23382.0,4874.0,99.0,1077.0,63.0,4864.0,-147.1963,0.3005979,0.0124832055,-0.0054481945,-1.2351275,35.815,0.018050715,0.0017095894999999,-1.3235915,0.764136,0.6554687,1.725322,12.0,29.0,63.0,3.0,41.0,240.0,-845.0,26.0,318.0,1018.561,-1.156172,3032.0,0.018050715,0.0060090285,0.0017095894999999,-0.03357532,-1.3235915,0.013270948,35830.0,28419.0,8660.0,12.0,-8.0,132.0,0,None
2023-01-04 06:53:29.950,217.921,0.5,89.0,1143.0,23379.0,4869.0,99.0,1070.0,64.0,4880.0,-148.6425,0.2815644,0.03450533,-0.0044736333333333,-1.2307026666666667,36.333333333333336,0.04116329,0.0033517096,-1.318052,0.331032,1.24018,2.002798,19.0,25.0,43.0,-45.0,25.0,247.0,-970.0,14.0,329.0,1018.498,-1.218828,3033.0,0.04116329,0.03453553,0.0033517096,0.0247536699999999,-1.318052,-0.0032682079999999,36340.0,28449.0,9170.0,4.0,-4.0,56.0,0,None
2023-01-04 06:53:30.500,218.421,0.5,89.0,1184.0,23352.0,4864.0,99.0,1170.0,66.0,4867.0,-151.1079,0.2695586,0.037206985,0.008104179,-1.2323365000000002,36.635000000000005,0.042269345,0.018272255,-1.317931,0.7455472,0.7208188,2.923622,8.0,64.0,46.0,-24.0,-7.0,274.0,-1002.0,-10.0,325.0,1018.438,-1.279297,3034.0,0.042269345,-0.02569718,0.018272255,0.034324485,-1.317931,0.013392767,36630.0,28452.0,9460.0,-2.0,6.0,20.0,0,None
2023-01-04 06:53:31.050,218.941,0.5200000000000102,89.0,1197.0,23339.0,4882.0,99.0,1186.0,67.0,4856.0,-156.8342,0.2563921,0.02487842,0.02926603,-1.2420506666666666,36.81666666666666,0.0313237233333333,0.03640636,-1.3252156666666666,0.5808613,0.7096114,3.476892,9.0,11.0,54.0,-21.0,-10.0,254.0,-1023.0,-7.0,304.0,1018.408,-1.309375,3035.0,0.0313237233333333,-0.0272626566666666,0.03640636,0.0246345856666666,-1.3252156666666666,-0.0198784733333333,36820.0,28407.0,9650.0,-1.0,16.0,0.0,0,None
2023-01-04 06:53:31.600,219.462,0.5209999999999866,89.0,1158.0,23321.0,4877.0,99.0,1191.0,69.0,4866.0,-161.7623,0.2475835,0.019471945,0.028529935,-1.246887,36.945,0.02510214,0.03553687,-1.327858,0.3469533,0.957013,2.873886,22.0,-19.0,51.0,-40.0,0.0,255.0,-1058.0,30.0,307.0,1018.382,-1.335078,3036.0,0.02510214,-0.007666577,0.03553687,-0.01213917,-1.327858,0.017376825,36950.0,28394.0,9780.0,6.0,22.0,-13.0,0,None
2023-01-04 06:53:32.150,219.961,0.4990000000000236,88.0,1142.0,23351.0,4875.0,99.0,1186.0,70.0,4874.0,-170.8934,0.2312597,0.0129097533333333,0.0218083666666666,-1.248412,37.04666666666667,0.01906038,0.02824666,-1.3273716666666666,0.5652341,0.9056852,1.559552,20.0,19.0,54.0,-32.0,52.0,265.0,-1039.0,4.0,310.0,1018.392,-1.325,3037.0,0.01906038,0.0078534766666666,0.02824666,-0.0179903666666666,-1.3273716666666666,0.0165448926666666,37050.0,28400.0,9880.0,13.0,23.0,-20.0,0,None
2023-01-04 06:53:32.700,220.462,0.5009999999999764,88.0,1211.0,23361.0,4869.0,99.0,1137.0,72.0,4864.0,-178.1953,0.2201075,0.023443425,0.016501685,-1.2575385,37.105,0.02905908,0.023210365,-1.334455,0.4762063,0.6815267,2.573713,20.0,2.0,52.0,-45.0,19.0,278.0,-1046.0,-25.0,333.0,1018.349,-1.367969,3038.0,0.02905908,0.019276525,0.023210365,0.0123425795,-1.334455,-0.026527075,37100.0,28357.0,9930.0,17.0,23.0,-27.0,0,None
2023-01-04 06:53:33.250,220.961,0.4990000000000236,88.0,1201.0,23328.0,4862.0,99.0,1172.0,74.0,4864.0,168.8907,0.2081975,0.0146216943333333,0.01705526,-1.270535,37.13666666666666,0.0207141133333333,0.0239408533333333,-1.3453796666666669,0.3715556,1.136845,3.768862,20.0,54.0,57.0,-54.0,24.0,249.0,-1090.0,1.0,295.0,1018.37,-1.347266,3040.0,0.0207141133333333,-0.0272133933333333,0.0239408533333333,0.0055949209999999,-1.3453796666666669,0.0044505183333333,37140.0,28287.0,9970.0,20.0,24.0,-31.0,0,None
2023-01-04 06:53:33.800,221.7215,0.5099999999999909,88.0,1125.5,23306.0,4869.0,99.0,1117.5,76.0,4865.0,151.84,0.20844735,0.0219012716666666,0.0073222015833333,-1.2648869166666667,37.16833333333334,0.0278421774999999,0.0140269036666666,-1.3356135833333336,0.3900533,1.012744,3.0124425,7.5,-25.0,50.0,-22.0,33.5,244.5,-1049.5,10.5,298.5,1018.387,-1.330078,3041.5,0.0278421774999999,0.0370275933333333,0.0140269036666666,-0.0235507408333333,-1.3356135833333336,0.0135898320833333,37170.0,28348.0,10000.0,25.5,23.0,-33.0,0,None
2023-01-04 06:53:34.350,222.481,0.5,87.0,1173.0,23340.0,4871.0,99.0,1226.0,79.0,4871.0,131.2995,0.2320783,0.02847506,-0.01396876,-1.2532775,37.16,0.034907535,-0.0069562875,-1.3213475,0.38164,0.9934976,2.725643,0.0,-24.0,51.0,-49.0,-48.0,247.0,-1105.0,14.0,330.0,1018.394,-1.322734,3044.0,0.034907535,-0.026790894,-0.0069562875,-0.031114045,-1.3213475,0.012416075,37160.0,28431.0,9990.0,22.0,29.0,-33.0,0,None
2023-01-04 06:53:34.900,222.981,0.5,87.0,1052.0,23329.0,4875.0,99.0,1195.0,80.0,4861.0,124.9593,0.2527407,0.0075185365,-0.02628483,-1.2459533333333332,37.17,0.0137977856666666,-0.0179391066666666,-1.3123403333333332,0.2108469,0.9302115,3.059087,-21.0,0.0,69.0,-2.0,-42.0,247.0,-1086.0,-20.0,339.0,1018.379,-1.3375,3045.0,0.0137977856666666,-0.0350892566666666,-0.0179391066666666,0.0023833019999999,-1.3123403333333332,-0.0073921153333333,37170.0,28479.0,10000.0,9.0,28.0,-28.0,0,None
2023-01-04 06:53:35.450,223.481,0.5,87.0,1217.0,23300.0,4872.0,99.0,1083.0,82.0,4864.0,119.2703,0.2860885,-0.0134420147,-0.0148629725,-1.244692,37.2,-0.006526981,-0.00768685,-1.309949,0.535406,0.8689008,2.908475,8.0,82.0,72.0,-11.0,-272.0,251.0,-1047.0,3.0,335.0,1018.393,-1.32375,3046.0,-0.006526981,-0.12489477,-0.00768685,0.061161505,-1.309949,0.0065836055,37200.0,28496.0,10030.0,-2.0,17.0,-31.0,0,None
2023-01-04 06:53:36.000,223.982,0.5010000000000048,87.0,1236.0,23301.0,4871.0,99.0,1195.0,83.0,4869.0,116.4389,0.3084738,-0.1780841666666666,0.0089713493333333,-1.251773,37.193333333333335,-0.1691038666666666,0.0148448966666666,-1.3162936666666667,0.2195573,1.018308,1.986367,-29.0,-5.0,127.0,-14.0,-106.0,278.0,-1081.0,-13.0,305.0,1018.388,-1.328828,3047.0,-0.1691038666666666,-0.2602299466666666,0.0148448966666666,0.0227061573333333,-1.3162936666666667,-0.0089580463333333,37190.0,28455.0,10020.0,10.0,-34.0,-31.0,0,None
2023-01-04 06:53:36.550,224.481,0.4989999999999952,87.0,1257.0,23307.0,4874.0,99.0,1232.0,85.0,4877.0,114.0165,0.345102,-0.2213370499999999,0.0016856565,-1.2497735,37.19,-0.2115571,0.0058332445,-1.312591,0.6267692,0.694366,2.106272,-10.0,-34.0,135.0,-54.0,65.0,273.0,-1078.0,25.0,327.0,1018.363,-1.354297,3048.0,-0.2115571,0.03296410835,0.0058332445,-0.02279967,-1.312591,0.01784255,37190.0,28480.0,10020.0,44.0,-141.0,-32.0,0,None
2023-01-04 06:53:37.100,224.982,0.5010000000000048,87.0,1351.0,23271.0,4877.0,99.0,1231.0,87.0,4874.0,113.221,0.368347,-0.1888746666666666,-0.0053683866666666,-1.2391383333333332,37.22,-0.1815485333333333,-0.0001006805666666,-1.3007393333333337,0.4046169,1.209574,3.143162,-6.0,-25.0,119.0,-10.0,38.0,272.0,-1121.0,34.0,312.0,1018.367,-1.350312,3050.0,-0.1815485333333333,0.0695124333333333,-0.0001006805666666,0.0075933633333333,-1.3007393333333337,0.0149013836666666,37210.0,28559.0,10040.0,74.0,-242.0,-25.0,0,None
2023-01-04 06:53:37.650,225.481,0.4989999999999952,86.0,1570.0,23228.0,4867.0,99.0,1397.0,89.0,4871.0,112.5045,0.4000274,-0.1670125499999999,-0.02221451,-1.2529105,37.39,-0.1617462499999999,-0.015657555,-1.313014,0.4868828,1.00028,2.208867,-30.0,-8.0,130.0,-13.0,-20.0,277.0,-1242.0,-15.0,307.0,1018.354,-1.363281,3051.0,-0.1617462499999999,0.0008645,-0.015657555,-0.04720142,-1.313014,-0.03197646,37380.0,28471.0,10210.0,97.0,-329.0,23.0,0,None
2023-01-04 06:53:38.200,226.002,0.521000000000015,86.0,1583.0,23182.0,4875.0,99.0,1686.0,91.0,4877.0,112.1846,0.4203732,-0.1753647666666666,-0.0197762733333333,-1.2686956666666669,37.93,-0.1713424,-0.0125670256666666,-1.327335,0.4228736,1.061952,1.883856,-55.0,10.0,106.0,-2.0,-27.0,240.0,-1215.0,-10.0,308.0,1018.292,-1.424688,3052.0,-0.1713424,-0.0212938986666666,-0.0125670256666666,0.02052652165,-1.327335,-0.001737874,37910.0,28392.0,10740.0,108.0,-415.0,107.0,0,None
2023-01-04 06:53:38.750,226.502,0.5,86.0,1525.0,23191.0,4880.0,99.0,1560.0,94.0,4871.0,111.7725,0.4505939,-0.19503045,-0.0089374005,-1.27339,38.795,-0.1909949,-0.0009643914999999,-1.32986,0.4324408,0.976544,2.213955,-51.0,46.0,124.0,-23.0,38.0,234.0,-1095.0,15.0,277.0,1018.181,-1.53625,3053.0,-0.1909949,-0.00032058,-0.0009643914999999,0.0268697825,-1.32986,-0.0011025899999999,38790.0,28374.0,11620.0,126.0,-497.0,150.0,0,None
2023-01-04 06:53:39.300,227.022,0.5199999999999818,86.0,1366.0,23292.0,4882.0,99.0,1458.0,96.0,4867.0,111.5463,0.4687401,-0.1850857333333333,-0.0071253293333333,-1.271240666666667,39.763333333333335,-0.1823801,0.0014147556666666,-1.3251473333333337,0.5047789,1.073929,3.712116,-92.0,-57.0,117.0,-2.0,-11.0,243.0,-1081.0,-24.0,275.0,1018.031,-1.686094,3054.0,-0.1821389333333333,0.0196922246666666,0.001477272,-0.008038332,-1.3251343333333334,0.0198760483333333,39750.0,28417.0,12580.0,149.0,-567.0,155.0,0,None
2023-01-04 06:53:39.850,227.771,0.4994999999999976,85.0,1386.0,23232.0,4879.5,99.0,1419.0,99.0,4867.5,111.39115,0.49663675,-0.1761757416666666,-0.0303711758333333,-1.2790336666666668,41.185833333333335,-0.174477,-0.0206543378333332,-1.3301553333333334,0.6182038000000001,1.04045645,5.0547155,-82.0,-3.0,114.0,-5.5,17.0,244.5,-1018.5,-9.5,318.5,1017.8745,-1.8425,3056.0,-0.174477,0.0076796336666666,-0.0206543378333332,-0.0534383358333332,-1.3301553333333334,-0.00529388875,41190.0,28378.0,14020.0,172.5,-647.0,151.5,0,None
2023-01-04 06:53:40.400,228.522,0.5010000000000048,85.0,1330.0,23241.0,4883.0,99.0,1450.0,101.0,4877.0,111.361,0.517594,-0.18529715,-0.0306212,-1.2820765,42.555,-0.18292795,-0.01794103,-1.333099,0.5199586,1.207522,4.891658,-105.0,37.0,115.0,6.0,23.0,217.0,-1059.0,-30.0,274.0,1017.722,-1.995234,3058.0,-0.18292795,0.016397783,-0.01794103,0.0416485699999999,-1.333099,-0.01553024525,42560.0,28366.0,15390.0,181.0,-727.0,149.0,0,None
2023-01-04 06:53:40.950,229.042,0.5200000000000102,85.0,1299.0,23303.0,4883.0,99.0,1373.0,103.0,4867.0,111.4454,0.5261003,-0.1686571666666666,-0.02837885,-1.2812503333333334,43.50666666666666,-0.1669296666666666,-0.01654348,-1.330978,0.722824,0.8440579,5.973159,-58.0,64.0,128.0,21.0,-165.0,266.0,-998.0,31.0,332.0,1017.631,-2.086015,3059.0,-0.1669296666666666,0.1101329966666666,-0.01654348,-0.0062095106666666,-1.330978,-0.0014789611333333,43490.0,28375.0,16320.0,189.0,-771.0,151.0,0,None
2023-01-04 06:53:41.500,229.562,0.5200000000000102,85.0,1285.0,23287.0,4880.0,99.0,1540.0,105.0,4879.0,111.6009,0.5381738,-0.1655723,-0.029382695,-1.2781635,44.465,-0.1646813999999999,-0.01699917,-1.327506,0.6099938,1.015026,6.401264,-111.0,-28.0,112.0,-38.0,-28.0,276.0,-1051.0,-11.0,337.0,1017.511,-2.205547,3060.0,-0.1646813999999999,0.047790645,-0.01699917,0.0268548045,-1.327506,0.023516155,44410.0,28396.0,17240.0,195.0,-813.0,152.0,0,None
2023-01-04 06:53:42.050,230.062,0.5,85.0,1294.0,23285.0,4880.0,99.0,1434.0,107.0,4879.0,111.6781,0.5465724,-0.1464176333333333,-0.0248117566666666,-1.2836893333333332,45.43666666666667,-0.1455015666666666,-0.0115315323333333,-1.3325379999999998,0.4748725,0.9028867,8.63548,-113.0,-3.0,123.0,0.0,44.0,232.0,-1028.0,-13.0,290.0,1017.389,-2.327578,3061.0,-0.1455015666666666,0.04927382,-0.0115315323333333,0.010832585,-1.3325379999999998,-0.0026116213333333,45400.0,28364.0,18230.0,199.0,-848.0,152.0,0,None
2023-01-04 06:53:42.600,230.582,0.5199999999999818,85.0,1244.0,23321.0,4877.0,99.0,1321.0,109.0,4880.0,111.6889,0.560154,-0.1317446,-0.008814536,-1.2790565,46.42,-0.13199295,0.0051589335,-1.328354,0.9012911,0.9209256,7.670844,-113.0,81.0,111.0,40.0,13.0,270.0,-965.0,6.0,306.0,1017.308,-2.408984,3062.0,-0.13199295,-0.002267202,0.0051589335,0.0224772499999999,-1.328354,0.0079651805,46370.0,28386.0,19200.0,201.0,-868.0,155.0,0,None
2023-01-04 06:53:43.150,231.103,0.521000000000015,85.0,1140.0,23331.0,4880.0,99.0,1155.0,111.0,4883.0,111.7421,0.5765733,-0.1285199666666666,0.002046778,-1.278003,47.38333333333333,-0.1286636666666666,0.0151506733333333,-1.3261403333333333,0.6818832,1.15092,8.842986,-110.0,-36.0,112.0,1.0,49.0,252.0,-970.0,7.0,296.0,1017.243,-2.474062,3064.0,-0.1286636666666666,0.03413885,0.0151506733333333,0.0127959113333333,-1.3261403333333333,0.0140028646666666,47330.0,28405.0,20160.0,214.0,-879.0,153.0,0,None
2023-01-04 06:53:43.700,231.622,0.5190000000000055,84.0,1277.0,23289.0,4885.0,99.0,1165.0,113.0,4864.0,111.7376,0.5885155,-0.1233116333333333,-0.005897757,-1.2797563333333333,48.49,-0.1242651333333333,0.0076363716666666,-1.3266536666666668,0.6946777,0.9367802,7.097057,-154.0,23.0,99.0,-27.0,71.0,224.0,-1075.0,11.0,261.0,1017.115,-2.601719,3065.0,-0.1242651333333333,0.06735146,0.0076363716666666,-0.0204007766666666,-1.3266536666666668,-0.000385854,48270.0,28385.0,21100.0,227.0,-885.0,152.0,0,None
2023-01-04 06:53:44.250,232.142,0.5199999999999818,84.0,1018.0,23352.0,4885.0,99.0,1090.0,114.0,4862.0,111.69,0.6062478,0.00379431,-0.005290882,-1.2845555,49.42,0.0014919199999999,0.007482779,-1.328211,0.736297,1.230445,8.188307,-122.0,55.0,98.0,10.0,362.0,251.0,-996.0,-12.0,305.0,1017.05,-2.666719,3066.0,0.0014919199999999,0.38907525,0.007482779,0.042810395,-1.328211,-0.048430375,49180.0,28398.0,22010.0,229.0,-880.0,160.0,0,None
2023-01-04 06:53:44.800,232.642,0.5,84.0,1079.0,23306.0,4877.0,99.0,955.0,116.0,4861.0,111.4589,0.6231078,0.0980404966666666,0.0067024174999999,-1.2866463333333331,50.31,0.0928693966666666,0.0208191866666666,-1.326473,0.9867056,1.670043,6.956164,-170.0,80.0,39.0,-29.0,132.0,237.0,-1059.0,9.0,318.0,1016.948,-2.769219,3067.0,0.0928693966666666,0.04539533,0.0208191866666666,0.0236079566666666,-1.326473,-0.0037703269999999,50100.0,28384.0,22930.0,212.0,-807.0,157.0,0,None
2023-01-04 06:53:45.350,233.182,0.539999999999992,84.0,1145.0,23323.0,4874.0,99.0,1184.0,117.0,4874.0,110.9336,0.6530322,0.08398685,0.019157815,-1.291611,51.205,0.080579875,0.032498945,-1.326985,0.6923884,1.269541,7.830599,-76.0,17.0,37.0,-57.0,-122.0,237.0,-1084.0,-4.0,301.0,1016.85,-2.866953,3068.0,0.080579875,-0.102672775,0.032498945,0.067716785,-1.326985,-0.014497234,50970.0,28414.0,23800.0,189.0,-708.0,160.0,0,None
2023-01-04 06:53:45.900,233.682,0.5,84.0,1150.0,23308.0,4879.0,99.0,1235.0,119.0,4861.0,110.2643,0.6834635,0.0520622233333333,0.0398884633333333,-1.3009313333333334,52.15,0.05107805,0.0522382933333333,-1.330153,0.7864848,1.286124,7.416652,-91.0,63.0,35.0,-11.0,-4.0,265.0,-1079.0,-8.0,296.0,1016.701,-3.01625,3069.0,0.05107805,-0.0925779633333333,0.0522382933333333,0.0148679033333333,-1.330153,-0.0141441233333333,51920.0,28386.0,24750.0,174.0,-624.0,165.0,0,None
2023-01-04 06:53:46.450,234.203,0.521000000000015,84.0,1369.0,23234.0,4877.0,99.0,1220.0,121.0,4871.0,109.7305,0.7036997,0.042044865,0.04173428,-1.3117125,53.120000000000005,0.042818885,0.052981655,-1.334122,0.7492177,1.149598,4.250099,-77.0,-93.0,42.0,-51.0,12.0,287.0,-1042.0,-40.0,342.0,1016.566,-3.151172,3071.0,0.042818885,0.079339405,0.052981655,-0.004899605,-1.334122,-0.022237355,52860.0,28356.0,25690.0,168.0,-567.0,158.0,0,None
2023-01-04 06:53:47.000,234.722,0.5190000000000055,84.0,1227.0,23275.0,4879.0,99.0,1292.0,123.0,4883.0,108.8304,0.733112,0.0796142,0.0494762133333333,-1.3127133333333332,54.14333333333334,0.0796264433333333,0.0593850533333333,-1.329581,0.5741522,0.8945301,5.340508,-43.0,16.0,43.0,-52.0,71.0,277.0,-1101.0,18.0,336.0,1016.426,-3.291172,3071.0,0.0796264433333333,0.0280047133333333,0.0593850533333333,0.0273472033333333,-1.329581,-0.0084512733333333,53870.0,28369.0,26700.0,157.0,-510.0,163.0,0,None
2023-01-04 06:53:47.550,235.492,0.5099999999999909,84.0,1318.0,23258.0,4876.5,99.0,1237.5,125.5,4877.5,107.54455,0.7623619500000001,0.1062527999999999,0.0492658366666666,-1.3315810833333337,55.65083333333333,0.1062962749999999,0.0585228208333333,-1.3403626666666666,0.66854045,1.0930424,5.769377,-75.5,39.5,12.0,-42.0,46.5,263.5,-1067.0,-33.5,313.0,1016.2375,-3.479531,3073.5,0.1062962749999999,0.0338891201,0.0585228208333333,0.0056057579999999,-1.3403626666666666,-0.0210104741666667,55380.0,28330.5,28210.0,142.5,-402.5,155.5,0,None
2023-01-04 06:53:48.100,236.263,0.521000000000015,84.0,1237.0,23299.0,4877.0,99.0,1341.0,128.0,4851.0,105.4823,0.7926806,0.1160518,0.06080179,-1.328262,57.155,0.1168835,0.0691744099999999,-1.3312885,0.5348665,0.9381796,3.803949,-49.0,48.0,20.0,-9.0,32.0,271.0,-1047.0,-7.0,315.0,1016.065,-3.652109,3075.0,0.1168835,0.05073943,0.0691744099999999,0.04860665,-1.3312885,0.0337616399999999,56880.0,28349.0,29710.0,120.0,-292.0,152.0,0,None
2023-01-04 06:53:48.650,236.763,0.5,84.0,1291.0,23261.0,4871.0,99.0,1266.0,130.0,4885.0,104.397,0.8034334,0.1104735333333333,0.0694105733333333,-1.3243873333333334,58.09666666666667,0.1111709666666666,0.0774705633333333,-1.3244926666666668,0.6230924,0.9551178,4.810598,-47.0,27.0,8.0,-19.0,-63.0,263.0,-1041.0,15.0,287.0,1015.976,-3.741015,3076.0,0.1111709666666666,-0.0169322963333333,0.0774705633333333,-0.0019230933333333,-1.3244926666666668,0.0042982066666666,57850.0,28410.0,30680.0,112.0,-222.0,145.0,0,None
2023-01-04 06:53:49.200,237.263,0.5,84.0,982.0,23357.0,4883.0,99.0,1059.0,132.0,4871.0,102.606,0.8188472,0.11603345,0.053630285,-1.3212785,58.865,0.11683195,0.061527235,-1.31991,0.5381158,1.346937,3.966996,-17.0,-36.0,23.0,-28.0,28.0,265.0,-949.0,43.0,297.0,1015.862,-3.855,3077.0,0.11683195,0.03914852,0.061527235,-0.036894845,-1.31991,0.00221517,58690.0,28430.0,31520.0,110.0,-163.0,100.0,0,None
2023-01-04 06:53:49.750,237.783,0.5199999999999818,84.0,941.0,23349.0,4888.0,99.0,850.0,133.0,4883.0,101.3424,0.8291937,0.1538341333333333,0.0371135333333333,-1.324814333333333,59.17666666666667,0.1548221666666666,0.0435607266666666,-1.3223076666666669,0.5334486,1.191215,3.276334,-48.0,-38.0,14.0,-6.0,95.0,262.0,-871.0,-16.0,310.0,1015.759,-3.958125,3078.0,0.1548221666666666,0.0798847866666666,0.0435607266666666,-0.0699932666666666,-1.3223076666666669,-0.012710496,59160.0,28439.0,31990.0,100.0,-105.0,7.0,0,None
2023-01-04 06:53:50.300,238.283,0.5,84.0,1215.0,23290.0,4858.0,99.0,1189.0,134.0,4882.0,99.37145,0.8456746,0.16296875,0.01610626,-1.3251335,59.19,0.16268605,0.022984155,-1.321144,0.6563354,0.8449819,4.517178,-35.0,8.0,-2.0,-26.0,53.0,251.0,-1058.0,-7.0,328.0,1015.729,-3.988281,3079.0,0.16268605,-0.0586224615,0.022984155,-0.0250808899999999,-1.321144,0.03592827,59210.0,28419.0,32040.0,76.0,-36.0,-42.0,0,None
2023-01-04 06:53:50.850,238.803,0.5200000000000102,84.0,1290.0,23275.0,4888.0,99.0,1325.0,136.0,4885.0,98.07063,0.8585304,0.0813795133333333,0.0152564166666666,-1.3195043333333334,59.16666666666666,0.08329127,0.0222738633333333,-1.314938,0.3253412,1.058848,6.783842,-11.0,-21.0,12.0,-38.0,-179.0,278.0,-1115.0,34.0,346.0,1015.754,-3.962969,3081.0,0.08329127,-0.1652234,0.0222738633333333,0.0100517016666666,-1.314938,0.027537591,59170.0,28440.0,32000.0,48.0,32.0,-42.0,0,None
2023-01-04 06:53:51.400,239.303,0.5,84.0,1167.0,23323.0,4885.0,99.0,1167.0,138.0,4882.0,96.30699,0.8814095,0.02682095,0.021878415,-1.31773,59.18,0.03181181,0.0279622299999999,-1.31379,0.5040167,0.7802224,4.600314,-20.0,50.0,50.0,-36.0,-64.0,245.0,-1020.0,-7.0,306.0,1015.738,-3.979141,3082.0,0.03181181,-0.0224459524999999,0.0279622299999999,0.0144923515,-1.31379,-0.023916525,59170.0,28492.0,32000.0,32.0,54.0,-41.0,0,None
2023-01-04 06:53:51.950,239.803,0.5,84.0,1172.0,23309.0,4883.0,99.0,1172.0,140.0,4888.0,95.24972,0.897428,0.02985449,0.0258818033333333,-1.332113,59.19,0.0336836633333333,0.0304193833333333,-1.3280113333333332,0.3763383,1.397651,9.010153,-7.0,-2.0,47.0,0.0,32.0,242.0,-1053.0,-37.0,289.0,1015.709,-4.007656,3083.0,0.0336836633333333,0.0090122,0.0304193833333333,0.01972047,-1.3280113333333332,-0.0343258533333333,59190.0,28420.0,32020.0,24.0,56.0,-47.0,0,None
2023-01-04 06:53:52.500,240.303,0.5,84.0,1207.0,23285.0,4880.0,99.0,1207.0,141.0,4883.0,93.77074,0.9201186,0.012564946,0.036783155,-1.3528005,59.18,0.0157082915,0.040487455,-1.348526,0.5413161,1.597339,7.318963,-4.0,80.0,36.0,-10.0,-55.0,254.0,-1097.0,-61.0,302.0,1015.713,-4.00375,3084.0,0.0157082915,-0.0521129674999999,0.040487455,0.014657495,-1.348526,-0.04158995,59180.0,28327.0,32010.0,19.0,60.0,-47.0,0,None
2023-01-04 06:53:53.050,240.823,0.5200000000000102,84.0,1178.0,23290.0,4885.0,99.0,1178.0,143.0,4875.0,92.81733,0.9335236,-0.0035313356666666,0.0241047743333333,-1.3631833333333334,59.17,-0.0011271996666666,0.02726901,-1.3594723333333334,0.5456037,0.9736608,4.137587,10.0,-11.0,55.0,-11.0,-27.0,272.0,-1027.0,-30.0,310.0,1015.706,-4.010859,3085.0,-0.0011271996666666,0.0255053566666666,0.02726901,-0.0714201733333333,-1.3594723333333334,0.0147827833333333,59180.0,28179.0,32010.0,29.0,48.0,-50.0,0,None
2023-01-04 06:53:53.600,241.323,0.5,84.0,1177.0,23289.0,4885.0,99.0,1177.0,145.0,4885.0,91.46841,0.9515638,0.02447314,-0.00356633385,-1.344631,59.14,0.027128195,-0.0005615199999999,-1.340647,0.3804681,0.910623,3.978296,16.0,-79.0,45.0,-34.0,102.0,251.0,-1052.0,40.0,299.0,1015.738,-3.979297,3086.0,0.027128195,0.067957725,-0.0005615199999999,-0.029359945,-1.340647,0.033445425,59150.0,28296.0,31980.0,32.0,30.0,-48.0,0,None
2023-01-04 06:53:54.150,242.093,0.5099999999999909,84.0,1168.0,23291.5,4887.0,99.0,1168.0,147.0,4880.5,90.17562,0.97264355,0.0509696016666666,-0.00534367095,-1.3396168333333334,59.07666666666667,0.0526737691666666,-0.0014776675,-1.336525083333333,0.2992958,1.229054,2.9607475,18.5,9.0,36.0,-19.5,15.75,235.75,-1061.25,17.5,306.5,1015.73125,-3.98562525,3088.25,0.0526737691666666,0.0484541525,-0.0014776675,0.0093414080333332,-1.336525083333333,0.0144045729333333,59085.0,28336.0,31915.0,12.0,23.0,-47.5,0,None
2023-01-04 06:53:54.700,242.843,0.5,84.0,1210.0,23295.0,4891.0,99.0,1210.0,150.0,4877.0,89.16572,0.9961259,0.05694012,-0.0037810189,-1.3283256666666663,59.01,0.05811088,0.0015466886666666,-1.3259826666666668,0.3837659,0.8963733,4.689055,0.0,21.0,26.0,-1.0,-7.0,253.0,-1058.0,33.0,303.0,1015.782,-3.935,3090.0,0.05811088,-0.0138797473333333,0.0015466886666666,0.0200488933333333,-1.3259826666666668,0.02798893,59020.0,28397.0,31850.0,-5.0,33.0,-45.0,1,27_xacc_avg_constant_0
2023-01-04 06:53:55.250,243.363,0.5200000000000102,84.0,1204.0,23284.0,4888.0,99.0,1204.0,151.0,4887.0,88.69284,1.019376,0.037474115,0.0042338405,-1.326728,58.96,0.038873085,0.0100431905,-1.324156,0.4589778,1.172759,3.366545,0.0,-5.0,56.0,-50.0,-39.0,259.0,-1038.0,23.0,340.0,1015.787,-3.929688,3091.0,0.038873085,-0.025049465,0.0100431905,-0.004099333,-1.324156,0.025128825,58970.0,28408.0,31800.0,-15.0,42.0,-41.0,1,27_xacc_avg_constant_0
2023-01-04 06:53:55.800,243.843,0.4799999999999897,83.0,1203.0,23282.0,4888.0,99.0,1203.0,153.0,4867.0,88.50156,1.035694,0.0169845733333333,0.0017608111666666,-1.3232376666666668,58.906666666666666,0.02023694,0.0068228906666666,-1.322286,0.4197685,1.209907,3.711797,0.0,26.0,46.0,-36.0,24.0,247.0,-1032.0,-2.0,314.0,1015.8,-3.916641,3092.0,0.02023694,-0.0278922933333333,0.0068228906666666,0.0098094836666666,-1.322286,-0.0188103233333333,58920.0,28427.0,31750.0,-19.0,44.0,-39.0,1,27_xacc_avg_constant_0
2023-01-04 06:53:56.350,244.344,0.5010000000000048,83.0,1169.0,23286.0,4883.0,99.0,1169.0,155.0,4877.0,88.30102,1.059092,0.009023156,0.001391156,-1.3243575,58.855,0.012088465,0.007160918,-1.3230155,0.3214881,0.9237661,4.740184,0.0,21.0,50.0,-11.0,11.0,256.0,-1063.0,6.0,311.0,1015.807,-3.91,3093.0,0.012088465,-0.0185019,0.007160918,-0.002764628,-1.3230155,0.0092139554999999,58860.0,28427.0,31690.0,-21.0,37.0,-36.0,1,27_xacc_avg_constant_0
2023-01-04 06:53:56.900,244.844,0.5,83.0,1174.0,23285.0,4871.0,99.0,1174.0,156.0,4866.0,88.17278,1.073035,0.0081046053333333,0.0052515879999999,-1.3261573333333334,58.82333333333333,0.0110966233333333,0.01164201,-1.325377,0.5341253,0.7347197,2.437477,0.0,-14.0,45.0,-8.0,-2.0,266.0,-1103.0,8.0,328.0,1015.801,-3.915469,3094.0,0.0110966233333333,0.0114985,0.01164201,0.0032031043333333,-1.325377,0.0299720766666666,58830.0,28402.0,31660.0,-22.0,28.0,-34.0,1,27_xacc_avg_constant_0
2023-01-04 06:53:57.450,245.344,0.5,83.0,1178.0,23237.0,4879.0,99.0,1178.0,158.0,4882.0,87.94622,1.091152,0.0077695805,0.0036831349999999,-1.3243655,58.78,0.010882875,0.010438493,-1.323813,0.6534691,0.9456654,3.253878,0.0,9.0,52.0,1.0,7.0,248.0,-1053.0,17.0,292.0,1015.807,-3.910078,3095.0,0.010882875,-0.002648245,0.010438493,0.0003810174999999,-1.323813,0.037941485,58790.0,28404.0,31620.0,-19.0,21.0,-33.0,1,27_xacc_avg_constant_0
2023-01-04 06:53:58.000,245.844,0.5,83.0,1192.0,23234.0,4880.0,99.0,1192.0,160.0,4858.0,87.79511,1.101436,0.0089661136666666,0.0055216643333333,-1.322338,58.75,0.01168612,0.0138176466666666,-1.3218963333333331,0.6781645,1.082859,4.229064,0.0,12.0,45.0,-31.0,-10.0,264.0,-1063.0,32.0,324.0,1015.803,-3.913437,3096.0,0.01168612,0.0070992213333333,0.0138176466666666,0.0164141366666666,-1.3218963333333331,0.0196388933333333,58760.0,28425.0,31590.0,-18.0,14.0,-33.0,1,27_xacc_avg_constant_0
2023-01-04 06:53:58.550,246.344,0.5,83.0,1232.0,23268.0,4875.0,99.0,1232.0,161.0,4887.0,87.54813,1.114718,0.0059497635,0.006860155,-1.318159,58.725,0.009721999,0.0149070349999999,-1.3179985,0.4513992,0.9703188,2.349401,0.0,-21.0,51.0,-30.0,-7.0,247.0,-1069.0,31.0,275.0,1015.77,-3.946719,3097.0,0.009721999,-0.006946297,0.0149070349999999,-0.0011973769,-1.3179985,0.0101882175,58730.0,28443.0,31560.0,-16.0,10.0,-32.0,1,27_xacc_avg_constant_0
2023-01-04 06:53:59.100,247.053,0.1841999999999984,83.0,1212.5,23260.5,4885.0,98.0,1198.6,164.8,4876.4,87.27624799999998,1.1261123999999998,0.0017683836222221,0.0071184271888888,-1.322372,58.69,0.0055849664444444,0.0157412036666666,-1.322883111111111,0.46312498,1.1588477,2.6899394,0.0,38.4,50.6,-54.8,-3.8,249.2,-1072.2,-28.8,313.8,1015.8034,-3.9136246,3098.6,0.0055849664444444,0.0060276324444444,0.0157412036666666,0.0325157322222222,-1.322883111111111,-0.0362345533333333,58705.0,28442.0,31535.0,-14.5,2.5,-33.0,1,27_xacc_avg_constant_0
2023-01-04 06:53:59.650,247.59833333333333,0.0966666666666687,83.0,1186.0,23262.0,4888.0,98.0,1180.5,166.83333333333334,4878.166666666667,87.04561,1.1337493333333335,0.004170317,0.020242485,-1.32815,58.645,0.0082449395,0.02841155,-1.329281,0.4539204199999999,0.96391486,3.3755454,0.0,2.8,50.8,-21.4,8.8,265.8,-1071.4,-8.4,309.0,1015.8051666666668,-3.9117836666666665,3099.833333333333,0.0082449395,0.025636365,0.02841155,-0.0019010649999999,-1.329281,-0.00712946,58650.0,28378.0,31480.0,-10.0,-4.0,-32.0,1,27_xacc_avg_constant_0
2023-01-04 06:54:00.200,248.18500000000003,0.1079999999999983,83.0,1182.0,23258.5,4887.0,98.0,1174.8,168.6,4882.4,86.734778,1.140392,0.007163114,0.014357095,-1.3235105,58.605,0.010800135,0.023697475,-1.3250579999999998,0.45888576,0.97168014,3.3215568,0.0,-1.6,43.6,-16.2,-1.4,261.4,-1074.2,30.2,315.6,1015.8102,-3.9069216,3101.0,0.010800135,0.0003331304999999,0.023697475,0.0015704099999999,-1.3250579999999998,0.003700715,58620.0,28399.0,31450.0,-2.0,-5.0,-31.0,1,27_xacc_avg_constant_0
2023-01-04 06:54:00.750,248.69700000000003,0.104000000000002,83.0,1204.0,23272.0,4890.0,98.0,1177.6,170.4,4879.6,86.436298,1.1448108,0.0054335509999999,0.0155140666666666,-1.3188333333333333,58.57666666666668,0.0093864336666666,0.0254097366666666,-1.320686,0.540263,0.9085337,2.1524368000000003,0.0,2.8,47.2,-41.2,1.8,259.4,-1079.4,16.8,317.2,1015.814,-3.9029529999999992,3102.0,0.0093864336666666,0.011860193,0.0254097366666666,0.005174528,-1.320686,0.0001493476666666,58580.0,28427.0,31410.0,1.0,-5.0,-30.0,1,27_xacc_avg_constant_0
2023-01-04 06:54:01.300,249.255,0.099999999999999,83.0,1146.0,23263.0,4888.0,98.0,1160.0,172.5,4882.833333333333,86.090335,1.1487798333333334,0.0056394866666666,0.0109358033333333,-1.3174966666666668,58.54333333333333,0.0102975196666666,0.0200257933333333,-1.319858,0.2843281499999999,1.0105445,2.622002833333333,0.0,2.833333333333333,50.0,-57.0,0.8333333333333334,256.5,-1089.5,-7.5,311.6666666666667,1015.7968333333332,-3.919882666666666,3103.0,0.0102975196666666,0.0298913533333333,0.0200257933333333,0.0084352433333333,-1.319858,0.0036464569333333,58550.0,28440.0,31380.0,5.0,-5.0,-30.0,1,27_xacc_avg_constant_0
2023-01-04 06:54:01.850,249.8052,0.0999999999999999,83.0,1146.0,23267.0,4888.0,98.0,1147.0,174.2,4882.8,85.73145600000001,1.1521282,0.0077209294999999,0.01374564,-1.3184525,58.535,0.012711285,0.02337929,-1.321221,0.2528216,1.1722556000000002,3.9216552,0.0,21.0,49.2,-56.8,8.0,259.2,-1088.4,-4.0,315.6,1015.807,-3.9100626000000007,3104.2,0.012711285,0.02699727,0.02337929,0.01201472175,-1.321221,0.02197213,58530.0,28434.0,31360.0,7.0,-5.0,-30.0,1,27_xacc_avg_constant_0
2023-01-04 06:54:02.400,250.3553333333333,0.1001666666666664,83.0,1148.0,23269.0,4861.0,98.0,1147.5,175.83333333333334,4884.833333333333,85.34982333333333,1.1550756666666666,0.009796882,0.0121883406666666,-1.3166870000000002,58.51,0.0148966966666666,0.02139995,-1.3200043333333331,0.3743185166666667,1.230984,3.3315476666666672,0.0,-4.666666666666667,47.66666666666666,-2.1666666666666665,14.833333333333334,260.6666666666667,-1062.1666666666667,24.166666666666668,320.6666666666667,1015.79,-3.926914,3105.1666666666665,0.0148966966666666,0.0018931326666666,0.02139995,-0.0097619346666666,-1.3200043333333331,0.0044983956666666,58505.0,28435.5,31335.0,11.0,-3.5,-31.0,1,27_xacc_avg_constant_0
2023-01-04 06:54:02.950,250.9052,0.0999999999999999,83.0,1155.0,23287.0,4882.0,98.0,1132.0,177.6,4882.8,84.959156,1.1578686,0.0116800986666666,0.006320992,-1.313049666666667,58.49,0.0168692966666666,0.0161111133333333,-1.3163133333333332,0.2340079199999999,1.0796473399999995,3.165496,0.0,-13.2,48.4,-6.0,12.2,263.4,-1075.8,9.8,327.8,1015.7936,-3.9230778,3106.2,0.0168692966666666,-0.0034432033333333,0.0161111133333333,-0.0080607993333333,-1.3163133333333332,-0.0115341153333333,58490.0,28467.0,31320.0,13.0,0.0,-32.0,1,27_xacc_avg_constant_0
2023-01-04 06:54:03.500,251.455,0.0998333333333363,83.0,1171.0,23266.0,4883.0,98.0,1155.0,179.5,4884.166666666667,84.58767,1.1605888333333334,0.0123597666666666,0.0062566463333333,-1.3146196666666667,58.47,0.01793382,0.0158443999999999,-1.318237,0.4893202166666666,0.7146544833333333,2.3590888333333333,0.0,13.833333333333334,48.833333333333336,-19.0,21.5,255.16666666666663,-1065.3333333333333,-0.3333333333333333,320.8333333333333,1015.7821666666669,-3.934843666666667,3107.333333333333,0.01793382,0.0080055146666666,0.0158443999999999,0.0135945086666666,-1.318237,-0.0257731633333333,58460.0,28445.0,31290.0,11.0,0.0,-33.0,1,27_xacc_avg_constant_0
2023-01-04 06:54:04.050,252.0052,0.0999999999999999,83.0,1123.0,23283.0,4887.0,98.0,1139.6,181.2,4885.4,84.2434,1.1632532000000002,0.014181425,0.007724168,-1.318208,58.45,0.02009052,0.01648777,-1.322195,0.56780622,1.0808965999999998,2.9622214,0.0,-8.6,46.4,-7.6,-4.2,259.0,-1088.8,-22.6,322.2,1015.774,-3.94275,3108.4,0.02009052,0.0089482195,0.01648777,-0.004129815,-1.322195,-0.02998524,58450.0,28430.0,31280.0,12.0,1.0,-34.0,1,27_xacc_avg_constant_0
2023-01-04 06:54:04.600,252.55500000000004,0.099999999999999,83.0,1095.0,23278.0,4883.0,98.0,1113.0,182.8333333333333,4882.333333333333,83.90856666666666,1.166158,0.0147373833333333,0.0040465206666666,-1.3197586666666667,58.44333333333333,0.0207106766666666,0.01282197,-1.3240236666666667,0.2754805166666667,0.9439,3.435395833333333,0.0,20.33333333333333,47.0,-38.0,19.83333333333333,261.0,-1064.0,-24.666666666666668,320.0,1015.7835,-3.9333725,3109.6666666666665,0.0207106766666666,0.01522588,0.01282197,0.021430621,-1.3240236666666667,-0.0139920783333333,58430.0,28413.0,31260.0,9.0,1.0,-34.0,1,27_xacc_avg_constant_0
2023-01-04 06:54:05.150,253.1054,0.0999999999999999,83.0,1138.0,23281.0,4890.0,98.0,1140.0,184.6,4885.2,83.60033999999999,1.1692536,0.0230346899999999,0.0111116299999999,-1.3235156666666663,58.42,0.0292784966666666,0.01891042,-1.328539666666667,0.45803598,0.51494354,2.7288744,0.0,0.6,43.0,-20.8,10.4,259.4,-1058.6,-10.0,316.2,1015.7724,-3.9446562,3110.4,0.0292784966666666,0.012751246,0.01891042,-0.007136885,-1.328539666666667,0.0074732303333333,58420.0,28384.0,31250.0,8.0,3.0,-36.0,1,27_xacc_avg_constant_0
2023-01-04 06:54:05.700,253.655,0.099999999999999,83.0,1138.0,23259.5,4885.5,98.0,1141.6666666666667,186.3333333333333,4883.5,83.31676666666668,1.1728908333333334,0.0245348666666666,0.007944508,-1.3242793333333334,58.403333333333336,0.0305318533333333,0.0158288033333333,-1.329696,0.6268795333333333,0.7260812166666667,3.675916666666667,0.0,-6.166666666666667,40.66666666666666,-25.0,-1.3333333333333333,258.8333333333333,-1069.5,16.166666666666668,319.3333333333333,1015.7746666666666,-3.942122333333333,3111.5,0.0305318533333333,0.004019641,0.0158288033333333,0.0016269499999999,-1.329696,-0.0004753896666666,58400.0,28380.0,31230.0,8.0,7.0,-37.0,1,27_xacc_avg_constant_0
2023-01-04 06:54:06.250,254.205,0.0999999999999999,83.0,1178.0,23257.0,4888.0,98.0,1153.0,188.0,4883.8,83.051668,1.177313,0.025896145,0.0061310685,-1.324547,58.385000000000005,0.032734735,0.01493311,-1.3301660000000002,0.37706616,1.03438846,3.036022,0.0,10.2,40.8,3.6,17.0,252.4,-1079.0,9.4,324.8,1015.7714,-3.9455466,3112.6,0.032734735,0.03876942,0.01493311,0.017493511,-1.3301660000000002,-0.008019214,58390.0,28379.0,31220.0,6.0,10.0,-39.0,1,27_xacc_avg_constant_0
2023-01-04 06:54:06.800,254.75533333333337,0.1001666666666665,83.0,1180.0,23253.0,4871.0,98.0,1173.6,189.8,4881.5,82.79809,1.1828496666666666,0.0309712866666666,0.01541741,-1.323872333333333,58.35666666666666,0.0376990966666666,0.0236691033333333,-1.330108,0.3361638333333334,0.8912081166666667,2.1313291666666667,0.0,-2.1666666666666665,36.833333333333336,-32.0,9.333333333333334,261.3333333333333,-1072.5,3.8333333333333335,327.5,1015.7791666666668,-3.937838666666666,3113.6666666666665,0.0376990966666666,0.012098935,0.0236691033333333,0.0064556633333333,-1.330108,-0.0026723713333333,58360.0,28382.0,31190.0,5.0,14.0,-38.0,1,27_xacc_avg_constant_0
2023-01-04 06:54:07.350,255.30600000000004,0.0999999999999999,83.0,1167.0,23241.0,4877.0,98.0,1176.0,191.6,4879.0,82.553372,1.189591,0.0275328666666666,0.0110678866666666,-1.3237286666666668,58.31333333333333,0.0338038,0.0185409,-1.3300126666666667,0.38511316,0.7626825399999999,3.821066000000001,0.0,5.2,39.8,-25.6,-10.6,260.0,-1067.4,0.8,318.6,1015.7802,-3.936625,3115.0,0.0338038,-0.019561566,0.0185409,0.0142250183333333,-1.3300126666666667,0.0006152043333333,58330.0,28382.0,31160.0,5.0,21.0,-37.0,1,27_xacc_avg_constant_0
2023-01-04 06:54:07.900,255.856,0.099999999999999,83.0,1182.0,23256.0,4875.0,98.0,1176.8333333333333,193.5,4873.666666666667,82.34401666666666,1.197112,0.01697918,0.01830995,-1.3239936666666667,58.28333333333333,0.0234413233333333,0.0255625166666666,-1.3307503333333333,0.3049034166666666,0.7426097500000001,2.464853333333333,0.0,3.1666666666666665,41.16666666666666,-19.5,-14.833333333333334,259.5,-1063.1666666666667,2.5,318.1666666666667,1015.7763333333332,-3.940586,3116.0,0.0234413233333333,-0.02420973,0.0255625166666666,0.009407776,-1.3307503333333333,0.00202185,58285.0,28376.0,31115.0,4.5,27.0,-35.5,1,27_xacc_avg_constant_0
2023-01-04 06:54:08.450,256.406,0.0999999999999999,83.0,1159.0,23232.0,4882.0,98.0,1154.6,195.4,4876.2,82.148712,1.2051458,0.0062756305,0.015642855,-1.3209965,58.27,0.0123806735,0.02323153,-1.3279645,0.44062994,0.7019082400000001,2.87528,0.0,-11.8,45.2,-31.0,-11.8,264.6,-1078.8,11.4,319.6,1015.7814,-3.9355156,3116.8,0.0123806735,-0.0107990335,0.02323153,-0.0057427515,-1.3279645,0.0097005975,58260.0,28400.0,31090.0,9.0,25.0,-37.0,1,27_xacc_avg_constant_0
2023-01-04 06:54:09.000,256.95716666666664,0.1005000000000014,83.0,1148.0,23257.0,4877.0,98.0,1142.3333333333333,197.0,4879.5,81.93356666666666,1.2132833333333333,0.0087047383333333,0.0116106833333333,-1.3179516666666666,58.25333333333334,0.0143394466666666,0.01915302,-1.3248326666666663,0.5651028,0.8788197999999999,3.2283858333333337,0.0,2.0,44.333333333333336,-32.833333333333336,18.166666666666668,262.5,-1073.3333333333333,27.83333333333333,318.3333333333333,1015.7835,-3.9336195000000007,3118.1666666666665,0.0143394466666666,0.0329529366666666,0.01915302,0.0082638434333333,-1.3248326666666663,0.0167490166666666,58240.0,28410.0,31070.0,11.0,20.0,-38.0,1,27_xacc_avg_constant_0
2023-01-04 06:54:09.550,257.533,0.108000000000004,83.0,1192.0,23230.0,4883.0,98.0,1181.6,198.6,4875.0,81.701324,1.220659,0.0097888473333333,0.00907737,-1.3191876666666666,58.2,0.0157715399999999,0.01627955,-1.3263626666666666,0.6084805799999999,1.00065872,3.1937398000000004,0.0,-9.0,45.7,-1.5,4.8,253.5,-1065.5,18.5,317.9,1015.7738000000002,-3.9430858,3119.2,0.0157715399999999,-0.0002939923333333,0.01627955,-0.0072924253333333,-1.3263626666666666,-0.0193145853333333,58190.0,28402.0,31020.0,14.0,18.0,-37.0,1,27_xacc_avg_constant_0
2023-01-04 06:54:10.100,258.077,0.1079999999999926,83.0,1149.0,23241.0,4883.0,98.0,1153.6,200.4,4876.0,81.455946,1.2273584,0.0076626459999999,0.0046762175,-1.3166915,58.155,0.01368103,0.01276002,-1.324278,0.58073522,1.0647734,2.870149,1.2,1.8,49.2,7.0,-2.0,248.6,-1087.4,16.6,314.6,1015.7816,-3.9356248,3120.2,0.01368103,0.007652324,0.01276002,0.006537428995,-1.324278,0.02286569,58160.0,28413.0,30990.0,14.0,16.0,-34.0,0,None
2023-01-04 06:54:10.650,258.6296,0.1081999999999993,82.0,1119.0,23257.0,4883.0,98.0,1140.8,202.2,4866.2,81.23331400000001,1.2329134,0.010792122,0.0037585787333333,-1.3134606666666666,58.13333333333333,0.01699828,0.0109946736666666,-1.3215709999999998,0.3946176,0.7882178400000001,2.185952,9.8,-7.4,44.6,-35.8,19.2,254.8,-1067.0,0.8,320.6,1015.7826,-3.9346246,3121.4,0.01698382,0.0122789746666666,0.0110637036666666,-0.0039230351666666,-1.32155,-0.0066787393333333,58130.0,28434.0,30960.0,12.0,12.0,-34.0,0,None
2023-01-04 06:54:11.200,259.1296,0.0999999999999999,82.0,1144.0,23266.0,4888.0,98.0,1133.4,204.0,4874.8,81.02742,1.2377438,0.0102636,0.0002499914999999,-1.317889,58.115,0.01678357,0.0071787555,-1.3261555,0.5771086999999999,0.7990536199999999,1.5720208,-7.8,3.8,47.2,-9.4,7.6,256.8,-1068.6,-26.0,319.8,1015.7916,-3.9254062,3122.4,0.01678357,0.003483075,0.0071787555,-0.003702661,-1.3261555,-0.03944311,58110.0,28401.0,30940.0,10.0,10.0,-35.0,0,None
2023-01-04 06:54:11.750,259.68,0.1000000000000037,82.0,1179.5,23247.5,4889.0,98.0,1163.0,205.5,4878.833333333333,80.83293666666667,1.2422236666666666,0.0149511733333333,0.0029071312,-1.3228356666666663,58.080000000000005,0.02072809,0.009692587,-1.3312876666666666,0.3471607833333334,1.07125435,2.5632388333333336,4.833333333333333,12.333333333333334,41.5,-49.0,11.166666666666666,267.1666666666667,-1066.3333333333333,-12.833333333333334,327.8333333333333,1015.7915000000002,-3.9254165,3123.333333333333,0.02072809,0.0124582699999999,0.009692587,0.0068146089,-1.3312876666666666,0.0068151626666666,58080.0,28370.0,30910.0,8.0,8.0,-35.0,0,None
2023-01-04 06:54:12.300,260.23,0.0999999999999999,82.0,1179.0,23263.0,4887.0,98.0,1170.2,207.4,4871.6,80.66656800000001,1.2462794,0.0160917333333333,0.00084757179,-1.3210836666666668,58.05,0.0222163966666666,0.0079392733333333,-1.3293126666666668,0.1942681999999999,1.07935852,3.0314760000000005,3.0,0.2,42.6,-0.4,3.4,261.4,-1065.2,21.0,333.6,1015.7854,-3.9316876,3124.4,0.0222163966666666,0.0052328733333333,0.0079392733333333,-0.0082539326666666,-1.3293126666666668,0.0149251463333333,58050.0,28383.0,30880.0,7.0,7.0,-35.0,0,None
2023-01-04 06:54:12.850,260.79,0.103333333333334,82.0,1153.0,23251.0,4888.0,98.0,1174.5,209.16666666666663,4879.333333333333,80.52134333333333,1.25029,0.0170325866666666,0.0052833393333333,-1.3201516666666666,58.02,0.0232883366666666,0.0125572773333333,-1.3289906666666669,0.4940616499999999,0.6689115833333333,2.144249333333333,8.666666666666666,7.0,43.91666666666666,-20.416666666666668,9.166666666666666,249.8333333333333,-1064.3333333333333,12.333333333333334,313.5,1015.7879166666668,-3.9288868333333338,3125.583333333333,0.0232883366666666,-0.0071724466666666,0.0125572773333333,0.0020370286666666,-1.3289906666666669,0.0088872513333333,58030.0,28386.0,30860.0,5.0,6.0,-34.0,0,None
2023-01-04 06:54:13.400,261.354,0.0999999999999999,82.0,1168.0,23260.0,4883.0,98.0,1166.8,211.0,4880.0,80.40176,1.2542536000000002,0.01660909,0.0038022185,-1.320251,57.985,0.02267822,0.01112863,-1.3290609999999998,0.40739038,0.8856260600000001,1.9180812,10.0,-2.2,39.2,-12.4,-15.4,258.6,-1090.4,0.6,325.0,1015.7854,-3.9314686,3126.6,0.02267822,-0.0080878505,0.01112863,0.002781955,-1.3290609999999998,-0.0135867355,58000.0,28386.0,30830.0,5.0,8.0,-34.0,0,None
2023-01-04 06:54:13.950,261.9001666666667,0.1001666666666664,82.0,1133.0,23205.0,4882.0,98.0,1133.8333333333333,212.8333333333333,4871.5,80.30336666666666,1.2581411666666666,0.0152092766666666,0.0033305887333333,-1.3188126666666669,57.96666666666667,0.0214288366666666,0.0098989486666666,-1.327365,0.52964175,0.7114117833333333,1.7512218333333334,18.666666666666668,-4.666666666666667,42.66666666666666,-20.0,-2.5,261.3333333333333,-1083.0,9.833333333333334,321.5,1015.7708333333334,-3.946119666666666,3127.5,0.0214288366666666,0.0016860186666666,0.0098989486666666,-0.0139792812666666,-1.327365,-0.0004806071333333,57965.0,28394.0,30795.0,4.5,6.0,-33.5,0,None
2023-01-04 06:54:14.500,262.45,0.0997999999999933,82.0,1088.0,23269.0,4880.0,98.0,1083.4,214.4,4874.4,80.22514400000001,1.2619114,0.0139687233333333,-0.0013817237233333,-1.319566,57.95333333333334,0.0206204233333333,0.0057227663333333,-1.328614,0.59217628,0.77859044,3.6195342,12.0,-0.6,43.0,-13.2,47.6,253.4,-1069.0,1.0,319.0,1015.7752,-3.9416564,3128.6,0.0206204233333333,0.0121080943766666,0.0057227663333333,0.005611113,-1.328614,-0.02065167,57950.0,28381.0,30780.0,2.0,1.0,-36.0,0,None
2023-01-04 06:54:15.050,262.9628,0.1042000000000029,82.0,1117.0,23226.0,4882.0,98.0,1116.2,216.0,4877.6,80.178926,1.2654185999999998,0.03299444,0.00334176655,-1.3163364999999998,57.945,0.039273655,0.0104382875,-1.3252865,0.5810362600000001,0.8259097000000001,3.5493628,17.4,14.0,40.6,-21.4,33.4,262.4,-1075.4,32.8,335.8,1015.7838,-3.9331717999999993,3129.8,0.039273655,0.0524010149999999,0.0104382875,0.026422225,-1.3252865,0.009507831,57920.0,28459.0,30750.0,-1.0,3.0,-40.0,0,None
2023-01-04 06:54:15.600,263.53433333333334,0.103333333333334,82.0,1168.0,23235.0,4885.0,98.0,1173.3333333333333,217.8333333333333,4873.5,80.16606,1.2693833333333335,0.0430265166666666,0.004366991,-1.2939283333333336,57.90333333333333,0.0490630233333333,0.0117025733333333,-1.303208,0.4922179833333334,1.0267364,3.4784605000000006,19.5,10.166666666666666,42.0,-32.0,16.0,258.1666666666667,-1071.0,43.0,323.8333333333333,1015.7526666666666,-3.9642836666666654,3130.6666666666665,0.0490630233333333,0.0138433746666666,0.0117025733333333,-0.003098966,-1.303208,0.0382274933333333,57890.0,28593.0,30720.0,-9.0,9.0,-39.0,0,None
2023-01-04 06:54:16.150,264.111,0.1039999999999963,82.0,1207.0,23213.0,4877.0,98.0,1187.0,220.0,4875.4,80.18820600000001,1.2739364,0.0430517266666666,0.01997373,-1.2826806666666666,57.88,0.04953274,0.02760442,-1.292084,0.49155118,1.2209737,3.8355028,9.4,33.6,43.2,-47.2,-24.8,256.0,-1085.6,-9.2,319.8,1015.7638,-3.9529686,3132.0,0.04953274,-0.0235034436666666,0.02760442,0.0356230333333333,-1.292084,-0.01946666,57880.0,28592.0,30710.0,-15.0,18.0,-37.0,0,None
2023-01-04 06:54:16.700,264.619,0.1040000000000076,82.0,1165.0,23227.0,4875.0,98.0,1120.4,221.4,4869.2,80.175234,1.278546,0.03293569,0.0307034949999999,-1.299554,57.87,0.03890514,0.037584595,-1.3094515,0.4208588000000001,1.203037,2.982827,12.6,28.2,44.8,-22.6,-19.4,267.4,-1076.6,-52.6,307.4,1015.7748,-3.94225,3132.6,0.03890514,-0.02230519,0.037584595,0.02558678,-1.3094515,-0.0523229699999999,57870.0,28449.0,30700.0,-12.0,25.0,-36.0,0,None
2023-01-04 06:54:17.250,265.1788,0.1079999999999926,82.0,1148.0,23248.0,4874.0,98.0,1119.4,223.0,4868.4,80.112878,1.286262,0.0184656799999999,0.04122754,-1.3310053333333334,57.84666666666667,0.02567474,0.0471762666666666,-1.3405466666666666,0.4329858599999999,0.98694034,3.4181608,5.6,9.4,38.0,-28.5,3.1,266.0,-1083.8,-54.1,305.6,1015.7505,-3.9663828,3133.8,0.02567474,-0.0043580699999999,0.0471762666666666,0.0276381493333333,-1.3405466666666666,-0.0465958,57840.0,28283.0,30670.0,2.0,23.0,-35.0,0,None
2023-01-04 06:54:17.800,265.72433333333333,0.1000000000000037,82.0,1099.5,23209.0,4869.0,98.0,1099.6666666666667,224.66666666666663,4855.5,80.00268333333334,1.294919333333333,0.02083756,0.03514208,-1.3521973333333337,57.830000000000005,0.0282847699999999,0.0422226166666666,-1.36168,0.5728317333333334,0.7824573166666667,4.318319333333334,21.0,-27.0,29.666666666666668,-31.5,3.6666666666666665,273.3333333333333,-1084.1666666666667,-10.833333333333334,310.0,1015.776,-3.940677,3134.6666666666665,0.0282847699999999,0.0260489766666666,0.0422226166666666,-0.0293111913333333,-1.36168,-0.006824098,57830.0,28191.0,30660.0,17.0,19.0,-41.0,0,None
2023-01-04 06:54:18.350,266.271,0.0999999999999999,82.0,1116.0,23243.0,4861.0,98.0,1123.8,226.4,4869.8,79.81991000000001,1.3039948,0.0309622933333333,0.0099157676666666,-1.3480356666666669,57.78333333333333,0.0377405666666666,0.0175026766666666,-1.3570576666666667,0.56979108,0.77657824,4.5678058,19.4,-28.6,28.2,-34.8,14.8,254.2,-1070.0,23.2,320.0,1015.7692,-3.9475624,3135.6,0.0377405666666666,0.0132325366666666,0.0175026766666666,-0.0224748699999999,-1.3570576666666667,0.02349168,57790.0,28215.0,30620.0,24.0,18.0,-40.0,0,None
2023-01-04 06:54:18.900,266.8476666666666,0.1066666666666643,82.0,1074.0,23219.0,4864.0,98.0,1126.0,228.16666666666663,4864.333333333333,79.60983,1.312941,0.0268862833333333,-9.743399999999998e-05,-1.3359013333333334,57.75,0.0342710333333333,0.0073661016666666,-1.346334666666667,0.4979451166666666,0.9891995166666664,3.727987166666667,20.33333333333333,-10.0,37.0,-18.83333333333333,-6.666666666666667,249.5,-1069.5,19.666666666666668,330.1666666666667,1015.773,-3.9439321666666665,3136.6666666666665,0.0342710333333333,-0.0044862066666666,0.0073661016666666,-0.006728916,-1.346334666666667,0.0058345424666666,57760.0,28266.0,30590.0,23.0,19.0,-38.0,0,None
2023-01-04 06:54:19.450,267.41099999999994,0.0999999999999999,82.0,1100.0,23217.0,4871.0,98.0,1083.2,230.2,4875.6,79.425874,1.322194,0.024911495,0.007050107,-1.333746,57.725,0.032295575,0.01417122,-1.3443155,0.4625549599999999,0.91852724,3.7807658,15.8,31.0,38.0,-33.0,15.4,258.8,-1084.4,-12.4,322.8,1015.7956,-3.9214218,3137.8,0.032295575,0.0080684916,0.01417122,0.0373375475,-1.3443155,0.0137710384999999,57740.0,28297.0,30570.0,16.0,17.0,-36.0,0,None
2023-01-04 06:54:20.000,267.9309999999999,0.1039999999999963,82.0,1088.0,23234.0,4877.0,98.0,1102.8,231.6,4859.8,79.290694,1.3311868,0.0323654833333333,-0.0016171416666666,-1.3230856666666666,57.67,0.0393419,0.0052968916666666,-1.3340386666666666,0.49296366,0.94967534,3.8867692,10.8,-19.2,46.2,-42.6,6.0,257.6,-1056.2,-5.4,324.6,1015.7764,-3.9407968,3138.6,0.0393419,-0.002241838,0.0052968916666666,-0.0363812903333333,-1.3340386666666666,0.0168171566666666,57700.0,28334.0,30530.0,14.0,13.0,-37.0,0,None
2023-01-04 06:54:20.550,268.48099999999994,0.1000000000000037,82.0,1141.0,23211.0,4858.0,98.0,1102.5,233.5,4871.5,79.19607333333333,1.340726,0.0429592266666666,0.002529593,-1.326814333333333,57.63,0.0496521833333333,0.0101725,-1.338249333333333,0.4703631666666666,1.0291423666666668,3.605254333333333,18.0,27.0,36.16666666666666,-35.833333333333336,6.833333333333333,251.8333333333333,-1109.3333333333333,-37.0,315.5,1015.7763333333334,-3.9403645,3139.6666666666665,0.0496521833333333,0.0350288199999999,0.0101725,0.030868856,-1.338249333333333,0.0062486843333333,57640.0,28339.5,30470.0,0.5,13.5,-35.0,0,None
2023-01-04 06:54:21.100,269.0352,0.1039999999999963,82.0,1114.0,23193.0,4883.0,98.0,1121.6,235.0,4870.6,79.13542599999998,1.3502236,0.039015545,0.021383775,-1.3297955,57.605,0.046117655,0.02867464,-1.341593,0.5060903999999999,0.9138051,3.441977799999999,14.8,44.8,31.4,-25.2,-10.6,254.0,-1071.0,-22.6,317.4,1015.7716,-3.9454372,3140.2,0.046117655,-0.028169665,0.02867464,0.05297048,-1.341593,0.02067576,57600.0,28305.0,30430.0,-3.0,20.0,-35.0,0,None
2023-01-04 06:54:22.200,270.152,0.1039999999999963,82.0,1119.0,23246.0,4890.0,98.0,1126.8,238.4,4874.6,79.043798,1.371686,0.0255423533333333,0.02322757,-1.3242013333333336,57.55666666666667,0.0332124566666666,0.0296928333333333,-1.336207,0.4509506199999999,0.84833344,3.1642712000000004,7.3,-8.6,37.7,-30.6,-5.3,262.6,-1086.9,-9.9,318.8,1015.7555,-3.961289,3142.7,0.0332124566666666,-0.0222581403333333,0.0296928333333333,-0.014032217,-1.336207,0.007162721,57560.0,28351.0,30390.0,7.0,22.0,-35.0,0,None
2023-01-04 06:54:22.750,270.68,0.108000000000004,82.0,1124.0,23259.0,4880.0,98.0,1108.2,240.0,4873.2,78.969346,1.3842038,0.023142175,0.01305959,-1.324945,57.55,0.030822005,0.020152915,-1.3366145,0.48709674,0.9408106,3.4050959999999995,6.4,-14.0,40.0,-38.2,10.6,258.6,-1089.0,-22.4,323.2,1015.7566,-3.960453,3143.6,0.030822005,0.02167297,0.020152915,-0.0080979185,-1.3366145,-0.011577493,57550.0,28342.0,30380.0,9.0,18.0,-38.0,0,None
2023-01-04 06:54:23.300,271.21200000000005,0.1039999999999963,82.0,1086.0,23221.0,4851.0,98.0,1113.8,242.0,4872.6,78.89769799999999,1.3942098,0.0278445733333333,0.0103270336666666,-1.3259093333333334,57.53666666666667,0.03532272,0.0173051533333333,-1.3379063333333334,0.45083754,0.9710641800000002,3.713205,16.2,22.8,41.2,-51.6,20.6,264.0,-1067.2,-16.6,319.4,1015.756,-3.9610312,3144.4,0.03532272,0.000697165,0.0173051533333333,0.0083510996666666,-1.3379063333333334,0.0124859023333333,57540.0,28328.0,30370.0,3.0,14.0,-39.0,0,None
2023-01-04 06:54:23.850,271.78866666666664,0.1066666666666738,82.0,1147.5,23219.5,4870.5,98.0,1122.1666666666667,243.5,4872.333333333333,78.82282666666667,1.4058286666666666,0.03082069,0.02153776,-1.322377666666667,57.51,0.0389100066666666,0.0275789166666666,-1.334434,0.5321225333333333,0.9223229666666668,3.7508086666666665,11.416666666666666,13.333333333333334,35.416666666666664,-52.583333333333336,16.75,259.0,-1056.1666666666667,-2.6666666666666665,317.4166666666667,1015.7552500000002,-3.961608000000001,3145.5,0.0389100066666666,0.02389208,0.0275789166666666,0.0192942033333333,-1.334434,0.005030456,57510.0,28346.0,30340.0,2.0,12.0,-38.0,0,None
2023-01-04 06:54:24.400,272.37600000000003,0.1079999999999926,82.0,1261.0,23185.0,4874.0,98.0,1221.2,245.4,4873.8,78.73740000000001,1.4191604,0.0388851199999999,0.019300005,-1.3146179999999998,57.47,0.046477425,0.026369855,-1.3269645,0.42366082,0.78567626,4.714298599999999,34.2,8.8,37.0,-36.6,8.0,257.6,-1046.6,5.6,318.8,1015.7408,-3.976172,3146.8,0.046477425,0.030524875,0.026369855,0.0061391649999999,-1.3269645,0.00043841,57470.0,28400.0,30300.0,1.0,12.0,-39.0,0,None
2023-01-04 06:54:24.950,272.916,0.1120000000000004,82.0,1173.0,23184.0,4877.0,98.0,1163.8,247.2,4872.6,78.654354,1.4301184,0.03395681,0.0339749733333333,-1.320193333333333,57.45333333333334,0.0418103099999999,0.0417171566666666,-1.3327226666666665,0.54302438,1.14364,2.887791,30.6,52.0,38.8,-42.4,12.9,261.0,-1043.1,9.6,311.4,1015.7565,-3.9604922,3147.6,0.0418103099999999,-0.0047325996666666,0.0417171566666666,0.0353232199999999,-1.3327226666666665,-0.02250078,57460.0,28358.0,30290.0,-1.0,13.0,-40.0,0,None
2023-01-04 06:54:25.500,273.4642,0.1040000000000076,82.0,1216.0,23199.0,4874.0,98.0,1207.0,249.0,4872.8,78.552876,1.4424706,0.035660655,0.0348626999999999,-1.3134205,57.425,0.0433960949999999,0.041293115,-1.3257645,0.44964486,1.306704,3.5898186,15.0,-7.0,34.8,-75.2,-9.4,249.2,-1073.2,24.2,296.0,1015.752,-3.9648906,3148.4,0.0433960949999999,-0.0018270975,0.041293115,-0.0139598504999999,-1.3257645,0.0020357049999999,57430.0,28400.0,30260.0,4.0,18.0,-40.0,0,None
2023-01-04 06:54:26.050,273.97200000000004,0.0999999999999999,82.0,1170.0,23212.0,4877.0,98.0,1193.4,250.6,4874.8,78.431332,1.4544150000000002,0.0223117633333333,0.0333256766666666,-1.303275,57.406666666666666,0.0297665666666666,0.04036096,-1.3159973333333337,0.35091494,1.2081282,2.813623,8.0,3.4,45.6,-36.8,-22.0,262.2,-1076.8,-7.6,312.0,1015.7688,-3.9479842,3149.6,0.0297665666666666,-0.0134491123333333,0.04036096,0.0022116503333333,-1.3159973333333337,0.01852328,57420.0,28455.0,30250.0,9.0,23.0,-39.0,0,None
2023-01-04 06:54:26.600,274.5353333333333,0.1033333333333246,82.0,1188.0,23203.0,4875.0,98.0,1202.5,252.5,4867.5,78.25942666666667,1.467352,0.0094841923333333,0.0249788733333333,-1.2996726666666667,57.373333333333335,0.01748858,0.0323310666666666,-1.312219,0.3465085499999999,0.8066596,2.8322683333333334,9.166666666666666,-21.166666666666668,48.5,-53.16666666666666,-12.833333333333334,259.8333333333333,-1075.5,2.6666666666666665,301.0,1015.7650000000002,-3.9519663333333335,3150.333333333333,0.01748858,-0.0114913966666666,0.0323310666666666,-0.0242563933333333,-1.312219,-0.001076401,57390.0,28491.0,30220.0,16.0,24.0,-39.0,0,None
2023-01-04 06:54:27.150,275.108,0.1040000000000077,82.0,1217.0,23186.0,4877.0,98.0,1161.0,254.6,4879.8,78.049916,1.4796398,0.002306962,0.017750925,-1.309079,57.345,0.010699541,0.02557883,-1.3213845,0.60538782,1.17948448,3.8608814,0.4,-10.4,50.8,-69.8,-10.0,260.6,-1066.4,-33.2,313.0,1015.765,-3.952078,3151.6,0.010904935,-0.0071928085,0.02577088,-0.0067229515,-1.32138,-0.03524953,57340.0,28446.0,30170.0,20.0,19.0,-38.0,0,None
2023-01-04 06:54:27.700,275.653,0.1081999999999993,82.0,1144.0,23239.0,4853.0,98.0,1158.8,256.4,4864.0,77.845212,1.4889582,0.0075427566666666,0.0080624936666666,-1.309241,57.32,0.0152136166666666,0.01604795,-1.321642,0.46496674,1.1933922,2.4086712,-1.2,-7.4,48.2,-61.3,8.9,249.6,-1074.6,-24.6,316.2,1015.7489,-3.9681249,3152.2,0.0152136166666666,0.0179642061666666,0.01604795,-0.004384981,-1.321642,0.0132130666666666,57330.0,28427.0,30160.0,21.0,10.0,-37.0,0,None
2023-01-04 06:54:28.250,276.19300000000004,0.1079999999999926,82.0,1133.0,23229.0,4872.0,98.0,1114.2,257.8,4878.6,77.576878,1.4986825999999998,0.013216785,0.0037890605,-1.313063,57.31,0.0207185049999999,0.01174865,-1.3252755,0.35751524,1.2073854000000002,3.6445512,-3.2,-6.2,46.2,-50.6,2.0,256.6,-1079.0,-37.6,324.4,1015.7752,-3.9417654,3153.2,0.0207185049999999,-0.0032771099999999,0.01174865,-0.0020395025,-1.3252755,-0.0253431649999999,57310.0,28426.0,30140.0,18.0,5.0,-38.0,0,None
2023-01-04 06:54:28.800,276.741,0.1160000000000081,82.0,1132.5,23230.5,4875.5,98.0,1129.6,259.6,4871.2,77.356914,1.5056884,0.0130342133333333,0.0083733173333333,-1.325162,57.27666666666666,0.02066642,0.015885497,-1.337256,0.37312352,1.2809042000000002,3.1351564,-1.5,47.9,44.3,-28.7,-0.3,261.4,-1076.7,-58.7,326.3,1015.7731,-3.944039,3154.1,0.02023518,0.005433985,0.0157226303333333,0.0330036233333333,-1.3371586666666666,-0.0496965266666666,57290.0,28370.0,30120.0,11.0,3.0,-39.0,0,None
