00000_Time_epoch,00000_Time_boot_sec,00000_Span_Time_boot_sec,1_battery_remaining_avg,1_current_battery_avg,1_voltage_battery_avg,125_Vcc_avg,147_battery_remaining_avg,147_current_battery_avg,147_current_consumed_avg,165_Vcc_avg,168_direction_avg,168_speed_avg,178_pitch_avg,178_roll_avg,178_yaw_avg,182_altitude_avg,182_pitch_avg,182_roll_avg,182_yaw_avg,241_vibration_x_avg,241_vibration_y_avg,241_vibration_z_avg,27_xacc_avg,27_xgyro_avg,27_xmag_avg,27_yacc_avg,27_ygyro_avg,27_ymag_avg,27_zacc_avg,27_zgyro_avg,27_zmag_avg,29_press_abs_avg,29_press_diff_avg,29_temperature_avg,30_pitch_avg,30_pitchspeed_avg,30_roll_avg,30_rollspeed_avg,30_yaw_avg,30_yawspeed_avg,33_alt_avg,33_hdg_avg,33_relative_alt_avg,33_vx_avg,33_vy_avg,33_vz_avg,label,diagnosis
2022-12-29 11:56:28.550,135.598,0.5,100.0,69.0,24372.0,4883.0,99.0,68.0,24.0,4874.0,-161.1036,0.16265,0.00010069166,-0.01163869,-1.1539283333333332,42.85,0.0041956663333333,-0.0079486203333333,-1.1493883333333337,0.02611806,0.02451182,0.043899,-16.0,3.0,95.0,-2.0,5.0,249.0,-1072.0,0.0,329.0,1022.019,-0.08617187,3421.0,0.0041956663333333,0.0052186556666666,-0.0079486203333333,0.003282944,-1.1493883333333337,7.350783333333334e-05,42850.0,29415.0,-60.0,2.0,16.0,-36.0,0,None
2022-12-29 11:56:29.100,136.098,0.5,100.0,64.0,24372.0,4887.0,99.0,60.0,24.0,4893.0,-161.364,0.1357606,-3.209750000000001e-05,-0.0116986549999999,-1.1538655,42.77,0.0043103529999999,-0.0080494275,-1.149288,0.02410569,0.0247236,0.03846157,-14.0,3.0,93.0,-3.0,5.0,248.0,-1071.0,0.0,330.0,1022.031,-0.07375,3422.0,0.0043103529999999,0.0052010775,-0.0080494275,0.0036477995,-1.149288,3.0121265e-05,42770.0,29416.0,-140.0,2.0,15.0,-38.0,0,None
2022-12-29 11:56:29.650,136.598,0.5,100.0,66.0,24363.0,4887.0,99.0,64.0,24.0,4850.0,-161.265,0.1380018,-0.0003549505333333,-0.0116622266666666,-1.1536283333333333,42.69,0.0043076833333333,-0.008004975,-1.14926,0.02397744,0.02268703,0.03535164,-14.0,3.0,97.0,-1.0,5.0,249.0,-1072.0,0.0,328.0,1022.013,-0.09203125,3424.0,0.0043076833333333,0.0050181446666666,-0.008004975,0.0026386,-1.14926,-0.0004888189,42680.0,29416.0,-230.0,2.0,15.0,-39.0,0,None
2022-12-29 11:56:30.200,137.118,0.5199999999999818,100.0,71.0,24378.0,4883.0,99.0,65.0,24.0,4890.0,-160.6854,0.1536502,0.0003332001,-0.01222203,-1.1534435,42.63,0.0043649735,-0.008051539,-1.1491635,0.02777722,0.02291148,0.03744353,-16.0,3.0,94.0,-2.0,5.0,246.0,-1069.0,0.0,328.0,1022.03,-0.07562499,3426.0,0.0043649735,0.005210388,-0.008051539,0.0034540605,-1.1491635,-0.0001736584949999,42630.0,29416.0,-280.0,2.0,15.0,-39.0,0,None
2022-12-29 11:56:30.750,137.868,0.5,100.0,114.0,24354.0,4888.5,99.0,131.5,24.0,4889.0,-159.57675,0.18279285,-0.0001613882616666,-0.011962815,-1.15354425,42.5825,0.0045125168333332,-0.0080902881666666,-1.1490006666666668,0.1130588,0.33908715,1.25864525,-9.0,1.5,92.5,-3.0,5.5,247.0,-1073.0,-11.0,332.0,1022.044,-0.06125,3427.5,0.0045125168333332,0.004501727,-0.0080902881666666,0.0033885298333333,-1.1490006666666668,0.00039744025,42595.0,29416.5,-315.0,2.5,15.0,-39.5,0,None
2022-12-29 11:56:31.300,138.639,0.521000000000015,100.0,110.0,24352.0,4890.0,99.0,106.0,25.0,4890.0,-158.8843,0.2185875,0.0001161446066666,-0.01211132,-1.1536376666666668,42.54333333333333,0.004614592,-0.007980407,-1.1488233333333333,0.1011832,0.2846381,0.5005237,-29.0,2.0,82.0,-40.0,4.0,237.0,-1083.0,3.0,325.0,1022.085,-0.02046875,3430.0,0.0046048286666666,0.0053956673333333,-0.0079811213333333,0.0024502371,-1.149158,-0.0082225476666666,42550.0,29413.0,-360.0,3.0,16.0,-40.0,0,None
2022-12-29 11:56:31.850,139.159,0.5199999999999818,100.0,1579.0,23930.0,4888.0,99.0,156.0,25.0,4893.0,-158.6081,0.2369816,0.0007167382,-0.011758695,-1.1548375000000002,42.515,0.005312719,-0.0075454025,-1.14894,0.1252737,0.2843959,0.4933439,-17.0,15.0,51.0,-43.0,0.0,223.0,-1053.0,5.0,309.0,1022.274,0.1684375,3431.0,0.005312719,0.0382124489999999,-0.0075454025,-0.007252922,-1.14894,0.0151304684999999,42520.0,29415.0,-390.0,2.0,17.0,-40.0,0,None
2022-12-29 11:56:32.400,139.659,0.5,100.0,1362.0,23986.0,4890.0,99.0,1693.0,27.0,4893.0,-158.4355,0.2621955,0.0306975733333333,-0.0140994833333333,-1.1461826666666666,42.69,0.0347185733333333,-0.0092543266666666,-1.1397723333333334,0.550302,0.9605824,4.617216,-18.0,9.0,81.0,0.0,-15.0,242.0,-1236.0,21.0,293.0,1022.298,0.1929687,3433.0,0.0347185733333333,-0.0044963799999999,-0.0092543266666666,-0.0085217166666666,-1.1397723333333334,0.0077715899999999,42750.0,29482.0,-160.0,-10.0,29.0,51.0,0,None
2022-12-29 11:56:32.950,140.179,0.5200000000000102,100.0,1645.0,23903.0,4883.0,99.0,1657.0,29.0,4883.0,-158.1164,0.2694252,-0.0059981685,-0.0128179925,-1.1489035,43.35,-0.0022081124999999,-0.0058978484999999,-1.141958,0.3724775,1.265942,3.751854,-28.0,41.0,82.0,-19.0,-92.0,279.0,-1221.0,13.0,311.0,1021.931,-0.1742187,3434.0,-0.0022081124999999,-0.097028905,-0.0058978484999999,0.032958595,-1.141958,-0.0015078005,43520.0,29447.0,610.0,-28.0,29.0,137.0,0,None
2022-12-29 11:56:33.500,140.699,0.5200000000000102,100.0,1565.0,23903.0,4880.0,99.0,1635.0,31.0,4890.0,-156.9989,0.2766724,-0.0359590866666666,0.0074396304333333,-1.145524,44.63666666666666,-0.0315126566666666,0.0107236007,-1.1382733333333332,0.3568482,1.632056,5.812091,-28.0,89.0,85.0,-25.0,-56.0,268.0,-1181.0,-14.0,302.0,1021.803,-0.3017187,3436.0,-0.0315126566666666,-0.0511820066666666,0.0107236007,0.0463093223333333,-1.1382733333333332,0.0146138316666666,44910.0,29490.0,2000.0,-25.0,14.0,216.0,0,None
2022-12-29 11:56:34.050,141.22,0.5209999999999866,100.0,1580.0,23899.0,4887.0,99.0,1626.0,33.0,4882.0,-155.5406,0.2767467,-0.03421664,0.02304163,-1.146946,46.27,-0.02898659,0.0281689499999999,-1.149612,0.3759351,1.356913,4.132627,-33.0,6.0,79.0,-42.0,88.0,255.0,-1021.0,-10.0,264.0,1021.657,-0.4484375,3438.0,-0.02898659,0.02715937,0.0281689499999999,0.0179043575,-1.149612,-0.05321008,46560.0,29333.0,3650.0,-10.0,-1.0,260.0,0,None
2022-12-29 11:56:34.600,141.76,0.539999999999992,100.0,1620.0,23881.0,4893.0,99.0,1788.0,36.0,4883.0,-153.7185,0.2756566,-0.00309367812,0.0223526056666666,-1.1650786666666668,48.04,0.001095003,0.0264770186666666,-1.177286,0.3013991,1.282507,6.009151,-23.0,-21.0,81.0,8.0,140.0,269.0,-1177.0,-31.0,293.0,1021.445,-0.6597656,3439.0,0.001095003,0.0060301566666666,0.0264770186666666,-0.07845918,-1.177286,-0.04823656,48310.0,29263.0,5400.0,0.0,2.0,299.0,0,None
2022-12-29 11:56:35.150,142.281,0.521000000000015,100.0,1297.0,23952.0,4888.0,99.0,1345.0,38.0,4890.0,-150.4359,0.2665347,-0.0120578855,0.013446814,-1.18576,49.805,-0.00800585535,0.020192025,-1.197078,0.420161,1.342136,6.082771,-51.0,76.0,89.0,-59.0,-75.0,253.0,-855.0,15.0,313.0,1021.235,-0.8705469,3440.0,-0.00800585535,-0.046243873,0.020192025,0.1238203,-1.197078,0.003874575,50100.0,29154.0,7190.0,-5.0,11.0,266.0,0,None
2022-12-29 11:56:35.700,142.821,0.539999999999992,100.0,1012.0,24026.0,4885.0,99.0,964.0,40.0,4883.0,-146.1082,0.2542632,-0.0242192066666666,0.0432238833333333,-1.1615993333333334,51.18666666666667,-0.0194555033333333,0.0496958266666666,-1.1711410000000002,0.4432784,1.111767,5.880955,-58.0,134.0,92.0,4.0,125.0,262.0,-877.0,68.0,279.0,1021.095,-1.010234,3442.0,-0.0194555033333333,0.01490711,0.0496958266666666,0.0247596449999999,-1.1711410000000002,0.0532963999999999,51400.0,29335.0,8490.0,2.0,16.0,157.0,0,None
2022-12-29 11:56:36.250,143.341,0.5200000000000102,100.0,1123.0,23971.0,4888.0,99.0,948.0,41.0,4891.0,-141.2678,0.2425127,-0.0352389,0.04549359,-1.1451034999999998,51.995000000000005,-0.03118037,0.051674675,-1.152805,0.7477151,1.124451,3.480782,-47.0,-50.0,94.0,-37.0,32.0,262.0,-868.0,21.0,284.0,1021.012,-1.093672,3444.0,-0.03118037,-0.013449718,0.051674675,-0.099356585,-1.152805,0.02697354,52090.0,29411.0,9180.0,24.0,30.0,76.0,0,None
2022-12-29 11:56:36.800,143.841,0.5,100.0,1099.0,23980.0,4890.0,99.0,1068.0,43.0,4890.0,-131.5225,0.2406726,-0.03605632,0.0019411976666666,-1.146748,52.403333333333336,-0.0302115733333333,0.0071042133333333,-1.151952,0.6104658,1.131376,5.722538,-59.0,-21.0,110.0,-36.0,17.0,244.0,-960.0,-6.0,267.0,1021.016,-1.089453,3445.0,-0.0302115733333333,0.006132375,0.0071042133333333,-0.09023188,-1.151952,-0.0141522156666666,52460.0,29400.0,9550.0,32.0,40.0,35.0,0,None
2022-12-29 11:56:37.350,144.381,0.539999999999992,100.0,1141.0,23977.0,4890.0,99.0,1137.0,44.0,4880.0,-124.5398,0.2450785,-0.0462307533333333,-0.0336634566666666,-1.1552766666666665,52.656666666666666,-0.04116432,-0.0254132633333333,-1.1589973333333334,0.4574802,1.297695,8.753117,-41.0,-58.0,109.0,-33.0,-23.0,226.0,-1012.0,21.0,309.0,1020.962,-1.143281,3447.0,-0.04116432,-0.0532682633333333,-0.0254132633333333,0.0020434873333333,-1.1589973333333334,-0.0114368533333333,52660.0,29372.0,9750.0,17.0,33.0,14.0,0,None
2022-12-29 11:56:37.900,144.881,0.5,100.0,1209.0,23925.0,4890.0,99.0,1070.0,46.0,4890.0,-114.2871,0.2633333,-0.05918771,-0.006812986,-1.1649349999999998,52.760000000000005,-0.05415706,-0.0006198029999999,-1.1666795,0.4694849,1.34461,2.963034,-70.0,82.0,101.0,-23.0,7.0,247.0,-1101.0,-41.0,287.0,1020.97,-1.135234,3449.0,-0.05415706,-0.0105194955,-0.0006198029999999,0.058679365,-1.1666795,-0.00626733,52760.0,29318.0,9850.0,2.0,20.0,5.0,0,None
2022-12-29 11:56:38.450,145.401,0.5200000000000102,100.0,1152.0,23962.0,4893.0,99.0,1186.0,48.0,4882.0,-107.7683,0.2841993,-0.0590992866666666,0.0150902043333333,-1.169191,52.82,-0.05404761,0.0206552166666666,-1.168625,0.5158546,1.030107,3.464216,-57.0,39.0,102.0,-48.0,-19.0,256.0,-1090.0,-7.0,276.0,1020.905,-1.200156,3450.0,-0.05404761,0.0175234433333333,0.0206552166666666,0.0361236733333333,-1.168625,-0.0037719656666666,52820.0,29307.0,9910.0,0.0,9.0,-2.0,0,None
2022-12-29 11:56:39.000,145.941,0.539999999999992,100.0,1164.0,23944.0,4891.0,99.0,1118.0,49.0,4890.0,-99.11395,0.3295651,-0.040858805,0.023121115,-1.171592,52.870000000000005,-0.036281135,0.02718641,-1.1687765,0.3677517,1.266531,8.409566,-29.0,6.0,100.0,-39.0,58.0,288.0,-1009.0,15.0,302.0,1020.877,-1.228359,3451.0,-0.0371043199999999,0.0528540899999999,0.027305045,0.017505555,-1.1693175,0.024371455,52860.0,29301.0,9950.0,6.0,2.0,-9.0,0,None
2022-12-29 11:56:39.550,146.48,0.5389999999999873,100.0,1110.0,23950.0,4891.5,99.0,1048.0,51.0,4893.0,-91.85489,0.3839595,-0.0314351633333333,0.0245798533333333,-1.1687713333333336,52.91,-0.0290156166666666,0.0292726166666666,-1.1647236666666665,0.6099175,1.119384,4.488687,-68.5,6.0,93.5,-30.0,-10.0,249.0,-1058.5,-8.0,292.5,1020.873,-1.231992,3453.5,-0.0290156166666666,0.0017311911333333,0.0292726166666666,0.0037253433333333,-1.1647236666666665,-0.0071340103333333,52910.0,29328.0,10000.0,9.0,7.0,-15.0,0,None
2022-12-29 11:56:40.100,146.981,0.5010000000000048,100.0,1106.0,23951.0,4893.0,99.0,1127.0,53.0,4877.0,-87.73602,0.4217538,-0.0342504649999999,0.01595461,-1.171393,52.92,-0.031680585,0.021630205,-1.166196,0.5565742,1.14096,3.885412,-39.0,21.0,102.0,-66.0,-13.0,245.0,-974.0,38.0,299.0,1020.854,-1.251406,3456.0,-0.031680585,-0.004201219,0.021630205,-0.0146462065,-1.166196,-0.005416135,52920.0,29319.0,10010.0,10.0,12.0,-23.0,0,None
2022-12-29 11:56:40.650,147.741,0.5100000000000051,100.0,1128.5,23936.0,4890.0,99.0,1107.0,55.0,4870.5,-80.830435,0.4987167,-0.0357124499999999,0.0219635133333333,-1.1707215,52.92,-0.0331228316666666,0.0279296799999999,-1.1639758333333332,0.535875,1.5904465,7.461728,-59.5,9.5,97.0,-4.5,29.5,262.0,-1057.0,-9.0,296.0,1020.8395,-1.265547,3458.5,-0.0331659733333333,0.0226722295,0.0277969716666666,0.0247185708333333,-1.1639328333333334,-0.0007072418833333,52920.0,29327.5,10010.0,8.0,13.5,-26.5,0,None
2022-12-29 11:56:41.200,148.501,0.5,100.0,1080.0,23966.0,4877.0,99.0,1149.0,57.0,4890.0,-75.42931,0.5787256,-0.033614475,0.028496655,-1.171289,52.945,-0.03176004,0.0339894,-1.1624925,0.5475432,1.135355,7.216369,-46.0,-7.0,104.0,-55.0,11.0,265.0,-1104.0,1.0,301.0,1020.844,-1.260703,3461.0,-0.03176004,-0.0140076024999999,0.0339894,-0.033016555,-1.1624925,0.0090048299999999,52940.0,29341.0,10030.0,11.0,21.0,-29.0,0,None
2022-12-29 11:56:41.750,149.041,0.539999999999992,100.0,1129.0,23924.0,4890.0,99.0,1080.0,59.0,4883.0,-72.08881,0.6392333,-0.03526275,0.0113385536666666,-1.1731566666666666,52.96,-0.03259933,0.0179593366666666,-1.162483,0.5638417,1.054259,5.062671,-63.0,-4.0,103.0,-40.0,20.0,267.0,-1148.0,-4.0,321.0,1020.849,-1.256094,3462.0,-0.03259933,-0.0008298923333333,0.0179593366666666,-0.006120674,-1.162483,-0.0129282425333333,52960.0,29342.0,10050.0,13.0,27.0,-30.0,0,None
2022-12-29 11:56:42.300,149.541,0.5,100.0,1078.0,23946.0,4890.0,99.0,1129.0,60.0,4888.0,-70.13972,0.6793098,-0.036337395,0.0137300725,-1.16907,52.975,-0.033326675,0.02106417,-1.157493,0.5035177,1.375251,11.80374,-38.0,34.0,94.0,-22.0,33.0,257.0,-1195.0,15.0,274.0,1020.824,-1.280859,3463.0,-0.033326675,0.0251827649999999,0.02106417,0.053545765,-1.157493,0.01528957,52970.0,29353.0,10060.0,8.0,26.0,-29.0,0,None
2022-12-29 11:56:42.850,150.061,0.5200000000000102,100.0,1075.0,23953.0,4887.0,99.0,1078.0,62.0,4887.0,-67.6726,0.7395658,-0.0276901733333333,0.02280398,-1.1668736666666666,52.99,-0.0249658,0.0292548033333333,-1.1534726666666668,0.516842,1.224327,10.03039,-40.0,66.0,81.0,28.0,35.0,287.0,-1077.0,0.0,294.0,1020.868,-1.236875,3466.0,-0.0249658,0.02509615,0.0292548033333333,0.0150012399999999,-1.1534726666666668,-0.0097014133333333,52990.0,29398.0,10080.0,10.0,29.0,-31.0,0,None
2022-12-29 11:56:43.400,150.561,0.5,99.0,1142.0,23912.0,4887.0,99.0,1056.0,64.0,4890.0,-66.30213,0.7802634,-0.0344545849999999,0.0124322755,-1.1673205,52.995000000000005,-0.0326247199999999,0.01799276,-1.152311,0.6925272,1.612013,8.312432,-73.0,-45.0,97.0,-48.0,-45.0,234.0,-959.0,0.0,313.0,1020.845,-1.260234,3467.0,-0.0326247199999999,-0.03100388,0.01799276,-0.063518655,-1.152311,0.013185624,53000.0,29394.0,10090.0,11.0,37.0,-36.0,0,None
2022-12-29 11:56:43.950,151.081,0.5199999999999818,99.0,1158.0,23927.0,4890.0,99.0,1111.0,65.0,4890.0,-64.40474,0.840408,-0.0591924966666666,0.0040011753333333,-1.171251,52.96666666666667,-0.0561019766666666,0.0113665486666666,-1.1549913333333333,0.4733182,1.290201,10.79374,-57.0,2.0,107.0,5.0,25.0,253.0,-1042.0,0.0,293.0,1020.833,-1.271797,3468.0,-0.0562936533333333,-0.0065685533333333,0.0114236986666666,0.0064686686666666,-1.154873,0.005915007,52970.0,29387.0,10060.0,10.0,36.0,-35.0,0,None
2022-12-29 11:56:44.500,151.581,0.5,99.0,1106.0,23939.0,4880.0,99.0,1137.0,67.0,4880.0,-63.28233,0.8811247,-0.056563475,0.0076297645,-1.177369,52.965,-0.05302353,0.014591875,-1.159921,0.5293955,1.643113,7.891404,-60.0,0.0,117.0,-29.0,24.0,266.0,-1100.0,-27.0,300.0,1020.849,-1.256016,3470.0,-0.05302353,0.0135135565,0.014591875,0.0114569275,-1.159921,-0.00118827,52960.0,29360.0,10050.0,8.0,24.0,-36.0,0,None
2022-12-29 11:56:45.050,152.101,0.5200000000000102,99.0,1134.0,23918.0,4882.0,99.0,1154.0,68.0,4880.0,-61.81972,0.9439372,-0.0424477699999999,0.01322017,-1.181764,52.97,-0.0392164633333333,0.0197513466666666,-1.163881,0.3886451,1.967402,9.696584,-45.0,8.0,103.0,-61.0,49.0,247.0,-916.0,7.0,291.0,1020.833,-1.271953,3471.0,-0.0392164633333333,0.0397059666666666,0.0197513466666666,0.0126330523,-1.163881,0.001438984,52970.0,29339.0,10060.0,9.0,16.0,-31.0,0,None
2022-12-29 11:56:45.600,152.601,0.5,99.0,1121.0,23951.0,4883.0,99.0,1151.0,70.0,4883.0,-60.97343,0.9859917,-0.03254598,0.014578245,-1.1842795000000002,52.97,-0.029864485,0.0210489349999999,-1.166162,0.4509197,1.392068,5.819502,-45.0,-8.0,99.0,-12.0,28.0,250.0,-1133.0,0.0,292.0,1020.818,-1.286719,3473.0,-0.029864485,0.01989179,0.0210489349999999,0.0038547184999999,-1.166162,0.0056954398,52970.0,29318.0,10060.0,8.0,15.0,-32.0,0,None
2022-12-29 11:56:46.150,153.121,0.5200000000000102,99.0,1173.0,23934.0,4890.0,99.0,1134.0,71.0,4890.0,-59.81469,1.046267,-0.02835288,0.0153878766666666,-1.1814053333333332,52.98333333333333,-0.02544128,0.0220590433333333,-1.162375333333333,0.5775019,1.182221,4.125047,-70.0,24.0,91.0,-49.0,25.0,261.0,-958.0,4.0,282.0,1020.81,-1.294922,3474.0,-0.02544128,-0.00180577,0.0220590433333333,0.0024601316666666,-1.162375333333333,0.0051257623333333,52980.0,29335.0,10070.0,8.0,15.0,-35.0,0,None
2022-12-29 11:56:46.700,153.642,0.5209999999999866,99.0,1145.0,23927.0,4893.0,99.0,1092.0,73.0,4893.0,-58.76739,1.101836,-0.028369395,0.01314862,-1.183224,52.995000000000005,-0.02610378,0.02044452,-1.1627775,0.5413928,1.29181,9.466177,-42.0,0.0,95.0,5.0,-2.0,276.0,-1136.0,-27.0,321.0,1020.825,-1.279766,3476.0,-0.02610378,-0.0045063765,0.02044452,-0.0177571305,-1.1627775,0.000170605,52990.0,29344.0,10080.0,8.0,20.0,-34.0,0,None
2022-12-29 11:56:47.250,154.162,0.5200000000000102,99.0,1141.0,23922.0,4893.0,99.0,1191.0,75.0,4893.0,-58.12825,1.136189,-0.0293867866666666,0.0095802743333333,-1.1867416666666666,53.02333333333333,-0.0261259833333333,0.0167309433333333,-1.1651533333333333,0.4587927,1.614455,7.912239,-51.0,-24.0,94.0,-65.0,17.0,272.0,-1002.0,0.0,306.0,1020.797,-1.307734,3478.0,-0.0261259833333333,-0.0018012766666666,0.0167309433333333,-0.0197032189999999,-1.1651533333333333,0.0128703033333333,53020.0,29327.0,10110.0,8.0,24.0,-33.0,0,None
2022-12-29 11:56:47.800,154.684,0.5219999999999914,98.0,1031.0,23930.0,4890.0,99.0,1097.0,77.0,4896.0,-57.27663,1.184267,-0.02611483,-0.00263063175,-1.1923625,53.055,-0.0233014299999999,0.005098314,-1.170213,0.4905758,1.386923,6.529391,-61.0,5.0,92.0,-55.0,52.0,255.0,-1044.0,9.0,316.0,1020.825,-1.279922,3479.0,-0.0233014299999999,-0.03633694,0.005098314,-0.0042208,-1.170213,-0.0225397699999999,53050.0,29305.0,10140.0,3.0,25.0,-34.0,0,None
2022-12-29 11:56:48.350,155.204,0.5200000000000102,98.0,1145.0,23921.0,4898.0,99.0,1161.0,78.0,4883.0,-56.80617,1.213872,-0.0381345533333333,0.0125211023333333,-1.189578,53.06,-0.0350676833333333,0.0201722266666666,-1.166583666666667,0.4659121,1.439014,7.470295,-52.0,66.0,100.0,-15.0,-43.0,263.0,-1154.0,26.0,308.0,1020.774,-1.331484,3480.0,-0.0350676833333333,-0.03101085,0.0201722266666666,0.05634695,-1.166583666666667,0.0016616739999999,53060.0,29313.0,10150.0,-8.0,26.0,-38.0,0,None
2022-12-29 11:56:48.900,155.98399999999998,0.519999999999996,98.0,1133.5,23891.5,4885.0,99.0,1148.0,80.5,4898.5,-55.829005,1.277603,-0.0493853274999999,0.0305943183333333,-1.1903185833333334,53.09666666666666,-0.0451835333333333,0.0382335524999999,-1.1659961666666665,0.4900757,1.373828,9.166268,-61.0,3.5,95.5,-48.5,33.0,273.0,-962.0,-14.5,290.0,1020.7805,-1.3248825,3482.5,-0.0451835333333333,0.0037905677499999,0.0382335524999999,0.0071896091666666,-1.1659961666666665,0.01012410395,53085.0,29319.0,10175.0,-3.5,20.0,-41.5,0,None
2022-12-29 11:56:49.450,156.764,0.5200000000000102,98.0,1065.0,23911.0,4893.0,99.0,1056.0,83.0,4901.0,-55.0184,1.328645,-0.0254314,0.025311145,-1.1875425000000002,53.14,-0.021801715,0.03297311,-1.161488,0.4840373,1.288457,9.985092,-22.0,-10.0,90.0,1.0,99.0,280.0,-1049.0,16.0,306.0,1020.826,-1.279063,3485.0,-0.021801715,0.056716925,0.03297311,-0.0345622749999999,-1.161488,0.020976605,53140.0,29335.0,10230.0,10.0,11.0,-40.0,0,None
2022-12-29 11:56:50.000,157.304,0.539999999999992,98.0,999.0,23947.0,4893.0,99.0,1020.0,84.0,4901.0,-54.312,1.371136,-0.0021327833333333,0.0167303966666666,-1.1736236666666666,53.13333333333333,0.000835555,0.0245880966666666,-1.1473076666666666,0.534197,1.503066,12.98205,-26.0,44.0,99.0,-52.0,41.0,283.0,-1099.0,68.0,317.0,1020.863,-1.241953,3486.0,0.000835555,0.0290543099999999,0.0245880966666666,-0.0230381666666666,-1.1473076666666666,0.0235727523333333,53140.0,29388.0,10230.0,11.0,18.0,-38.0,0,None
2022-12-29 11:56:50.550,157.65466666666669,0.1001666666666664,98.0,1120.0,23899.0,4890.0,99.0,1120.1666666666667,86.83333333333333,4888.833333333333,-53.95600666666667,1.3888128333333334,-0.020654555,0.0142152316666666,-1.158038333333333,53.06999999999999,-0.018380865,0.0227889166666666,-1.1312323333333334,0.5751469833333334,1.4550271666666668,9.616328,-10.0,-36.0,96.0,-34.0,-66.0,263.0,-1114.0,60.0,314.0,1020.846,-1.259609,3487.0,-0.018380865,-0.1605977733333333,0.0227889166666666,-0.0060605033333333,-1.1312323333333334,-0.0101783713333333,53075.0,29505.0,10165.0,5.5,34.0,-38.0,0,None
2022-12-29 11:56:51.100,158.205,0.0999999999999999,98.0,1184.0,23863.0,4890.0,99.0,1194.8,88.4,4887.0,-53.30672,1.4163194,-0.12622805,0.005348461,-1.1667930000000002,53.045,-0.12174062,0.0140017999999999,-1.139604,0.51414532,1.372684,8.9257952,-50.0,-5.0,118.0,-51.0,-254.0,293.0,-1145.0,-58.0,321.0,1020.771,-1.334219,3489.0,-0.12174062,-0.21626335,0.0140017999999999,0.04077423,-1.139604,-0.004620374,53080.0,29437.0,10170.0,24.0,-14.0,-21.0,0,None
2022-12-29 11:56:51.650,158.70860000000002,0.1036000000000001,98.0,1285.0,23855.0,4893.0,99.0,1240.4,90.4,4884.6,-52.746058000000005,1.4389846000000002,-0.1776334333333333,0.0156736333333333,-1.181918,53.17333333333334,-0.1709270333333333,0.0242326033333333,-1.155197,0.43267872,1.4842689999999998,7.759241,-33.0,75.0,151.0,-39.0,-69.0,271.0,-1087.0,7.0,263.0,1020.767,-1.338203,3491.0,-0.1709270333333333,0.0223805166666666,0.0242326033333333,0.0244829353333333,-1.155197,-0.03117481,53330.0,29320.0,10420.0,60.0,-91.0,18.0,0,None
2022-12-29 11:56:52.200,159.275,0.1003333333333339,97.0,1008.5,23929.5,4893.0,99.0,1069.0,92.0,4893.0,-52.15287333333333,1.4629613333333331,-0.1323891999999999,0.0094765029999999,-1.1912753333333332,53.57,-0.1272200333333333,0.0154163866666666,-1.1638446666666666,0.5061642666666667,1.2324821666666663,9.880310666666666,-38.5,-27.5,127.5,-26.0,78.0,259.0,-1026.5,8.0,291.5,1020.7545,-1.3508205,3492.5,-0.1272200333333333,0.0925085933333333,0.0154163866666666,-0.0217836683333333,-1.1638446666666666,0.0025164473333333,53700.0,29357.0,10790.0,83.0,-148.0,23.0,0,None
2022-12-29 11:56:52.750,159.8286,0.0999999999999999,97.0,1106.0,23876.0,4890.0,99.0,1075.6,93.6,4892.4,-51.688702,1.4832426,-0.08542139,-0.0003233519999999,-1.183433,53.89,-0.08270185,0.0060028505,-1.1566475,0.45431238,1.5848939999999998,9.7172456,-70.0,57.0,137.0,-19.0,-83.0,264.0,-1023.0,-23.0,315.0,1020.769,-1.336172,3495.0,-0.08270185,0.04037504,0.0060028505,0.02263067,-1.1566475,0.0028435355,53980.0,29367.0,11070.0,91.0,-179.0,33.0,0,None
2022-12-29 11:56:53.300,160.375,0.099999999999999,97.0,931.0,23942.0,4893.0,99.0,1102.0,95.16666666666669,4892.833333333333,-51.299655,1.502568,-0.0865249033333333,0.0174260996666666,-1.1954306666666663,54.156666666666666,-0.0852909566666666,0.02421573,-1.1689193333333334,0.7221611333333334,1.4199701666666666,7.530192500000001,-87.0,-24.0,109.0,3.0,-292.0,276.0,-1053.0,-39.0,292.0,1020.778,-1.326953,3496.0,-0.0852909566666666,-0.0644016373333333,0.02421573,0.04427536,-1.1689193333333334,-0.0282464866666666,54260.0,29270.0,11350.0,107.0,-196.0,39.0,0,None
2022-12-29 11:56:53.850,160.9286,0.0999999999999999,97.0,1389.0,23816.0,4895.0,99.0,1374.8,97.2,4890.8,-50.943372,1.5205926,-0.1442603999999999,-0.0012807092999999,-1.2195843333333334,54.51,-0.1424238333333333,0.0058524043333333,-1.192173,0.56929918,1.4807938,8.531130200000002,-63.0,-68.0,132.0,24.0,61.0,293.0,-1233.0,11.0,302.0,1020.624,-1.480937,3497.0,-0.1424238333333333,-0.0541629948333333,0.0058524043333333,-0.0498061533333333,-1.192173,-0.0372524686666666,54560.0,29154.0,11650.0,124.0,-231.0,36.0,0,None
2022-12-29 11:56:54.400,161.49466666666666,0.103333333333334,97.0,1039.0,23907.0,4893.0,99.0,1149.8333333333333,99.16666666666669,4890.666666666667,-50.64019666666667,1.5391676666666667,-0.1396250333333333,-0.0158373066666666,-1.2144446666666668,54.95333333333334,-0.1383743333333333,-0.0069602366666666,-1.1873983333333331,0.5113857,1.8367641666666663,8.927960166666667,-84.0,28.0,123.0,-67.0,73.0,259.0,-901.0,0.0,306.0,1020.648,-1.457109,3499.0,-0.1383743333333333,0.0159581133333333,-0.0069602366666666,0.0244322,-1.1873983333333331,0.0089580136666666,54940.0,29199.0,12030.0,135.0,-267.0,50.0,0,None
2022-12-29 11:56:54.950,162.0726,0.1115999999999985,97.0,1299.0,23839.0,4890.0,99.0,1296.6,101.2,4888.4,-50.40862800000001,1.55805,-0.1420281,0.003495304,-1.2063023333333334,55.45000000000001,-0.1403446666666666,0.01211587,-1.1802503333333334,0.4857477999999999,1.642205,9.4138836,-86.0,75.0,131.0,-27.0,8.0,241.0,-1118.0,18.0,275.0,1020.557,-1.548125,3500.0,-0.1403446666666666,0.0308826366666666,0.01211587,0.0380540566666666,-1.1802503333333334,0.0072185013333333,55340.0,29231.0,12430.0,134.0,-306.0,42.0,0,None
2022-12-29 11:56:55.500,162.6132,0.1043999999999982,97.0,1400.0,23802.0,4896.0,99.0,1281.2,103.0,4890.0,-50.236084,1.5769432,-0.13503955,0.0141019099999999,-1.208462,55.89,-0.1332028499999999,0.02061837,-1.18235,0.53019474,1.5198486,9.4997808,-99.0,-25.0,120.0,-25.0,109.0,263.0,-998.0,13.0,278.0,1020.515,-1.589844,3501.0,-0.1332028499999999,0.05447092425,0.02061837,-0.010456914,-1.18235,0.001985201,55770.0,29240.0,12860.0,148.0,-338.0,50.0,0,None
2022-12-29 11:56:56.050,163.14159999999998,0.1042000000000029,97.0,1094.0,23871.0,4887.0,99.0,1063.0,104.6,4888.6,-50.121992,1.5943978,-0.1408000999999999,0.0047237236666666,-1.2109053333333333,56.42666666666667,-0.1399132,0.011001127,-1.184283,0.7035435800000001,1.3527702,7.9658244,-104.0,68.0,127.0,-23.0,3.0,261.0,-911.0,21.0,293.0,1020.467,-1.638203,3503.0,-0.1399132,-0.0472959066666666,0.011001127,-0.0789505766666666,-1.184283,-0.009257419,56270.0,29188.0,13360.0,164.0,-361.0,72.0,0,None
2022-12-29 11:56:56.600,163.696,0.099999999999999,97.0,1188.0,23846.0,4893.0,99.0,1191.8333333333333,106.5,4887.666666666667,-50.04032333333333,1.6129750000000005,-0.1521765666666666,-0.0017013489999999,-1.216392666666667,57.03,-0.1508319,0.0046566523333333,-1.1893399999999998,0.6418432000000001,1.4787426666666663,9.005273,-103.0,66.0,132.0,-21.0,-33.0,249.0,-1024.0,-33.0,285.0,1020.412,-1.692969,3504.0,-0.1508319,0.040373433,0.0046566523333333,0.0442665673333333,-1.1893399999999998,0.0015643939999999,56790.0,29181.0,13880.0,173.0,-383.0,69.0,0,None
2022-12-29 11:56:57.150,164.246,0.0999999999999999,96.0,1146.0,23851.0,4890.0,99.0,1170.6,108.4,4898.4,-50.014494,1.6312942,-0.1625609499999999,0.0048114665,-1.216267,57.54,-0.16138975,0.0110296085,-1.189543,0.69287876,1.567007,8.617429,-110.0,68.0,139.0,0.0,37.0,230.0,-1192.0,-57.0,283.0,1020.337,-1.768516,3505.0,-0.16138975,-0.034674945,0.0110296085,0.01889259,-1.189543,-0.003733053,57290.0,29179.0,14380.0,181.0,-409.0,68.0,0,None
2022-12-29 11:56:57.700,164.79933333333335,0.103333333333334,96.0,958.0,23925.5,4894.5,99.0,1359.0,110.16666666666669,4892.166666666667,-50.03140833333333,1.6487533333333335,-0.1675687666666666,0.0081592076666666,-1.2142446666666664,58.04666666666666,-0.1664226333333333,0.013732346,-1.186899,0.70797955,1.6019286666666668,8.859004833333332,-133.5,63.5,140.0,-37.0,-221.5,256.5,-1006.5,-1.5,299.0,1020.196,-1.908867,3507.5,-0.1664226333333333,-0.14197898,0.013732346,0.0429566363333333,-1.186899,0.013453615,58080.0,29194.0,15170.0,190.0,-451.0,71.5,0,None
2022-12-29 11:56:58.250,165.374,0.104000000000002,96.0,1119.0,23861.0,4890.0,99.0,1231.8,112.4,4890.8,-50.06127600000001,1.6662502,-0.1698331333333333,0.0230470466666666,-1.2114116666666668,58.833333333333336,-0.1694952666666666,0.02804918,-1.183963,0.76752018,1.4213298,11.0250318,-128.0,8.0,133.0,-31.0,73.0,265.0,-1136.0,39.0,277.0,1020.064,-2.041641,3509.0,-0.1694952666666666,0.0367562233333333,0.02804918,0.0157464823333333,-1.183963,-0.0110900533333333,59070.0,29226.0,16160.0,211.0,-486.0,81.0,0,None
2022-12-29 11:56:58.800,165.886,0.0999999999999999,96.0,1369.0,23798.0,4896.0,99.0,1221.2,114.0,4880.6,-50.106272,1.6839622,-0.1800517999999999,0.01395886,-1.209155,59.535,-0.1812508,0.020314625,-1.18206,0.77988514,1.6034624000000002,10.9224006,-129.0,-38.0,159.0,19.0,-76.0,278.0,-1087.0,-5.0,289.0,1019.942,-2.163125,3511.0,-0.1812508,-0.128939678,0.020314625,-0.040749775,-1.18206,0.030368045,59750.0,29228.0,16840.0,221.0,-504.0,83.0,0,None
2022-12-29 11:56:59.350,166.436,0.099999999999999,96.0,1084.0,23869.0,4880.0,99.0,1213.8333333333333,115.83333333333331,4889.0,-50.14395999999999,1.7028818333333335,-0.1613629666666666,0.0140946666666666,-1.2054393333333333,60.26333333333334,-0.1629976666666666,0.0199125466666666,-1.1778016666666666,0.74551525,1.8574516666666667,12.022058,-160.0,-1266.7,137.0,19.0,132.0,276.0,-1022.0,-11.0,305.0,1019.897,-2.208359,3512.0,-0.1629976666666666,0.0955282433333333,0.0199125466666666,0.0026129273333333,-1.1778016666666666,-0.0032364693333333,60510.0,29257.0,17600.0,234.0,-523.0,87.0,1,27_xgyro_avg_abrupt_-1276.7
2022-12-29 11:56:59.900,166.98600000000002,0.0999999999999999,96.0,1292.0,23826.0,4901.0,99.0,1206.2,117.6,4885.0,-50.18492799999999,1.722224,-0.1540151333333333,0.009032029,-1.2075073333333333,61.16666666666666,-0.1566960333333333,0.01539594,-1.179568,0.7356645399999999,1.6989177999999998,13.707324,-153.0,-1308.7,138.0,-43.0,-68.0,242.0,-894.0,9.0,282.0,1019.804,-2.301328,3513.0,-0.1566960333333333,-0.0452552433333333,0.01539594,-0.0053376333333333,-1.179568,-0.0284771219999999,61250.0,29245.0,18340.0,238.0,-533.0,80.0,1,27_xgyro_avg_abrupt_-1276.7
2022-12-29 11:57:00.450,167.54933333333335,0.103333333333334,96.0,1236.0,23795.0,4890.0,99.0,1151.8333333333333,119.5,4891.5,-50.21594666666667,1.7415779999999996,-0.1320737,0.0139704166666666,-1.2110626666666666,62.01666666666667,-0.1349841666666666,0.02067033,-1.1821723333333332,0.7447093499999999,1.645722666666667,9.913640166666667,-147.0,-1257.7,138.0,-22.0,139.0,244.0,-1101.0,-2.0,269.0,1019.743,-2.361797,3515.0,-0.1349841666666666,0.05091671,0.02067033,0.0242043653,-1.1821723333333332,0.0026338133333333,61970.0,29223.0,19060.0,244.0,-546.0,87.0,1,27_xgyro_avg_abrupt_-1276.7
2022-12-29 11:57:01.000,168.122,0.1039999999999963,96.0,1254.0,23825.0,4900.0,99.0,1227.6,121.4,4893.6,-50.24503,1.7617477999999998,-0.14985575,0.015081935,-1.2101915,62.655,-0.15288835,0.020774225,-1.180353,0.76727232,1.6101718000000005,11.8493372,-161.0,-1277.7,129.0,-51.0,-146.0,244.0,-1044.0,-17.0,289.0,1019.722,-2.383281,3516.0,-0.15288835,-0.11912474,0.020774225,-0.0181753955,-1.180353,-0.01373661,62610.0,29239.0,19700.0,246.0,-545.0,80.0,1,27_xgyro_avg_abrupt_-1276.7
2022-12-29 11:57:01.550,168.626,0.0999999999999999,96.0,1244.0,23812.0,4893.0,99.0,1184.4,123.0,4894.2,-50.252742,1.776234,-0.1430090666666666,0.0092481153333333,-1.2123206666666666,63.303333333333335,-0.1462047,0.01593288,-1.181958,0.7085999199999999,1.5219678,11.04366,-139.0,-1278.7,148.0,-41.0,116.0,267.0,-1094.0,-4.0,305.0,1019.576,-2.528828,3517.0,-0.1462047,0.0527049566666666,0.01593288,0.0071006266666666,-1.181958,-0.016837176,63240.0,29228.0,20330.0,250.0,-564.0,93.0,1,27_xgyro_avg_abrupt_-1276.7
2022-12-29 11:57:02.100,169.193,0.103333333333334,96.0,1217.0,23813.0,4891.0,99.0,1139.8333333333333,124.83333333333331,4896.0,-50.23057,1.7901503333333333,-0.1151188333333333,0.0205984366666666,-1.210389333333333,64.13666666666667,-0.1191832999999999,0.0274171233333333,-1.1793209999999998,0.8439547666666667,1.5116626666666668,10.5589455,-144.0,-1301.7,132.0,-59.0,55.0,257.0,-940.0,1.0,285.0,1019.526,-2.579062,3518.0,-0.1196954,0.03391985,0.0274910766666666,0.0212367433333333,-1.1793676666666666,0.001638134,63940.0,29239.0,21030.0,245.0,-567.0,93.0,1,27_xgyro_avg_abrupt_-1276.7
2022-12-29 11:57:02.650,169.7826,0.1122000000000013,96.0,1096.5,23855.0,4888.5,99.0,949.6,126.8,4895.2,-50.173126,1.8026556,0.0012533703333333,0.0311044966666666,-1.21004,65.0,-0.0037092743333333,0.0366090233333333,-1.1786196666666668,0.95242942,1.5845742,9.803893,-152.5,-1303.7,108.0,-31.0,264.0,265.0,-1165.5,-22.0,284.5,1019.499,-2.6062890000000003,3520.0,-0.0037092743333333,0.2687996666666667,0.0366090233333333,0.0442155166666666,-1.1786196666666668,0.0089816533333333,64650.0,29236.0,21740.0,235.0,-562.0,100.0,1,27_xgyro_avg_abrupt_-1276.7
2022-12-29 11:57:03.200,170.30700000000002,0.0999999999999999,96.0,946.0,23900.0,4887.0,99.0,907.4,128.2,4887.0,-50.018964,1.8087682,0.06379793,0.04767911,-1.198848,65.655,0.057506385,0.05378191,-1.167181,1.0380257399999997,1.4604132,9.9386834,-139.0,-1271.7,47.0,-85.0,-7.0,241.0,-950.0,19.0,288.0,1019.508,-2.597188,3522.0,0.057506385,0.003024175,0.05378191,0.020896353,-1.167181,0.0207801395,65370.0,29268.0,22460.0,212.0,-506.0,102.0,1,27_xgyro_avg_abrupt_-1276.7
2022-12-29 11:57:03.750,170.86033333333333,0.099999999999999,96.0,1023.0,23852.0,4887.0,99.0,995.3333333333334,129.5,4884.5,-49.66856000000001,1.8059896666666664,0.0449401633333333,0.0458360866666666,-1.1960803333333334,66.24666666666667,0.04070208,0.05298815,-1.1627953333333334,0.7692266499999999,1.430182,11.670986166666667,-148.0,-1295.7,68.0,-49.0,-54.0,251.0,-1082.0,13.0,316.0,1019.315,-2.790469,3523.0,0.04070208,-0.0908622566666666,0.05298815,0.0059396033333333,-1.1627953333333334,0.0105682333333333,66265.0,29343.0,23355.0,168.5,-388.0,106.0,1,27_xgyro_avg_abrupt_-1276.7
2022-12-29 11:57:04.300,171.411,0.0999999999999999,96.0,1063.0,23857.0,4883.0,99.0,1063.2,131.0,4883.0,-49.24709,1.8009036000000005,0.0256688166666666,0.0530865233333333,-1.192998,67.03333333333333,0.02399119,0.0604952566666666,-1.158547,0.73097786,1.24116004,10.5222934,-136.0,-1314.7,75.0,-66.0,-68.0,290.0,-1024.0,-46.0,322.0,1019.194,-2.911562,3525.0,0.02399119,-0.0227427633333333,0.0604952566666666,0.0182973066666666,-1.158547,-0.0101069386666666,67260.0,29360.0,24350.0,133.0,-289.0,113.0,1,27_xgyro_avg_abrupt_-1276.7
2022-12-29 11:57:04.850,171.91500000000002,0.104000000000002,96.0,942.0,23889.0,4890.0,99.0,976.6,132.6,4889.0,-48.68160400000001,1.7941032,0.02163801,0.0458002,-1.1989955,67.765,0.0213702949999999,0.05409866,-1.1635805,0.6054860200000001,1.7099841999999998,12.646794,-121.0,-1289.7,85.0,-98.0,-21.0,250.0,-900.0,-14.0,273.0,1019.084,-3.021094,3526.0,0.0213702949999999,0.044238211,0.05409866,-0.005921055,-1.1635805,-0.00761277,68010.0,29314.0,25100.0,109.0,-235.0,93.0,1,27_xgyro_avg_abrupt_-1276.7
2022-12-29 11:57:05.400,172.487,0.103333333333334,96.0,1116.0,23859.0,4887.0,99.0,1034.6666666666667,134.0,4893.666666666667,-47.96375666666666,1.786536,0.0471349899999999,0.0533742033333333,-1.2003903333333332,68.45666333333334,0.0476588833333333,0.0629641133333333,-1.1637730000000002,0.61411075,1.4017105,10.229775833333331,-78.0,-1289.7,73.0,-57.0,119.0,279.0,-944.0,25.0,318.0,1018.989,-3.11625,3527.0,0.0476588833333333,0.05506411,0.0629641133333333,0.0091568821,-1.1637730000000002,0.0048969843333333,68680.0,29346.0,25770.0,86.0,-176.0,77.0,1,27_xgyro_avg_abrupt_-1276.7
2022-12-29 11:57:05.950,173.05900000000003,0.1039999999999963,96.0,807.0,23903.0,4896.0,99.0,852.4,135.6,4885.4,-47.223784,1.781971,0.04646583,0.0658324399999999,-1.1909043333333331,69.16332999999999,0.0466501266666666,0.07527043,-1.152796,0.54669196,1.4422453999999998,11.502163200000002,-105.0,-1253.7,79.0,-40.0,-167.0,280.0,-994.0,-6.0,309.0,1018.978,-3.127109,3528.0,0.0466501266666666,-0.0164447933333333,0.07527043,0.0100108586666666,-1.152796,0.0308051,69240.0,29395.0,26330.0,71.0,-115.0,36.0,1,27_xgyro_avg_abrupt_-1276.7
2022-12-29 11:57:06.500,173.5914,0.1081999999999993,96.0,914.0,23913.0,4890.0,99.0,874.4,136.8,4883.2,-46.552588,1.7806089999999997,0.03322234,0.0573331049999999,-1.1836755,69.405,0.03512718,0.066971595,-1.1448635,0.6932526200000001,1.5683006000000002,9.6120186,-102.0,-1304.7,89.0,-56.0,122.0,279.0,-1013.0,-18.0,311.0,1018.962,-3.143672,3529.0,0.03512718,0.01650757,0.066971595,-0.01679273185,-1.1448635,0.005005819,69410.0,29446.0,26500.0,65.0,-72.0,-32.0,1,27_xgyro_avg_abrupt_-1276.7
2022-12-29 11:57:07.050,174.12399999999997,0.104000000000002,96.0,998.0,23865.0,4887.0,99.0,979.2,138.2,4893.6,-45.675958,1.7810013999999998,0.0133105963333333,0.0277280866666666,-1.1796746666666666,69.37666666666667,0.016101948,0.0376402333333333,-1.1405269999999998,0.60603572,1.5312434,12.832898,-37.0,-1410.7,79.0,-24.0,-59.0,261.0,-912.0,-14.0,324.0,1018.939,-3.16625,3530.0,0.016101948,0.0116553466666666,0.0376402333333333,-0.0353385828333333,-1.1405269999999998,-0.0144247933333333,69370.0,29470.0,26460.0,57.0,-38.0,-37.0,1,27_xgyro_avg_abrupt_-1276.7
2022-12-29 11:57:07.600,174.67800000000005,0.099999999999999,96.0,980.0,23873.0,4871.0,99.0,971.6666666666666,139.66666666666666,4894.5,-44.86175333333333,1.7829613333333334,0.03304157,0.0124322666666666,-1.1821776666666668,69.37,0.0360175566666666,0.0228922866666666,-1.1438043333333334,0.5675609500000001,1.6491508333333331,14.227915,-65.0,-1301.7,96.0,-1.0,104.0,235.0,-1148.0,11.0,283.0,1018.933,-3.172266,3532.0,0.0360175566666666,0.08795835,0.0228922866666666,-0.0120411429999999,-1.1438043333333334,-0.00413954,69360.0,29453.0,26450.0,38.0,-14.0,-38.0,1,27_xgyro_avg_abrupt_-1276.7
2022-12-29 11:57:08.150,175.228,0.0999999999999999,96.0,988.0,23886.0,4896.0,99.0,1016.0,141.2,4894.4,-44.147444,1.7862576,0.064390535,0.01252449,-1.1850079999999998,69.39,0.0653043,0.023805005,-1.146201,0.5447151,1.382358,13.517528000000002,-58.0,-1252.7,64.0,-28.0,43.0,236.0,-1275.0,-18.0,309.0,1018.947,-3.158672,3533.0,0.0653043,0.012192995,0.023805005,-5.780200000000003e-05,-1.146201,0.00459066,69390.0,29437.0,26480.0,14.0,23.0,-37.0,1,27_xgyro_avg_abrupt_-1276.7
2022-12-29 11:57:08.700,175.778,0.099999999999999,95.5,1050.5,23904.0,4888.5,99.0,1055.5,142.83333333333334,4883.833333333333,-43.41211166666668,1.790369833333333,0.0604823933333333,0.01240448,-1.1890253333333334,69.4,0.0606972633333333,0.0244060266666666,-1.1501946666666667,0.5182826666666667,1.8222468333333333,13.212686666666668,-55.5,-1285.2,71.5,-43.5,1.0,259.5,-1049.0,-12.5,312.0,1018.909,-3.196094,3534.5,0.0606972633333333,-0.0152836666666666,0.0244060266666666,0.0017635626666666,-1.1501946666666667,-0.0001315133333333,69400.0,29415.0,26490.0,-13.0,66.0,-38.0,1,27_xgyro_avg_abrupt_-1276.7
2022-12-29 11:57:09.250,176.3326,0.1042000000000029,95.0,1047.0,23866.0,4895.0,99.0,1056.8,144.4,4888.2,-42.83573,1.7950844,0.05721846,0.0147410633333333,-1.1947843333333334,69.43666666666667,0.0586778866666666,0.0263082733333333,-1.1560416666666666,0.5154792799999999,1.4058024,11.065949999999996,-22.0,-1273.7,59.0,-41.0,16.0,261.0,-948.0,25.0,307.0,1018.872,-3.233281,3536.0,0.0586778866666666,-0.0197731493333333,0.0263082733333333,0.0044471336666666,-1.1560416666666666,0.0062033221333333,69420.0,29379.0,26510.0,-38.0,104.0,-42.0,1,27_xgyro_avg_abrupt_-1276.7
2022-12-29 11:57:09.800,176.9056666666667,0.103333333333334,95.0,1080.0,23847.0,4893.0,99.0,1066.1666666666667,146.0,4893.666666666667,-42.285073333333344,1.803848,0.05297323,0.0183430433333333,-1.194182,69.48666666666666,0.0546444433333333,0.0294445766666666,-1.156302,0.5087347166666666,1.2615865000000002,9.722892666666668,-28.0,-1276.7,70.0,-45.0,-8.0,271.0,-942.0,-2.0,320.0,1018.852,-3.253438,3537.0,0.0546444433333333,0.002339801,0.0294445766666666,0.0032094343333333,-1.156302,0.0039320203333333,69470.0,29375.0,26560.0,-62.0,142.0,-44.0,1,27_xgyro_avg_abrupt_-1276.7
2022-12-29 11:57:10.350,177.497,0.1079999999999983,95.0,1087.0,23854.0,4895.0,99.0,1100.4,148.0,4892.4,-41.75695399999999,1.8149648000000005,0.04924415,0.0221081149999999,-1.1933935,69.5,0.051115755,0.033057155,-1.156454,0.4746996,1.1233778,7.927401999999999,-54.0,-1266.7,75.0,-30.0,20.0,257.0,-1005.0,-19.0,302.0,1018.831,-3.274219,3538.0,0.051115755,0.0011511675,0.033057155,0.0082900495,-1.156454,0.0123148335,69490.0,29375.0,26580.0,-82.0,176.0,-48.0,1,27_xgyro_avg_abrupt_-1276.7
2022-12-29 11:57:10.900,178.041,0.1079999999999983,95.0,1130.0,23845.0,4900.0,99.0,1101.4,149.6,4896.0,-41.221344,1.828905,0.05641397,0.02202286,-1.193808,69.51666666666667,0.0578747333333333,0.03238204,-1.1573020000000005,0.44919086,1.1534368000000002,7.9125642,-28.0,-1274.7,72.0,-70.0,0.0,267.0,-1073.0,17.0,319.0,1018.864,-3.240781,3540.0,0.0578747333333333,0.0377721606666666,0.03238204,0.0062232283333333,-1.1573020000000005,-0.01370837,69510.0,29369.5,26600.0,-106.0,222.5,-48.0,1,27_xgyro_avg_abrupt_-1276.7
2022-12-29 11:57:11.450,178.57299999999998,0.1079999999999983,95.0,1174.0,23797.0,4900.0,99.0,1160.6,151.2,4883.6,-40.81875600000001,1.8411758,0.083711205,0.018239135,-1.1956975,69.505,0.084473975,0.028288755,-1.1599725,0.44802444,1.4025458,10.3701862,-42.0,-1289.7,66.0,-50.0,62.0,268.0,-1158.0,-13.0,328.0,1018.892,-3.213594,3541.0,0.084473975,0.037890885,0.028288755,0.0066692704999999,-1.1599725,-0.0174101425,69490.0,29360.0,26580.0,-137.0,284.0,-48.0,1,27_xgyro_avg_abrupt_-1276.7
2022-12-29 11:57:12.000,179.089,0.0999999999999999,95.0,1165.0,23834.0,4880.0,99.0,1205.8,153.0,4888.6,-40.410664,1.8553982,0.09655079,0.0210437133333333,-1.1947306666666668,69.48666666666666,0.0972217866666666,0.0310335999999999,-1.159708,0.4312876799999999,1.691122,10.8101234,-20.0,-1248.7,56.0,-67.0,8.0,261.0,-1131.0,13.0,325.0,1018.893,-3.212109,3542.0,0.0972217866666666,0.0056941739999999,0.0310335999999999,0.0073319266666666,-1.159708,-0.0176311633333333,69480.0,29352.0,26570.0,-160.0,329.0,-45.0,1,27_xgyro_avg_abrupt_-1276.7
2022-12-29 11:57:12.550,179.639,0.1000000000000037,95.0,1179.0,23795.0,4895.0,99.0,1208.3333333333333,154.83333333333334,4883.0,-40.006440000000005,1.870744166666667,0.0463172363333333,0.0183104066666666,-1.203312333333333,69.45333000000001,0.0485837163333333,0.02817581,-1.1695436666666668,0.4626622166666667,1.3522891666666668,7.812396,-18.0,-1274.7,52.0,-27.0,-99.0,262.0,-1180.0,-4.0,323.0,1018.941,-3.164453,3543.0,0.0485837163333333,-0.2143034366666666,0.02817581,0.0185498603333333,-1.1695436666666668,-0.0376293299999999,69440.0,29280.0,26530.0,-174.0,358.0,-44.0,1,27_xgyro_avg_abrupt_-1276.7
2022-12-29 11:57:13.100,180.1892,0.0999999999999999,95.0,1250.0,23791.0,4883.0,99.0,1218.2,156.6,4889.0,-39.609144,1.8855528,-0.1104755299999999,0.026959155,-1.211589,69.41499999999999,-0.1055618399999999,0.03753486,-1.180096,0.40953174,2.0504478,10.3551168,-25.0,-1249.7,92.0,-104.0,-387.0,238.0,-940.0,19.0,301.0,1018.943,-3.162031,3543.0,-0.1055618399999999,-0.25239825,0.03753486,0.0208690775,-1.180096,-0.027696415,69410.0,29232.0,26500.0,-159.0,321.0,-39.0,1,27_xgyro_avg_abrupt_-1276.7
2022-12-29 11:57:13.650,180.74316666666664,0.1034999999999967,95.0,1177.5,23805.0,4886.5,99.0,1181.6666666666667,158.5,4876.833333333333,-39.19578333333334,1.8994610000000005,-0.1503876333333333,0.0384987433333333,-1.2090636666666668,69.41,-0.143267,0.0483981166666666,-1.1793296666666668,0.4264738166666666,1.5062271666666665,10.6973935,-24.0,-1254.7,131.0,-45.0,24.0,286.0,-1163.0,32.0,297.0,1018.948,-3.156797,3545.5,-0.143267,0.0336873866666666,0.0483981166666666,0.0427686866666666,-1.1793296666666668,0.002828624,69410.0,29265.0,26500.0,-126.0,252.0,-36.0,1,27_xgyro_avg_abrupt_-1276.7
2022-12-29 11:57:14.200,181.33,0.108000000000004,95.0,1181.0,23803.0,4867.0,99.0,1196.6,160.4,4884.4,-38.769132,1.9142696,-0.1327340333333333,0.0475635866666666,-1.196969333333333,69.41,-0.1283263666666666,0.0568157566666666,-1.168839,0.39505946,1.8883942,9.1654702,-46.0,-1284.7,130.0,-47.0,-2.0,279.0,-1185.0,-39.0,288.0,1018.946,-3.158906,3547.0,-0.1283263666666666,0.0195294186666666,0.0568157566666666,-0.008912353,-1.168839,0.0276342466666666,69410.0,29302.0,26500.0,-88.0,195.0,-38.0,1,27_xgyro_avg_abrupt_-1276.7
2022-12-29 11:57:14.750,181.8538,0.1039999999999963,95.0,1202.0,23792.0,4883.0,98.4,1148.2,162.0,4884.6,-38.387336000000005,1.9293394,-0.07122413,0.0842272,-1.1939894999999998,69.41,-0.06874327,0.09388458,-1.1680965,0.4556112,1.5016168000000003,10.1898756,-51.0,317.0,108.0,-14.0,143.0,305.0,-1001.0,-22.0,271.0,1018.907,-3.198516,3548.0,-0.06874327,0.25203285,0.09388458,0.26583425,-1.1680965,-0.003731985,69410.0,29300.0,26500.0,-56.0,157.0,-35.0,0,None
2022-12-29 11:57:15.300,182.3778,0.104000000000002,95.0,1184.0,23799.0,4854.0,98.0,1175.8,164.0,4882.0,-38.09214,1.944141,-0.0186339266666666,0.2102871333333333,-1.190942333333333,69.40666666666667,-0.01926269,0.2169113333333333,-1.1680436666666667,0.49039496,1.8851864,12.0922904,-38.0,23.0,88.0,-44.0,-69.0,296.0,-980.0,15.0,232.0,1018.861,-3.24375,3549.0,-0.01926269,-0.01670652,0.2169113333333333,0.1132895433333333,-1.1680436666666667,-0.014837687,69400.0,29305.0,26490.0,8.0,183.0,-41.0,0,None
2022-12-29 11:57:15.850,182.95316666666668,0.103333333333334,95.0,1064.0,23826.0,4880.0,98.0,1091.3333333333333,165.66666666666666,4883.833333333333,-37.76476,1.9641243333333327,-0.0568325166666666,0.1874006666666666,-1.189053666666667,69.43333333333334,-0.05789212,0.1957184666666666,-1.1656333333333333,0.4751073999999999,1.787678666666667,12.296849,-57.0,-133.0,104.0,-138.0,-81.0,318.0,-927.0,28.0,261.0,1018.849,-3.25664,3550.0,-0.05789212,-0.0570989566666666,0.1957184666666666,-0.1680671633333333,-1.1656333333333333,0.0278018326666666,69430.0,29318.0,26520.0,90.0,214.0,-38.0,0,None
2022-12-29 11:57:16.400,183.5258,0.1039999999999963,95.0,830.0,23837.0,4893.0,98.0,955.8,167.4,4893.4,-37.397424,1.9880786,-0.11021745,-0.01943624,-1.180616,69.48,-0.1099740766666666,-0.0071908666666666,-1.1566983333333332,0.51040244,1.7004352,13.704454000000002,-51.0,-367.0,131.0,-45.0,-110.0,272.0,-1095.0,3.0,310.0,1018.925,-3.180469,3551.0,-0.1099740766666666,-0.0558213299999999,-0.0071908666666666,-0.3504791,-1.1566983333333332,0.0158188053333333,69470.0,29371.0,26560.0,139.0,211.0,-34.0,0,None
2022-12-29 11:57:16.950,184.042,0.104000000000002,95.0,958.0,23860.0,4883.0,98.0,944.4,168.6,4892.4,-37.046448,2.0111438,-0.11646115,-0.101013535,-1.184415,69.465,-0.1152393999999999,-0.084732975,-1.163791,0.53114182,1.7039812,13.126984000000002,-26.0,-36.0,124.0,-51.0,2.0,186.0,-1044.0,5.0,293.0,1019.016,-3.088828,3553.0,-0.1152393999999999,0.0337979245,-0.084732975,0.0320337,-1.163791,-0.027725305,69480.0,29358.0,26570.0,112.0,151.0,-42.0,0,None
2022-12-29 11:57:17.500,184.6165,0.103333333333334,95.0,998.0,23842.0,4900.0,98.0,997.1666666666666,170.16666666666666,4895.5,-36.76544666666667,2.0328848333333336,-0.04482279,-0.1102252733333333,-1.1886943333333333,69.36333333333333,-0.0446346633333333,-0.0976045466666666,-1.1699873333333333,0.5318221666666666,1.8481435,13.277816666666666,-84.0,-64.0,112.0,-22.0,122.0,210.0,-1073.0,-17.0,338.0,1019.021,-3.084609,3554.0,-0.0446346633333333,0.1490551,-0.0976045466666666,-0.06899372721,-1.1699873333333333,0.01213455637,69390.0,29294.0,26480.0,61.0,89.0,-42.0,0,None
2022-12-29 11:57:18.050,185.174,0.0999999999999999,95.0,1062.0,23836.0,4880.0,98.0,1036.8,171.8,4893.8,-36.541768000000005,2.0541168,-0.0131981899999999,-0.1180596,-1.173935,69.26333333333334,-0.0143117966666666,-0.1072543333333333,-1.157127,0.5707918999999999,1.3659442,11.9262378,-79.0,-14.0,99.0,-48.0,32.0,212.0,-930.0,45.0,342.0,1019.062,-3.043672,3554.0,-0.0143117966666666,-0.0129992599999999,-0.1072543333333333,0.02371618,-1.157127,0.0322797899999999,69300.0,29331.0,26390.0,-8.0,60.0,-32.0,0,None
2022-12-29 11:57:18.600,185.6738,0.0999999999999999,95.0,1088.0,23818.0,4898.0,98.0,1112.4,173.4,4895.2,-36.36126,2.0743058000000003,-0.03693802,-0.094445945,-1.16344,69.21000000000001,-0.038044915,-0.085258825,-1.1487,0.5227379999999999,1.5011318,10.7804034,-61.0,55.0,113.0,-12.0,-78.0,201.0,-1102.0,-21.0,327.0,1019.012,-3.093516,3555.0,-0.038044915,-0.050857085,-0.085258825,0.056983545,-1.1487,-0.0196690135,69230.0,29410.0,26320.0,-80.0,40.0,-22.0,0,None
2022-12-29 11:57:19.150,186.2633333333333,0.1099999999999994,95.0,1141.0,23816.5,4873.5,98.0,1136.3333333333333,175.16666666666666,4884.0,-36.17299333333333,2.0948363333333333,-0.0541340033333333,-0.0102308616666666,-1.1704123333333334,69.19332666666666,-0.05291523,-0.003493933,-1.1572383333333334,0.475072,1.4165248333333336,8.447818166666666,-36.5,275.5,103.5,-23.0,-69.5,240.5,-1089.5,-15.0,305.5,1019.0375,-3.06793,3557.0,-0.05291523,0.0020565536666666,-0.003493933,0.2150738666666666,-1.1572383333333334,-0.009056445,69190.0,29361.0,26280.0,-138.5,14.0,-20.0,0,None
2022-12-29 11:57:19.700,186.834,0.104000000000002,95.0,1229.0,23787.0,4851.0,98.0,1187.4,177.0,4895.0,-35.985642,2.1163808000000004,-0.1094345566666666,0.1036789966666666,-1.187907,69.18333,-0.10762227,0.10791766,-1.1753906666666667,0.4656098199999999,1.7156138,8.334512,-32.0,-145.0,125.0,-77.0,-217.0,288.0,-1022.0,18.0,271.0,1019.019,-3.08625,3559.0,-0.10762227,-0.1312268923333333,0.10791766,0.00510575,-1.1753906666666667,0.0071645,69190.0,29247.0,26280.0,-92.0,-2.0,-16.0,0,None
2022-12-29 11:57:20.250,187.354,0.1039999999999963,95.0,1186.0,23775.0,4900.0,98.0,1193.0,178.6,4897.0,-35.821664000000006,2.1370474,-0.18688595,0.04745885,-1.1940715,69.21000000000001,-0.1835562499999999,0.051626615,-1.18073,0.47304566,1.9279024,9.0699396,-53.0,-92.0,150.0,-87.0,-36.0,270.0,-960.0,29.0,275.0,1018.984,-3.121484,3560.0,-0.1835562499999999,-0.0830436049999999,0.051626615,-0.11125655,-1.18073,-0.0261635455,69220.0,29237.0,26310.0,-45.0,-55.0,-19.0,0,None
2022-12-29 11:57:20.800,187.92666666666665,0.103333333333334,94.0,1115.0,23801.0,4880.0,98.0,1141.0,180.66666666666663,4897.333333333333,-35.647726666666664,2.1592603333333336,-0.1735002999999999,0.01925041,-1.1956406666666666,69.24666666666667,-0.1696397666666666,0.02639532,-1.1828136666666669,0.4907748999999999,1.5810993333333332,7.864143833333334,-72.0,15.0,131.0,-49.0,203.0,259.0,-999.0,7.0,275.0,1018.967,-3.138359,3560.0,-0.1696397666666666,0.1894832566666666,0.02639532,0.0212854206666666,-1.1828136666666669,-0.020697972,69260.0,29215.0,26350.0,-18.0,-119.0,-18.0,0,None
2022-12-29 11:57:21.350,188.5018,0.104000000000002,94.0,923.0,23846.0,4893.0,98.0,973.2,182.4,4892.8,-35.483812,2.1825936,0.0180835566666666,0.0545647733333333,-1.1860936666666666,69.29,0.0185464766666666,0.06151332,-1.173952,0.5631482400000001,1.3239626,8.8888502,-59.0,11.0,88.0,-15.0,200.0,259.0,-1244.0,6.0,279.0,1018.991,-3.114609,3561.0,0.0185464766666666,0.2276902866666666,0.06151332,0.0138761,-1.173952,0.0160414563333333,69300.0,29291.0,26390.0,-11.0,-107.0,-22.0,0,None
2022-12-29 11:57:21.900,189.0258,0.1039999999999963,94.0,980.0,23823.0,4883.0,98.0,1014.0,183.6,4887.4,-35.364912000000004,2.2022248,0.08680102,0.037785205,-1.169388,69.315,0.0836800249999999,0.045106965,-1.1571055,0.54407056,1.3393642,11.554452,-60.0,-105.0,59.0,-69.0,78.0,268.0,-995.0,10.0,258.0,1018.932,-3.173359,3563.0,0.0836800249999999,0.08877197,0.045106965,-0.089198675,-1.1571055,0.0176552435,69320.0,29384.0,26410.0,-21.0,-41.0,-29.0,0,None
2022-12-29 11:57:22.450,189.5456,0.104000000000002,94.0,1090.0,23801.0,4890.0,98.0,1057.0,185.2,4896.0,-35.219604000000004,2.2238536,0.0676923899999999,0.0047996575,-1.16334,69.34666666666666,0.07544372,0.0165290166666666,-1.15006,0.4876862799999999,1.5545102,10.9866368,-65.0,-45.0,69.0,-27.0,-82.0,273.0,-1208.0,-9.0,345.0,1018.958,-3.147656,3563.0,0.07544372,-0.11218455,0.0165290166666666,0.01435955,-1.15006,-0.0163875059,69350.0,29411.0,26440.0,-54.0,23.0,-31.0,0,None
2022-12-29 11:57:23.000,190.1133333333333,0.103333333333334,94.0,1111.0,23824.0,4883.0,98.0,1130.0,187.0,4893.5,-35.043723333333325,2.2462063333333333,-0.0728736766666666,0.0541830499999999,-1.1734026666666666,69.36,-0.06979376,0.0633673766666666,-1.161239666666667,0.49289815,1.5302603333333331,10.679070333333334,-50.0,4.0,97.0,-1.0,-221.0,274.0,-1106.0,18.0,298.0,1018.94,-3.165234,3565.0,-0.06979376,-0.2102312933333333,0.0633673766666666,0.0772389333333333,-1.161239666666667,-0.016211687,69360.0,29355.0,26450.0,-62.0,48.0,-34.0,0,None
2022-12-29 11:57:23.550,190.686,0.1039999999999963,94.0,1127.0,23791.0,4874.0,98.0,1104.4,188.8,4889.8,-34.891768,2.2657456,-0.11249925,0.07111613,-1.1751845,69.39,-0.10613516,0.07880704,-1.163422,0.4972117799999999,1.2747454,7.881482600000001,-82.0,13.0,117.0,-65.0,-29.0,276.0,-1025.0,-20.0,276.0,1018.916,-3.188984,3565.0,-0.10613516,0.1016508649999999,0.07880704,-0.00825337,-1.163422,0.110329729,69390.0,29288.0,26480.0,-30.0,28.0,-36.0,0,None
2022-12-29 11:57:24.100,191.23,0.108000000000004,94.0,1137.0,23796.0,4887.0,98.0,1070.4,190.4,4886.2,-34.784676000000005,2.2826792,-0.0677972633333333,0.0481002799999999,-0.9370506666666666,69.42666333333334,-0.0650854733333333,0.05760702,-0.9255849666666666,0.63246194,1.7262981999999998,9.143629,-92.0,18.0,136.0,-50.0,145.0,283.0,-967.0,556.0,292.0,1018.9,-3.205078,3566.0,-0.0650854733333333,0.1013035033333333,0.05760702,-0.0021393499999999,-0.9255849666666666,0.514361,69430.0,30608.0,26520.0,4.0,17.0,-36.0,0,None
2022-12-29 11:57:24.650,191.75,0.1039999999999963,94.0,1156.0,23773.0,4891.0,98.0,1104.4,191.8,4882.8,-34.65847,2.3052864,-0.044868895,0.023594175,-0.80349235,69.415,-0.04609133,0.03394422,-0.7913839,0.5172555799999999,1.2641472,6.705218599999999,-80.0,-15.0,190.0,-27.0,68.0,237.0,-1140.0,146.0,291.0,1019.002,-3.103437,3568.0,-0.04609133,0.000640665,0.03394422,-0.0253036335,-0.7913839,-0.0181545899999999,69420.0,31472.0,26510.0,13.0,22.0,-40.0,0,None
2022-12-29 11:57:25.200,192.274,0.108000000000004,94.0,1143.0,23794.0,4875.0,98.0,1128.0,193.6,4885.2,-34.533448,2.3251378,-0.0462561866666666,0.011072235,-0.9567560333333331,69.36333333333333,-0.04588779,0.0210654433333333,-0.9471724666666668,0.4040809999999999,1.4301812,6.9765842000000005,-54.5,-36.0,167.0,-52.0,-11.0,212.0,-1058.5,-383.0,274.0,1018.9645,-3.140352,3568.5,-0.04588779,-0.0318894699999999,0.0210654433333333,-0.0315550546666666,-0.9471724666666668,-0.5383324666666666,69360.0,30736.0,26450.0,9.0,23.0,-34.0,0,None
2022-12-29 11:57:25.750,192.8633333333333,0.1066666666666643,94.0,1077.0,23790.0,4890.0,98.0,1067.5,195.5,4889.666666666667,-34.40185833333333,2.344805833333333,-0.0525437533333333,0.0169689,-1.2638836666666666,69.37666666666668,-0.0496717166666666,0.02625097,-1.256301,0.6015433666666667,1.4689756666666665,9.827439666666663,-76.0,19.0,69.0,-97.0,-33.0,269.0,-1065.0,-56.0,336.0,1018.839,-3.265859,3570.0,-0.0496717166666666,0.0004631683333333,0.02625097,0.0074509051333333,-1.256301,-0.27830885,69360.0,28943.0,26450.0,2.0,20.0,-34.0,0,None
2022-12-29 11:57:26.300,193.45,0.1079999999999983,94.0,1068.0,23821.0,4896.0,98.0,1048.4,197.2,4895.8,-34.276565999999995,2.3677474000000003,-0.05064215,0.02714373,-1.2841905,69.445,-0.0473374899999999,0.03728885,-1.27714,0.5702354199999999,1.73463,11.290975999999995,-81.0,60.0,75.0,-88.0,17.0,283.0,-1029.0,24.0,297.0,1018.864,-3.241641,3571.0,-0.0473374899999999,-0.0208624385,0.03728885,0.0562017499999999,-1.27714,0.049554195,69420.0,28635.0,26510.0,0.0,15.0,-33.0,0,None
2022-12-29 11:57:26.850,193.9738,0.0999999999999999,94.0,1065.0,23800.0,4861.0,98.0,1062.0,198.6,4892.4,-34.21637,2.3839946,-0.04471311,0.0462881,-1.2554556666666663,69.5,-0.04096508,0.05574136,-1.2494046666666667,0.49617148,1.5183486,13.360657999999995,-61.0,26.0,76.0,-40.0,0.0,296.0,-1195.0,50.0,303.0,1018.894,-3.210859,3572.0,-0.04096508,0.0202739643333333,0.05574136,0.0247932666666666,-1.2494046666666667,0.0611398233333333,69490.0,28811.0,26580.0,0.0,13.0,-40.0,0,None
2022-12-29 11:57:27.400,194.53333333333333,0.103333333333334,94.0,1050.0,23824.0,4890.0,98.0,1046.0,200.5,4890.333333333333,-34.15467,2.4027736666666666,-0.04637816,0.0503903466666666,-1.248161,69.47000000000001,-0.0433966033333333,0.0593485166666666,-1.2418383333333332,0.4886648166666665,1.3985246666666666,10.253849333333337,-53.0,14.0,83.0,-71.0,-12.0,257.0,-991.0,20.0,265.0,1018.91,-3.195547,3573.0,-0.0433966033333333,0.0013010011333333,0.0593485166666666,0.0022754503333333,-1.2418383333333332,-0.0087833106666666,69455.0,28883.5,26545.0,8.5,19.0,-53.5,0,None
2022-12-29 11:57:27.950,195.106,0.104000000000002,94.0,1183.0,23771.0,4888.0,98.0,1143.0,202.0,4890.6,-34.081968,2.4217914,-0.04528057,0.0447664,-1.2504125,69.29499999999999,-0.04190749,0.053501675,-1.2447374999999998,0.4737958,1.6533730000000002,11.6872982,-41.0,-19.0,94.0,-38.0,19.0,287.0,-1171.0,29.0,281.0,1018.897,-3.208594,3574.0,-0.04190749,0.026133225,0.053501675,-0.026508915,-1.2447374999999998,-0.0142356635,69180.0,28878.0,26270.0,17.0,24.0,-57.0,0,None
2022-12-29 11:57:28.500,195.646,0.1079999999999983,94.0,1148.0,23798.0,4900.0,98.0,1179.2,203.8,4896.8,-33.99308,2.4414982,-0.03615677,0.0331409066666666,-1.2507943333333331,69.16666666666667,-0.0324064233333333,0.0419257999999999,-1.2444486666666668,0.5391024,1.340066,8.6882476,-49.0,-12.0,69.0,-63.0,-20.0,287.0,-1170.0,-5.0,318.0,1018.908,-3.197422,3575.0,-0.0324064233333333,-0.039550761,0.0419257999999999,-0.016531184,-1.2444486666666668,-0.010785521,69180.0,28857.0,26270.0,14.0,29.0,-31.0,0,None
2022-12-29 11:57:29.050,196.162,0.104000000000002,94.0,1052.0,23820.0,4882.0,98.0,1068.4,205.4,4899.6,-33.901172,2.4595122,-0.05290689,0.0322904699999999,-1.2557173333333334,69.24666666666666,-0.0490768633333333,0.04112951,-1.249828333333333,0.4771202,1.3731874,9.9930668,-57.0,21.0,81.0,-21.0,-21.0,264.0,-1100.0,-16.0,264.0,1018.869,-3.236562,3575.0,-0.0490768633333333,0.0169640373333333,0.04112951,0.0087724366666666,-1.249828333333333,-0.004014313,69280.0,28834.0,26370.0,12.0,26.0,-43.0,0,None
2022-12-29 11:57:29.600,196.73666666666668,0.103333333333334,94.0,1100.0,23778.0,4900.0,98.0,1073.5,207.16666666666663,4886.666666666667,-33.80647333333334,2.4785836666666667,-0.0466221833333333,0.0346924633333333,-1.2558456666666666,69.3,-0.04199692,0.0424664833333333,-1.250538666666667,0.49277845,1.261680666666667,7.959575,-55.5,-11.0,81.0,-60.5,27.5,277.5,-1008.5,1.0,306.0,1018.9035,-3.20207,3577.0,-0.04199692,0.0124390411,0.0424664833333333,-5.080566666666615e-05,-1.250538666666667,0.0058062566666666,69300.0,28835.0,26390.0,13.0,23.0,-51.0,0,None
2022-12-29 11:57:30.150,197.3098,0.1037999999999953,94.0,967.0,23841.0,4896.0,98.0,887.4,208.6,4894.4,-33.722274000000006,2.4975766,-0.043147705,0.037312035,-1.251343,69.14500000000001,-0.03957414,0.04483345,-1.24616,0.5441694600000001,1.2573694,8.2968178,-59.0,-14.0,81.0,-57.0,1.0,263.0,-971.0,-11.0,293.0,1018.945,-3.159688,3578.0,-0.03957414,-0.0026075965,0.04483345,0.014925175,-1.24616,0.0118217635,69120.0,28866.0,26210.0,13.0,24.0,-91.0,0,None
2022-12-29 11:57:30.700,197.834,0.108200000000005,94.0,904.5,23866.0,4892.5,98.0,793.6,209.8,4895.4,-33.647974,2.5149608,-0.03558283,0.02902782,-1.2506106666666663,68.66333333333334,-0.0319538166666666,0.03719893,-1.2456353333333332,0.6323316999999999,1.5156969999999998,9.7702502,-60.0,-78.0,63.0,-31.0,75.0,232.0,-1042.0,-34.0,282.0,1019.053,-3.052266,3579.0,-0.0319538166666666,0.0760794266666666,0.03719893,-0.03301092,-1.2456353333333332,-0.0094337206666666,68600.0,28865.0,25690.0,14.0,24.0,-163.0,0,None
2022-12-29 11:57:31.250,198.334,0.0999999999999999,94.0,1248.0,23745.0,4896.0,98.0,1146.4,211.2,4896.6,-33.580416,2.5305308,-0.0016733985,0.01033887,-1.2491975000000002,68.06,0.0011012105,0.019186685,-1.24377,0.56328806,1.4344324,13.808648,-45.0,-10.0,59.0,-32.0,-11.0,267.0,-1203.0,3.0,268.0,1019.066,-3.038984,3580.0,0.0011012105,0.024248775,0.019186685,-0.015683585,-1.24377,0.016317995,68000.0,28879.0,25090.0,7.0,34.0,-145.0,0,None
2022-12-29 11:57:31.800,198.90666666666667,0.1033333333333293,94.0,1248.0,23770.0,4893.0,98.0,1271.6666666666667,213.16666666666663,4895.5,-33.47379,2.548143666666667,-0.0287943076666666,0.0106132866666666,-1.2452766666666666,67.66666666666667,-0.0258360143333333,0.01897284,-1.2401186666666668,0.5832807333333333,1.4911188333333332,10.959327666666669,-64.0,64.0,77.0,-37.0,-115.0,287.0,-1291.0,29.0,330.0,1019.036,-3.069297,3581.0,-0.0258360143333333,-0.0932795266666666,0.01897284,0.0537546966666666,-1.2401186666666668,0.033389425,67630.0,28895.0,24720.0,-7.0,43.0,-65.0,0,None
2022-12-29 11:57:32.350,199.478,0.104000000000002,94.0,1017.0,23817.0,4900.0,98.0,1107.2,215.4,4897.2,-33.381704,2.5600524,-0.0782568233333333,0.0350152766666666,-1.2421083333333334,67.62,-0.0744288733333333,0.0442022133333333,-1.2384513333333336,0.5129839800000001,1.6309934,11.8816466,-86.0,0.0,86.0,-55.0,-77.0,243.0,-954.0,-40.0,260.0,1019.023,-3.081719,3582.0,-0.0744288733333333,-0.0405573566666666,0.0442022133333333,0.0065763733333333,-1.2384513333333336,0.0077309933333333,67600.0,28913.0,24690.0,-10.0,30.0,-33.0,0,None
2022-12-29 11:57:32.900,199.998,0.104000000000002,94.0,1003.0,23802.0,4887.0,98.0,1042.4,216.6,4885.8,-33.323167999999995,2.569484,-0.06143058,0.04429345,-1.2559515,67.77,-0.057116295,0.053342525,-1.252861,0.473022,1.5470112,12.654909999999996,-43.0,-29.0,88.0,-57.0,108.0,253.0,-1013.0,-13.0,239.0,1019.053,-3.052187,3582.0,-0.057116295,0.093261635,0.053342525,0.056158081,-1.252861,-0.055352925,67760.0,28830.0,24850.0,-4.0,8.0,-47.0,0,None
