00000_Time_epoch,00000_Time_boot_sec,00000_Span_Time_boot_sec,1_battery_remaining_avg,1_current_battery_avg,1_voltage_battery_avg,125_Vcc_avg,147_battery_remaining_avg,147_current_battery_avg,147_current_consumed_avg,165_Vcc_avg,168_direction_avg,168_speed_avg,178_pitch_avg,178_roll_avg,178_yaw_avg,182_altitude_avg,182_pitch_avg,182_roll_avg,182_yaw_avg,241_vibration_x_avg,241_vibration_y_avg,241_vibration_z_avg,27_xacc_avg,27_xgyro_avg,27_xmag_avg,27_yacc_avg,27_ygyro_avg,27_ymag_avg,27_zacc_avg,27_zgyro_avg,27_zmag_avg,29_press_abs_avg,29_press_diff_avg,29_temperature_avg,30_pitch_avg,30_pitchspeed_avg,30_roll_avg,30_rollspeed_avg,30_yaw_avg,30_yawspeed_avg,33_alt_avg,33_hdg_avg,33_relative_alt_avg,33_vx_avg,33_vy_avg,33_vz_avg,label,diagnosis
2023-01-04 10:43:17.900,139.70700000000002,0.104000000000002,82.0,85.0,23236.0,4861.0,99.0,85.8,32.0,4873.0,-169.213,0.30123492,0.0039801766666666,-0.0217514966666666,-1.212596,35.23,0.0071567056666666,-0.02229396,-1.211849,0.02360284,0.026051776,0.0371660419999999,-11.0,2.2,76.8,9.2,4.0,252.4,-1076.4,0.2,340.2,1017.6812,-0.24873438,2959.2,0.0071567056666666,0.0043289826666666,-0.02229396,0.0025572023333333,-1.211849,0.0004415854,35250.0,29057.0,-40.0,0.0,11.0,-31.0,0,None
2023-01-04 10:43:18.450,140.243,0.1079999999999983,82.0,85.0,23221.0,4875.0,99.0,84.4,32.0,4872.8,-169.90468,0.27187266,0.003374834,-0.022305565,-1.213127,35.185,0.007493583,-0.02204107,-1.212118,0.023685274,0.02538378,0.03672409,-10.2,1.8,77.2,9.8,3.6,253.0,-1076.2,0.0,340.2,1017.6866,-0.24309374,2961.2,0.0074962545,0.004604647,-0.0220483299999999,0.002562642,-1.2121135,0.00019751245,35210.0,29056.0,-80.0,0.0,12.0,-32.0,0,None
2023-01-04 10:43:19.000,140.80033333333333,0.103333333333334,82.0,90.5,23223.0,4869.0,99.0,87.33333333333333,32.0,4872.666666666667,-170.23863333333335,0.2864028,0.0044527643333333,-0.0220451333333333,-1.2136606666666667,35.15,0.007754991,-0.0218016266666666,-1.2123886666666668,0.02643187,0.0257060199999999,0.0362693316666666,-10.333333333333334,1.8333333333333333,77.33333333333333,11.0,4.5,252.66666666666663,-1077.5,0.0,340.3333333333333,1017.686,-0.2436588333333333,2963.5,0.007754991,0.004261175,-0.0218016266666666,0.0019701046666666,-1.2123886666666668,8.299392666666666e-05,35170.0,29054.0,-120.0,0.0,13.0,-32.0,0,None
2023-01-04 10:43:19.550,141.3952,0.1079999999999983,82.0,124.0,23215.0,4862.0,99.0,201.2,33.0,4874.6,-170.45682,0.32055044,0.0034562263333333,-0.0223399766666666,-1.2151766666666666,35.11666666666667,0.0081207303333333,-0.02163063,-1.2128346666666665,0.079834652,0.14528964,0.7217774800000001,-8.1,1.8,71.8,1.2,4.3,246.1,-1077.6,-4.3,335.3,1017.7134,-0.21630468,2966.6,0.0081207303333333,0.0042126533333333,-0.02163063,0.0017678445,-1.2128346666666665,-0.0004891416666666,35140.0,29053.0,-150.0,0.0,15.0,-33.0,0,None
2023-01-04 10:43:20.100,141.9154,0.1041999999999972,81.0,1550.0,22839.0,4874.0,99.0,1014.6,33.4,4876.0,-170.53196000000003,0.35910994,0.003724188,-0.0220300849999999,-1.216086,35.095,0.008237465,-0.02179094,-1.2133715,0.2860774875,0.7906717249999999,1.4884212,-1.2,1.4,65.6,9.4,64.4,232.0,-1115.0,0.6,327.0,1017.829,-0.1007812439999999,2968.8,0.008237465,0.0141416559999999,-0.02179094,-0.0040167735,-1.2133715,-0.009168983,35120.0,29050.0,-170.0,0.0,15.0,-34.0,0,None
2023-01-04 10:43:20.650,142.44760000000002,0.104000000000002,81.0,1676.0,22787.0,4859.0,99.0,1673.6,35.6,4876.0,-171.01601999999997,0.39766522,0.02194018,-0.01888673,-1.2167163333333335,35.24333333333333,0.0260911333333333,-0.0174300566666666,-1.2106626666666669,0.37551024,0.99962458,4.4179546,-10.6,24.4,32.2,1.2,-42.6,222.8,-1311.4,17.8,296.6,1018.0482,0.118499994,2970.8,0.0260911333333333,-0.0463051933333333,-0.0174300566666666,0.0211198733333333,-1.2106626666666669,0.0343086633333333,35110.0,29038.0,-180.0,-5.0,17.0,-2.0,0,None
2023-01-04 10:43:21.200,142.956,0.104000000000002,81.0,1781.0,22745.0,4880.0,99.0,1830.2,38.2,4880.6,-172.93964,0.42114556,-0.010109183,-0.0044864285,-1.210269,35.87,-0.00679758875,-0.004407398,-1.201758,0.31405024,1.525075,5.0167202,-14.2,14.2,51.0,-24.4,-54.8,226.6,-1249.4,19.6,270.6,1017.7066,-0.22321874,2973.6,-0.00679758875,-0.042330105,-0.004407398,0.022092308,-1.201758,0.02256966,35550.0,29090.0,260.0,-20.0,23.0,89.0,0,None
2023-01-04 10:43:21.750,143.54466666666667,0.103333333333334,80.0,1820.0,22719.0,4835.0,99.0,1832.3333333333333,41.333333333333336,4870.166666666667,-174.97006666666667,0.4388909666666666,-0.023573425,0.004588621175,-1.208258,37.35,-0.0192391675,0.0049222964999999,-1.1984287500000002,0.3284682833333333,1.5396532499999998,5.4748331666666665,-14.0,25.416666666666668,64.33333333333333,-14.0,15.5,245.5833333333333,-1206.4166666666667,-0.5,299.6666666666667,1017.4798333333332,-0.4498762916666667,2975.9166666666665,-0.0192391675,0.02239772,0.0049222964999999,0.0219129125,-1.1984287500000002,0.010218292,37210.0,29130.5,1920.0,-19.5,5.5,223.5,0,None
2023-01-04 10:43:22.300,144.1126,0.1041999999999972,80.0,1722.0,22733.0,4872.0,99.0,1737.2,44.0,4870.0,-176.08432,0.44857324,-0.0119814,0.01460509,-1.21487,39.275,-0.007436255,0.014180265,-1.2939355,0.33780264,1.7150184,5.034440399999999,-17.0,17.6,61.0,-21.8,24.2,223.8,-1132.8,-4.8,266.6,1017.2992,-0.63057812,2978.4,-0.007436255,0.02034066,0.014180265,0.015904765,-1.2939355,0.0164254865,39610.0,28587.0,4320.0,-7.0,-8.0,296.0,0,None
2023-01-04 10:43:22.850,144.6655,0.0999999999999989,79.0,1680.0,22724.0,4861.0,99.0,1545.0,46.5,4875.666666666667,-176.7666,0.4488566666666667,-0.0047350463333333,0.0193307233333333,-1.21939,40.98,-0.00065301126,0.0212552733333333,-1.2965353333333334,0.3209225666666667,1.29087605,4.409959166666666,-14.666666666666666,13.166666666666666,57.0,-19.5,9.333333333333334,247.66666666666663,-1047.5,-5.666666666666667,276.5,1017.0826666666666,-0.8468749833333334,2980.833333333333,-0.00065301126,-0.0067946306666666,0.0212552733333333,0.0230998316666666,-1.2965353333333334,0.0017774593333333,41330.0,28569.0,6040.0,2.0,-9.0,309.0,0,None
2023-01-04 10:43:23.400,145.2212,0.104000000000002,79.0,1357.0,22799.0,4879.0,99.0,1134.6,48.6,4870.8,-177.19182,0.44228572,-0.0030743109999999,0.014367828,-1.2253546666666668,42.85666666666666,0.00134236668,0.0165432336666666,-1.2992153333333334,0.38191218,1.09970278,2.3469354000000004,-23.6,-31.0,63.2,6.8,7.8,250.6,-911.4,-26.2,308.4,1016.8676,-1.06217208,2983.0,0.00134236668,0.0174849266666666,0.0165432336666666,-0.02993887,-1.2992153333333334,-0.02675523,42880.0,28559.0,7590.0,11.0,-6.0,247.0,0,None
2023-01-04 10:43:23.950,145.753,0.1079999999999983,79.0,1025.0,22827.0,4858.0,99.0,1012.6,50.0,4863.4,-177.62384000000003,0.43130798,0.00249901105,0.0090759685,-1.230264,43.96,0.007448725,0.011507605,-1.301434,0.53350098,0.8690282,1.6195136,-10.8,5.8,58.2,-8.8,24.8,248.0,-868.8,-1.2,319.6,1016.7174,-1.2121406,2985.2,0.007448725,0.022688671,0.011507605,0.0099525395,-1.301434,0.0009212694999999,43970.0,28545.0,8680.0,13.0,-6.0,139.0,0,None
2023-01-04 10:43:24.500,146.3225,0.099999999999999,78.0,1144.5,22838.5,4861.5,99.0,1154.6666666666667,51.5,4868.166666666667,-177.84231666666668,0.4190765999999999,0.0142953766666666,0.00150237,-1.2380060000000002,44.5,0.0177576333333333,0.0030223086666666,-1.307395,0.4821294333333334,0.8952832166666665,1.6715058333333337,-0.8333333333333334,-17.166666666666668,54.833333333333336,-27.33333333333333,16.5,234.16666666666663,-963.1666666666666,-3.0,300.3333333333333,1016.6245,-1.3051041666666665,2987.6666666666665,0.0177576333333333,0.0158447136666666,0.0030223086666666,-0.0231130303333333,-1.307395,-0.03115437,44510.0,28510.0,9220.0,14.0,0.0,55.0,0,None
2023-01-04 10:43:25.050,146.8734,0.1042000000000029,78.0,1193.0,22790.0,4877.0,99.0,1198.2,53.4,4870.8,-178.20641999999998,0.4072045,0.01600582,0.001381487,-1.2445836666666663,44.830000000000005,0.0198141566666666,0.0049193518666666,-1.310982,0.3980020999999999,0.8723001400000001,3.1776792,-15.9,25.9,48.8,-26.1,-11.1,238.0,-1055.2,-4.9,304.2,1016.5725,-1.3571482,2990.3,0.0198141566666666,-0.007789701,0.0049193518666666,0.0215809433333333,-1.310982,0.0047302016666666,44790.0,28484.0,9500.0,11.0,7.0,19.0,0,None
2023-01-04 10:43:25.600,147.402,0.104000000000002,78.0,1196.0,22777.0,4858.0,99.0,1198.8,55.2,4873.0,-178.57062,0.3988465599999999,0.0058140339999999,0.01227078,-1.2415509999999998,45.015,0.0102933025,0.01499397,-1.306201,0.41465138,0.84093558,4.630103,-15.8,9.8,54.2,9.8,-4.6,236.0,-1026.6,10.8,295.2,1016.5166000000002,-1.4131094000000002,2992.8,0.0102933025,-0.011251433,0.01499397,0.007562155,-1.306201,0.03196485,44980.0,28509.0,9690.0,9.0,14.0,3.0,0,None
2023-01-04 10:43:26.150,147.9178,0.1039999999999963,77.0,1189.0,22822.0,4877.0,99.0,1196.0,57.0,4872.8,-179.20855999999998,0.39141202,-0.0025335042333333,0.0099043916666666,-1.2409223333333337,45.14666666666667,0.0018556999333333,0.0127573333333333,-1.3029530000000002,0.35804816,1.02901398,4.6974576,-14.2,-4.6,59.0,-23.0,3.0,242.0,-1021.8,17.0,306.0,1016.5220000000002,-1.407703,2994.8,0.0018556999333333,-0.0114312666666666,0.0127573333333333,-0.006979999,-1.3029530000000002,0.010467219,45130.0,28535.0,9840.0,11.0,18.0,-12.0,0,None
2023-01-04 10:43:26.700,148.49633333333333,0.103333333333334,77.0,1204.0,22796.0,4861.0,99.0,1195.6666666666667,58.833333333333336,4866.166666666667,119.73245,0.3809206999999999,-0.006194941,0.0035594401666666,-1.2413696666666665,45.25,-0.0018990193333333,0.005449207,-1.3003616666666666,0.3279606166666666,1.0190644999999998,5.704985000000001,-8.833333333333334,-9.666666666666666,62.5,-25.5,-9.5,251.16666666666663,-1070.5,24.166666666666668,313.8333333333333,1016.4878333333332,-1.441758,2997.1666666666665,-0.0018990193333333,0.0274620433333333,0.005449207,0.0049356143333333,-1.3003616666666666,0.0160283213333333,45220.0,28541.0,9930.0,13.0,18.0,-18.0,0,None
2023-01-04 10:43:27.250,149.058,0.104000000000002,77.0,1192.0,22820.0,4869.0,99.0,1208.6,60.6,4866.4,178.69042,0.37020532,-0.0054817519999999,-0.0009025242999999,-1.240072,45.31,-0.00105153215,0.001013249,-1.297268,0.34085516,1.01986254,4.7254508,-10.8,2.6,61.0,-40.6,7.8,236.4,-1042.2,4.4,312.4,1016.4754,-1.45425,2999.8,-0.00105153215,0.007175653,0.001013249,0.00735957,-1.297268,0.026409975,45280.0,28560.0,9990.0,12.0,16.0,-26.0,0,None
2023-01-04 10:43:27.800,149.594,0.1039999999999963,77.0,1233.0,22785.0,4862.0,99.0,1213.2,62.6,4872.4,177.76497999999998,0.35959562,0.0035219621,0.0038656411666666,-1.2407163333333335,45.35666666666666,0.0076556856666666,0.005905168,-1.2954953333333334,0.4295511399999999,0.8535790000000001,4.7934470000000005,-23.7,16.3,63.6,-25.3,13.4,250.2,-1086.9,-2.2,320.2,1016.4791,-1.4503673,3002.1,0.0076556856666666,0.017338578,0.005905168,0.02065288,-1.2954953333333334,0.0141158393333333,45355.0,28580.5,10065.0,10.0,14.5,-32.0,0,None
2023-01-04 10:43:28.350,150.14666666666668,0.103333333333334,76.0,1209.0,22797.0,4871.0,99.0,1231.5,64.66666666666667,4874.0,176.93010000000004,0.3490899166666667,0.0010045715999999,0.01160669,-1.2374696666666667,45.376666666666665,0.004433495,0.0139646766666666,-1.2905723333333332,0.38423005,1.07129295,4.469174,-26.666666666666668,6.666666666666667,60.5,-4.333333333333333,-13.166666666666666,247.5,-1128.1666666666667,-12.666666666666666,304.3333333333333,1016.4691666666668,-1.4603253333333337,3004.833333333333,0.004433495,0.0023912636666666,0.0139646766666666,0.0109364483333333,-1.2905723333333332,0.0055559062333333,45380.0,28615.0,10090.0,13.0,18.0,-35.0,0,None
2023-01-04 10:43:28.900,150.72600000000003,0.104000000000002,76.0,1230.0,22787.0,4866.0,99.0,1243.0,66.6,4872.8,175.72791999999998,0.33649564,0.0037942112999999,0.010073078,-1.2354603333333334,45.38666666666668,0.0065148326666666,0.0121938683333333,-1.286312,0.2843779999999999,1.02960542,3.8644214,-21.0,-9.2,60.6,-29.6,17.4,243.0,-1088.0,-13.4,305.0,1016.4586,-1.4712344000000002,3007.0,0.0065148326666666,0.0083151369999999,0.0121938683333333,-0.0137448533333333,-1.286312,0.0027813614333333,45390.0,28628.0,10100.0,16.0,20.0,-36.0,0,None
2023-01-04 10:43:29.450,151.238,0.1039999999999963,76.0,1260.0,22763.0,4867.0,99.0,1261.0,68.4,4876.6,174.2723,0.32479202,0.0051604105,4.1834000000000033e-05,-1.237148,45.4,0.0079394635,0.0032098575,-1.286442,0.43628202,0.95846286,3.1040704,-14.0,-14.6,62.8,-31.6,9.8,242.0,-1092.6,-4.8,302.6,1016.4622,-1.4673282,3009.2,0.0079394635,0.015010171,0.0032098575,-0.0071087415,-1.286442,0.010459065,45400.0,28627.0,10110.0,16.0,23.0,-37.0,0,None
2023-01-04 10:43:30.000,151.8033333333333,0.103333333333334,76.0,1244.5,22762.0,4871.5,99.0,1260.4,70.2,4875.666666666667,172.39086666666665,0.3124092666666666,0.0017858886666666,-0.0134043573333333,-1.239052,45.4,0.0047643532333333,-0.0103255396666666,-1.2867323333333334,0.3853345833333333,1.0193925333333331,3.0561833333333333,-21.5,-24.5,62.66666666666666,6.666666666666667,-10.166666666666666,244.66666666666663,-1079.0,-15.666666666666666,309.1666666666667,1016.4613333333332,-1.4683073333333334,3011.833333333333,0.0047643532333333,-0.0062441376666666,-0.0103255396666666,-0.0183228256666666,-1.2867323333333334,0.0038622566666666,45400.0,28627.0,10110.0,11.0,23.0,-37.0,0,None
2023-01-04 10:43:30.550,152.36999999999998,0.0999999999999999,75.0,1265.0,22742.0,4867.0,99.0,1264.0,72.4,4875.8,170.89414000000002,0.3026401799999999,-0.0013404873333333,-0.0127282026666666,-1.246467,45.41,0.0022683826666666,-0.0086279436666666,-1.2925306666666667,0.38459454,1.06106874,3.0070430000000004,-11.0,30.0,65.4,-29.4,12.0,231.6,-1070.4,-9.2,309.4,1016.4534,-1.476547,3014.2,0.0022683826666666,0.0069796983333333,-0.0086279436666666,0.0388975833333333,-1.2925306666666667,-0.0109695656666666,45410.0,28597.0,10120.0,1.0,17.0,-38.0,0,None
2023-01-04 10:43:31.100,152.92,0.099999999999999,75.0,1485.0,22697.0,4880.0,99.0,1422.1666666666667,74.16666666666667,4882.5,169.94258333333332,0.29651485,-0.1125269066666666,0.0070429483333333,-1.2514496666666666,45.45666666666667,-0.1082267399999999,0.0104371549999999,-1.2953203333333334,0.3870569,1.1215172833333331,3.502274,-7.5,25.666666666666668,68.83333333333333,-6.666666666666667,-287.0,243.66666666666663,-1169.3333333333333,22.0,308.5,1016.4436666666668,-1.4859895,3016.5,-0.1082267399999999,-0.2978413333333333,0.0104371549999999,0.0371196233333333,-1.2953203333333334,-0.01251077,45430.0,28581.0,10140.0,1.0,4.0,-30.0,0,None
2023-01-04 10:43:31.650,153.47060000000002,0.1002000000000009,75.0,1781.0,22607.0,4869.0,99.0,1699.8,76.8,4882.4,168.57168,0.29398388,-0.2024664,0.014816435,-1.2483175000000002,45.735,-0.19571905,0.017215305,-1.290301,0.31866888,1.4738555999999998,4.6152952,-25.6,4.6,119.8,-18.2,-41.2,228.6,-1253.2,11.8,253.6,1016.4392,-1.4906718,3019.2,-0.19571905,0.026875915,0.017215305,-0.00974186505,-1.290301,0.0041396925,45620.0,28599.0,10330.0,28.0,-73.0,26.0,0,None
2023-01-04 10:43:32.200,154.021,0.099999999999999,75.0,1523.0,22653.0,4874.0,99.0,1572.5,79.16666666666667,4878.833333333333,166.76999999999998,0.2985677666666666,-0.1707632,-0.0032822173333333,-1.2558096666666667,46.38,-0.1657737,-0.0015771493333333,-1.294504,0.3869879666666667,1.3311083333333331,6.0319855,-40.333333333333336,-54.5,114.33333333333331,-31.166666666666668,78.83333333333333,240.5,-1135.5,-23.83333333333333,272.6666666666667,1016.3783333333334,-1.551354,3021.333333333333,-0.1657737,0.0734667966666666,-0.0015771493333333,-0.0576538433333333,-1.294504,-0.0460478933333333,46200.0,28601.0,10910.0,69.0,-176.0,96.0,0,None
2023-01-04 10:43:32.750,154.59499999999997,0.104000000000002,74.0,1390.0,22696.0,4864.0,99.0,1437.6,81.6,4873.8,165.23922000000002,0.3054427,-0.1586540333333333,-0.0773794233333333,-1.2684063333333333,47.35666666666666,-0.1563729333333333,-0.0742828966666666,-1.3032856666666666,0.4265295799999999,1.3463106000000002,7.1062968,-40.4,-164.3,106.1,-7.7,-35.9,220.7,-1086.2,-13.9,302.3,1016.2576,-1.6718359,3024.2,-0.1563729333333333,-0.025387438,-0.0742828966666666,-0.1673386999999999,-1.3032856666666666,-0.0073881683333333,46990.0,28542.0,11700.0,91.0,-253.0,124.0,0,None
2023-01-04 10:43:33.300,155.09499999999997,0.0999999999999999,74.0,1542.0,22647.0,4883.0,99.0,1542.0,83.6,4878.8,164.29818,0.3120482600000001,-0.18657335,-0.11786165,-1.272676,48.16,-0.1830879,-0.1116879,-1.30645,0.49216376,1.3965202,8.3581132,-43.8,55.6,112.8,-4.8,-21.2,192.6,-1075.0,-9.4,295.4,1016.145,-1.7846718,3026.2,-0.1830879,-0.0093388214999999,-0.1116879,0.0627263399999999,-1.30645,4.148500000000083e-05,47820.0,28523.0,12530.0,76.0,-328.0,122.0,0,None
2023-01-04 10:43:33.850,155.64433333333332,0.099999999999999,74.0,1540.0,22645.0,4866.0,99.0,1571.3333333333333,86.0,4877.666666666667,163.61033333333333,0.3216931999999999,-0.1921586666666666,-0.07740142,-1.275745,49.03,-0.1889505,-0.0731179466666666,-1.3079346666666665,0.451672,1.5956496666666666,8.466755166666667,-61.333333333333336,70.83333333333333,114.16666666666669,5.666666666666667,11.5,225.5,-1145.1666666666667,9.5,319.1666666666667,1016.0236666666668,-1.9060286666666664,3028.6666666666665,-0.1889505,0.018693683,-0.0731179466666666,0.0865781133333333,-1.3079346666666665,0.0160769933333333,49090.0,28513.0,13800.0,49.0,-459.0,144.5,0,None
2023-01-04 10:43:34.400,156.195,0.0999999999999999,74.0,1443.0,22672.0,4858.0,99.0,1449.8,88.2,4874.6,163.45624,0.33292266,-0.1862546666666666,-0.0486368966666666,-1.2716653333333332,50.16666666666666,-0.1836761333333333,-0.0453607699999999,-1.3009716666666666,0.4642917799999999,1.4809226,9.3484936,-78.2,-0.4,118.0,5.8,21.0,224.2,-1058.8,10.8,300.6,1015.8884,-2.0413908,3031.0,-0.1836761333333333,0.0494719566666666,-0.0453607699999999,0.0051798733333333,-1.3009716666666666,0.0110312016666666,50510.0,28556.0,15220.0,62.0,-564.0,148.0,0,None
2023-01-04 10:43:34.950,156.74766666666667,0.103333333333334,73.5,1488.0,22648.0,4874.5,99.0,1484.0,90.5,4878.5,164.06263333333334,0.3442423166666666,-0.1846842666666666,-0.06426209,-1.2691036666666666,51.29666666666666,-0.1846266333333333,-0.0601751033333333,-1.2958013333333334,0.47172315,1.6009095,9.857271166666669,-83.83333333333333,-17.666666666666668,117.5,22.666666666666668,-16.5,217.16666666666663,-1082.6666666666667,6.333333333333333,313.3333333333333,1015.738,-2.1919923333333333,3033.5,-0.1846266333333333,-0.0132559843333333,-0.0601751033333333,-0.023298937,-1.2958013333333334,0.0129537403333333,51450.0,28575.0,16160.0,73.0,-621.0,143.0,0,None
2023-01-04 10:43:35.500,157.30380000000002,0.1043999999999982,73.0,1426.0,22632.0,4864.0,99.0,1482.6,92.8,4872.8,165.45986,0.3567905,-0.18951975,-0.06182335,-1.272711,52.260000000000005,-0.1900853,-0.056621265,-1.2984490000000002,0.54296374,1.6584028,9.9312274,-99.2,1.8,122.0,11.8,27.0,221.0,-1064.4,-18.4,305.4,1015.5788,-2.3508748,3035.8,-0.1900853,0.00041845,-0.056621265,-0.0170329645,-1.2984490000000002,-0.0239888665,52420.0,28549.0,17130.0,82.0,-677.0,148.0,0,None
2023-01-04 10:43:36.050,157.837,0.104000000000002,73.0,1537.0,22620.0,4885.0,99.0,1354.0,95.0,4873.2,167.21251999999998,0.3705197,-0.1841112333333333,-0.0683537466666666,-1.2763996666666666,53.303333333333335,-0.1842823999999999,-0.0622093266666666,-1.3020646666666666,0.53845202,1.467925,9.8914248,-96.8,-7.4,122.4,17.4,-8.8,218.6,-1058.0,4.2,303.0,1015.513,-2.4166094,3037.8,-0.1842823999999999,0.0504933833333333,-0.0622093266666666,0.0143003903333333,-1.3020646666666666,0.0071095456666666,53470.0,28538.0,18180.0,82.0,-728.0,133.0,0,None
2023-01-04 10:43:36.600,158.36499999999998,0.1079999999999983,73.0,1396.0,22648.0,4864.0,99.0,1433.6,97.0,4878.4,169.01508,0.38545644,-0.1889623,-0.054309655,-1.2757445,54.290000000000006,-0.1891534,-0.04800176,-1.301761,0.5626252199999999,1.5168804,9.388203,-109.0,43.5,118.4,27.3,10.4,218.9,-1100.2,2.3,303.6,1015.396,-2.533664,3040.0,-0.1891534,0.03395159,-0.04800176,0.0466018,-1.301761,0.006349045,54420.0,28539.0,19130.0,89.0,-780.0,141.0,0,None
2023-01-04 10:43:37.150,158.94633333333334,0.1000000000000037,73.0,1486.0,22632.0,4882.0,99.0,1398.8333333333333,99.16666666666669,4880.5,170.88041666666666,0.4033831166666666,-0.1824238,-0.0467070833333333,-1.2731826666666668,55.24,-0.183026,-0.0403844033333333,-1.2990609999999998,0.5814330500000001,1.4451866666666664,9.945893666666668,-113.66666666666669,10.0,119.66666666666669,31.83333333333333,27.83333333333333,222.8333333333333,-1041.1666666666667,2.1666666666666665,300.0,1015.231,-2.698541666666667,3042.6666666666665,-0.183026,0.024921698,-0.0403844033333333,-0.0132073356666666,-1.2990609999999998,0.0104234169999999,55380.0,28554.0,20090.0,103.0,-822.0,136.0,0,None
2023-01-04 10:43:37.700,159.517,0.1079999999999983,73.0,1400.0,22638.0,4864.0,99.0,1415.0,101.6,4874.0,172.77974,0.42469658,-0.1749359999999999,-0.0509962533333333,-1.2734180000000002,56.373333333333335,-0.1764597,-0.04436778,-1.2987743333333337,0.5809915,1.521949,9.3133388,-131.4,-7.8,119.6,14.0,-2.0,220.0,-1049.8,-15.6,295.4,1015.1284,-2.8012656,3045.2,-0.1764597,-0.00812011,-0.04436778,0.0132977878999999,-1.2987743333333337,0.0083496038333333,56310.0,28560.0,21020.0,115.0,-855.0,141.0,0,None
2023-01-04 10:43:38.250,160.061,0.1079999999999983,72.0,1558.0,22585.0,4880.0,99.0,1539.8,103.8,4881.8,174.38324,0.44757034,-0.1730647,-0.0456066066666666,-1.2742513333333334,57.48333333333333,-0.1751627666666666,-0.0397749466666666,-1.2990216666666663,0.60737198,1.6298106,10.2794346,-123.6,0.0,118.6,36.0,12.6,218.6,-1070.0,13.6,311.0,1014.9882,-2.9413594,3047.4,-0.1751627666666666,-0.0210148806666666,-0.0397749466666666,0.0239254099999999,-1.2990216666666663,9.51106666666664e-05,57240.0,28551.0,21950.0,122.0,-886.0,130.0,0,None
2023-01-04 10:43:38.800,160.589,0.104000000000002,72.0,1462.0,22607.0,4866.0,99.0,1340.8,106.2,4873.6,175.55805999999998,0.47028762,-0.12115651,-0.03433306,-1.273898,58.45,-0.12303272,-0.02786599,-1.298294,0.686055,1.5839194,9.651649400000002,-144.4,29.6,112.4,12.1,205.2,214.5,-1061.4,-8.8,294.1,1014.9109,-3.0185468,3049.8,-0.12303272,0.3215708,-0.02786599,0.048893895,-1.298294,-0.0188486667,58190.0,28575.0,22900.0,133.0,-910.0,135.0,0,None
2023-01-04 10:43:39.350,161.12900000000005,0.1120000000000004,72.0,1106.0,22689.0,4880.0,99.0,1061.8,107.8,4872.0,176.28542000000002,0.49534268,0.0470472666666666,-0.02260073,-1.28483,59.39000000000001,0.0433652666666666,-0.0157270199999999,-1.309151,0.70896592,1.3275012,9.2865262,-135.4,28.8,68.6,30.6,266.4,230.8,-1160.4,-50.0,324.4,1014.9488,-2.980875,3051.6,0.0433652666666666,0.2366028999999999,-0.0157270199999999,0.0206671366666666,-1.309151,-0.05667601,59170.0,28530.0,23880.0,136.0,-886.0,151.0,0,None
2023-01-04 10:43:39.900,161.677,0.1079999999999983,72.0,1143.0,22704.0,4867.0,99.0,1199.8,109.6,4878.0,175.82152000000002,0.51917808,0.1093023,-0.010367739,-1.300131,60.22,0.102106665,-0.00292297065,-1.3223075,0.72319838,1.354555,10.2193396,-113.0,27.8,27.7,9.3,-21.6,224.7,-1060.3,-2.1,325.0,1014.8441,-3.0856638000000003,3054.0,0.102106665,-0.029000475,-0.00292297065,0.04146738,-1.3223075,-0.0240548,60010.0,28436.0,24720.0,122.0,-789.0,144.0,0,None
2023-01-04 10:43:40.450,162.2174,0.1079999999999983,72.0,1378.0,22624.0,4882.0,99.0,1362.2,111.6,4866.2,174.55522000000002,0.54077942,0.0688117333333333,0.0102784033,-1.2971673333333331,61.02333333333333,0.0647717766666666,0.018753737,-1.314268,0.5877494600000001,1.5946504,10.3097524,-103.0,51.8,31.2,24.8,-88.4,233.4,-1119.6,19.2,315.2,1014.717,-3.2127186,3056.8,0.0647717766666666,-0.0870297,0.018753737,0.0730650933333333,-1.314268,0.0208740636666666,60830.0,28452.0,25540.0,107.0,-680.0,155.0,0,None
2023-01-04 10:43:41.000,162.7772,0.1120000000000004,72.0,1449.0,22606.0,4864.0,99.0,1473.2,113.6,4881.2,172.76783999999998,0.56162498,0.0305742933333333,0.0199203666666666,-1.293548666666667,62.126666666666665,0.0301688433333333,0.0279877733333333,-1.3026336666666667,0.5221093800000001,1.5041088,9.8212796,-98.2,3.0,45.4,8.8,10.0,242.8,-1083.8,6.8,307.6,1014.563,-3.3668746,3058.6,0.0301688433333333,0.0005550266666666,0.0279877733333333,0.0027118833333333,-1.3026336666666667,0.015525245,61740.0,28513.0,26450.0,106.0,-596.0,162.0,0,None
2023-01-04 10:43:41.550,163.33316666666667,0.1035000000000015,71.5,1464.5,22602.5,4874.5,99.0,1497.0,116.0,4885.5,170.9158,0.5792823,0.0492919599999999,0.0222372366666666,-1.2944486666666666,63.26,0.0494645633333333,0.0302451966666666,-1.296042666666667,0.4819740799999999,1.4373814,8.8262006,-88.8,3.3,44.8,5.9,43.9,235.3,-1025.8,1.9,298.9,1014.4154166666668,-3.514511666666667,3060.6666666666665,0.0494645633333333,0.0453252633333333,0.0302451966666666,0.0089981776666666,-1.296042666666667,-0.01677194,63125.0,28570.5,27835.0,110.0,-505.5,162.0,0,None
2023-01-04 10:43:42.100,163.929,0.1077999999999974,71.0,1664.0,22553.0,4874.0,99.0,1578.8,118.8,4864.8,168.95952,0.5982348399999999,0.07139606,0.01909329,-1.29916,64.225,0.07148904,0.02587892,-1.2953395,0.4412449199999999,1.5241552,9.2341764,-75.6,-17.2,33.2,12.8,63.0,234.2,-1086.2,-20.8,296.2,1014.2632,-3.6666250000000007,3063.4,0.07148904,0.063958995,0.02587892,-0.02290104,-1.2953395,-0.02330969,64600.0,28569.0,29310.0,110.0,-405.0,158.0,0,None
2023-01-04 10:43:42.650,164.457,0.104000000000002,71.0,1393.0,22616.0,4867.0,99.0,1454.4,120.8,4880.6,167.38314,0.61550598,0.0953360966666666,-0.0014077153333333,-1.3128306666666667,65.20333333333333,0.0950275333333333,0.0062764319999999,-1.303862,0.4657554,1.4880438,9.2233514,-65.8,-22.6,23.2,4.0,19.2,238.0,-1025.0,-31.6,307.6,1014.1732,-3.7564064,3065.2,0.0950275333333333,-0.0011235973333333,0.0062764319999999,-0.0156073933333333,-1.303862,-0.0363829396666666,65510.0,28498.0,30220.0,94.0,-336.0,137.0,0,None
2023-01-04 10:43:43.200,164.981,0.104000000000002,71.0,1078.0,22701.0,4883.0,99.0,1182.8,122.8,4884.4,166.2413,0.62993226,0.098071695,0.0049354164999999,-1.3274935,65.965,0.098724235,0.0112256459999999,-1.3143515,0.43225102,1.3800096,7.044067200000001,-56.3,40.4,21.0,1.0,21.0,245.6,-948.7,-22.2,322.2,1014.0885000000002,-3.8412345,3067.4,0.098724235,0.00792520825,0.0112256459999999,0.005357043,-1.3143515,-0.0025792299999999,66160.0,28454.0,30870.0,76.0,-274.0,60.0,0,None
2023-01-04 10:43:43.750,165.55316666666667,0.1033333333333293,71.0,1224.0,22641.0,4869.0,99.0,1181.6666666666667,124.66666666666669,4880.333333333333,165.24069999999998,0.6431830833333333,0.1258978666666666,0.0248511533333333,-1.328868333333333,66.28333333333333,0.1270743333333333,0.0305441199999999,-1.312397,0.4656964666666667,0.97037255,6.330862333333333,-46.333333333333336,33.833333333333336,14.833333333333334,11.333333333333334,88.83333333333333,252.8333333333333,-977.8333333333334,6.0,323.8333333333333,1014.0463333333332,-3.883359166666666,3069.833333333333,0.1270743333333333,0.08717243,0.0305441199999999,0.0304258066666666,-1.312397,0.0151269043333333,66310.0,28503.0,31020.0,66.0,-212.0,-16.0,0,None
2023-01-04 10:43:44.300,166.12900000000002,0.104000000000002,71.0,1489.0,22587.0,4883.0,99.0,1431.8,126.8,4881.2,164.29388,0.6553641,0.1593927,0.0349518033333333,-1.3226233333333333,66.26333333333334,0.1595983666666666,0.0407961933333333,-1.3022903333333335,0.38333888,1.01445756,6.0705480000000005,-33.2,5.2,-6.2,-10.8,2.6,233.0,-1091.8,-1.4,286.8,1014.025,-3.9045154,3071.8,0.1595983666666666,0.0134068133333333,0.0407961933333333,0.0010990076666666,-1.3022903333333335,0.0154897419999999,66250.0,28542.0,30960.0,56.0,-124.0,-33.0,0,None
2023-01-04 10:43:44.850,166.657,0.1079999999999983,71.0,1436.0,22580.0,4866.0,99.0,1432.2,128.8,4886.0,163.55772000000002,0.66341818,0.1398259333333333,0.0257891066666666,-1.3267403333333332,66.21666666666665,0.1416586333333333,0.0321656333333333,-1.3045246666666666,0.368829,0.9952808,3.79927,-19.4,-16.6,2.2,-13.4,-38.4,248.8,-1077.8,2.2,312.2,1014.0372,-3.8924216,3074.0,0.1416586333333333,-0.0506238399999999,0.0321656333333333,-0.0256110193333333,-1.3045246666666666,-0.0071177833333333,66220.0,28519.0,30930.0,43.0,-40.0,-29.0,0,None
2023-01-04 10:43:45.400,167.193,0.108000000000004,71.0,1448.0,22589.0,4887.0,99.0,1416.6,131.0,4881.4,162.81718,0.66972168,0.09257606,0.016249455,-1.3261375,66.215,0.09590798,0.0224937799999999,-1.302504,0.34024632,1.22638532,3.225774,-27.5,-1.6,13.9,-29.5,-114.5,240.0,-1077.0,-12.6,304.6,1014.0325,-3.8972345,3076.2,0.09590798,-0.13554765,0.0224937799999999,-0.0077729305,-1.302504,-0.0085360779999999,66210.0,28544.0,30920.0,31.0,19.0,-27.0,0,None
2023-01-04 10:43:45.950,167.713,0.1039999999999963,71.0,1374.0,22593.0,4867.0,99.0,1397.8,133.0,4880.6,161.94254,0.6751862,0.03208987,0.0178534,-1.331734,66.22,0.0370436433333333,0.0233344733333333,-1.3075966666666667,0.37488264,1.04010222,2.9284860000000004,-22.0,17.4,35.4,-35.4,-74.4,248.8,-1054.2,-22.6,310.4,1014.0302,-3.8994372,3078.6,0.0370436433333333,-0.0787704733333333,0.0233344733333333,0.0093696483,-1.3075966666666667,-0.03394417,66220.0,28510.0,30930.0,23.0,47.0,-28.0,0,None
2023-01-04 10:43:46.500,168.253,0.104000000000002,70.0,1382.0,22587.0,4880.0,99.0,1392.4,135.0,4886.4,160.75330000000002,0.681488,0.0088633385,0.019801155,-1.335699,66.21,0.015158695,0.023847085,-1.3111075,0.36230534,0.90434282,3.9189026,-16.2,7.2,44.0,-20.4,6.4,247.2,-1068.4,1.8,295.8,1013.9874,-3.942328,3080.2,0.015158695,0.0103822825,0.023847085,0.0031994565,-1.3111075,0.005843228,66200.0,28486.0,30910.0,24.0,51.0,-30.0,0,None
2023-01-04 10:43:47.050,168.813,0.1159999999999967,70.0,1390.0,22563.0,4872.0,99.0,1393.4,137.2,4881.4,159.67816,0.6884416999999999,0.01791888,0.0204085433333333,-1.3385733333333334,66.21666666666667,0.0220820866666666,0.0234492,-1.3141416666666668,0.36661924,0.90526832,3.7240398,-3.5,-29.5,43.2,-7.5,17.6,246.2,-1069.8,12.7,292.3,1013.9828,-3.9469766,3082.8,0.0220820866666666,0.016746777,0.0234492,-0.0149255136666666,-1.3141416666666668,-0.0068324353333333,66220.0,28468.0,30930.0,30.0,51.0,-30.0,0,None
2023-01-04 10:43:47.600,169.39633333333333,0.103333333333334,70.0,1369.0,22578.0,4866.0,99.0,1399.5,139.33333333333334,4881.0,158.61746666666667,0.6960250666666666,0.0204247633333333,-0.0049368546666666,-1.331737333333333,66.22,0.0231657066666666,-0.0014573393333333,-1.3081773333333333,0.3488395499999999,1.0215493,3.5842771666666664,-7.0,-27.33333333333333,44.333333333333336,-22.666666666666668,2.1666666666666665,227.0,-1071.3333333333333,-2.0,283.6666666666667,1013.9676666666666,-3.962148333333333,3085.0,0.0231657066666666,0.0087030166666666,-0.0014573393333333,-0.0190507,-1.3081773333333333,0.0157505233333333,66210.0,28494.0,30920.0,31.0,54.0,-35.0,0,None
2023-01-04 10:43:48.150,169.973,0.104000000000002,70.0,1431.0,22550.0,4880.0,99.0,1404.2,141.6,4885.8,157.78054,0.7016153600000001,0.0133066433333333,-0.0067123426666666,-1.3305133333333334,66.21,0.0160407066666666,-0.0034049643333333,-1.308007666666667,0.3782464399999999,1.13413866,4.773184200000001,-6.0,14.8,43.6,-7.4,-8.2,236.6,-1046.2,-15.0,311.6,1013.9608,-3.9687966,3087.2,0.0160407066666666,-0.014646207,-0.0034049643333333,0.014472928,-1.308007666666667,-0.0010545104,66220.0,28516.0,30930.0,21.0,53.0,-37.0,0,None
2023-01-04 10:43:48.700,170.485,0.104000000000002,70.0,1404.0,22563.0,4867.0,99.0,1415.2,143.8,4882.8,157.10078,0.70621732,0.0091361764999999,-0.0055046325,-1.333342,66.19,0.011503505,-0.0030077095,-1.3108655,0.41242266,1.00694042,3.8266368,0.0,-3.5,44.0,-7.6,0.4,241.9,-1069.2,-12.0,306.6,1013.9441,-3.9853827,3089.2,0.011503505,-0.009560436,-0.0030077095,-0.00822285,-1.3108655,0.0092553705,66200.0,28496.0,30910.0,16.0,49.0,-38.0,1,27_xacc_avg_constant_0
2023-01-04 10:43:49.250,171.025,0.1079999999999983,70.0,1407.0,22569.0,4880.0,99.0,1397.0,146.0,4880.6,156.34948,0.7112861800000001,0.0091658713333333,-0.0133756463333333,-1.3358633333333334,66.17333333333335,0.0117014226666666,-0.0103393603333333,-1.312779666666667,0.38135462,0.85207176,3.3072241999999994,0.0,-14.4,45.8,-16.8,23.4,246.0,-1073.6,-8.8,306.2,1013.947,-3.9825624,3091.4,0.0117014226666666,0.0233121763333333,-0.0103393603333333,-0.0074095136666666,-1.312779666666667,0.0058722833333333,66190.0,28483.0,30900.0,13.0,44.0,-41.0,1,27_xacc_avg_constant_0
2023-01-04 10:43:49.800,171.60633333333337,0.1066666666666643,70.0,1423.0,22540.0,4869.0,99.0,1417.1666666666667,148.0,4880.0,155.58723333333333,0.7164131,0.0110072253333333,-0.0176028966666666,-1.3293266666666668,66.14666666666666,0.0135367033333333,-0.0141654199999999,-1.3063303333333334,0.3324475666666666,1.1733236,3.774588333333334,0.0,8.666666666666666,42.833333333333336,-16.166666666666668,-1.5,231.0,-1054.8333333333333,-9.833333333333334,312.8333333333333,1013.9391666666668,-3.990494833333333,3093.333333333333,0.0135367033333333,0.0003172656666666,-0.0141654199999999,0.011166173,-1.3063303333333334,-0.0144215466666666,66150.0,28505.5,30860.0,4.0,36.0,-40.0,1,27_xacc_avg_constant_0
2023-01-04 10:43:50.350,172.197,0.104000000000002,70.0,1380.0,22581.0,4869.0,99.0,1378.6,150.4,4879.8,154.90949999999998,0.72156076,0.0080694695,-0.0086336365,-1.333156,66.13499999999999,0.010903806,-0.004904643,-1.3105995,0.37154628,1.01555384,3.889961200000001,0.0,9.0,38.0,-9.8,-5.1,226.7,-1085.9,-30.1,318.6,1013.9318,-3.997695,3095.6,0.010903806,0.0065771334999999,-0.004904643,0.023693025,-1.3105995,-0.02436601,66140.0,28478.0,30850.0,-1.0,29.0,-42.0,1,27_xacc_avg_constant_0
2023-01-04 10:43:50.900,172.6972,0.1002000000000009,69.0,1312.0,22571.0,4871.0,99.0,1351.4,152.4,4879.2,154.37782,0.7262848,0.004440713,-0.0114711123333333,-1.3352393333333332,66.13666666666667,0.0073867113333333,-0.0079823386666666,-1.3117336666666668,0.37654332,1.0913744399999998,4.4691054,0.0,-18.8,45.2,3.4,12.8,240.4,-1050.0,35.4,297.6,1013.9362,-3.9933124,3097.8,0.0073867113333333,0.0048325366666666,-0.0079823386666666,-0.0140130203333333,-1.3117336666666668,0.0053757303333333,66130.0,28495.0,30840.0,-3.0,24.0,-43.0,1,27_xacc_avg_constant_0
2023-01-04 10:43:51.450,173.21339999999998,0.1039999999999962,69.0,1376.0,22560.0,4882.0,99.0,1370.2,154.4,4879.4,153.83964,0.73141084,0.009564675,-0.02398887,-1.330458,66.12,0.01284886,-0.01934599,-1.307038,0.3613726,1.139631,4.969875,0.0,-6.4,40.2,-23.0,18.2,232.4,-1084.2,25.0,323.0,1013.9344,-3.9951404,3099.8,0.0145049,0.0260993,-0.0205518999999999,-0.022567512,-1.304163,0.026330215,66110.0,28555.0,30820.0,-9.0,20.0,-45.0,1,27_xacc_avg_constant_0
2023-01-04 10:43:52.000,173.741,0.1078000000000031,69.0,1343.0,22558.0,4869.0,99.0,1360.2,156.2,4879.0,153.30914,0.73780538,0.0085196983333333,-0.0225843466666666,-1.317835,66.08999999999999,0.0122865533333333,-0.0175698533333333,-1.2945286666666669,0.3419517,1.3043184,3.5760778,0.0,11.4,46.2,23.6,-3.4,231.4,-1103.0,5.0,300.2,1013.9346,-3.9950314,3101.8,0.0122865533333333,-0.0142034166666666,-0.0175698533333333,0.02653643,-1.2945286666666669,0.0203924323333333,66080.0,28587.0,30790.0,-18.0,16.0,-45.0,1,27_xacc_avg_constant_0
2023-01-04 10:43:52.550,174.333,0.103333333333334,69.0,1382.0,22558.0,4869.0,99.0,1372.5,158.33333333333334,4882.0,152.99054999999998,0.7445412666666668,0.007896103,-0.0054446727,-1.3209673333333336,66.05000000000001,0.0117959233333333,-0.0005214933333333,-1.29798,0.4458662833333333,1.0958596,2.8086951666666664,0.0,28.83333333333333,49.66666666666666,-7.333333333333333,0.1666666666666666,257.8333333333333,-1087.3333333333333,12.666666666666666,327.0,1013.9416666666666,-3.9878255,3103.5,0.0117959233333333,0.002821127,-0.0005214933333333,0.0373735466666666,-1.29798,0.0088890603333333,66050.0,28555.0,30760.0,-21.0,14.0,-45.0,1,27_xacc_avg_constant_0
2023-01-04 10:43:53.100,174.889,0.1039999999999963,69.0,1405.0,22545.0,4887.0,99.0,1390.4,160.6,4881.6,152.77308,0.75161074,0.004121253,0.0068782293333333,-1.326072666666667,66.01333333333334,0.008578174,0.0119140273333333,-1.3031946666666665,0.32420326,1.07042132,3.33315,0.0,14.9,46.5,-2.9,-4.4,238.6,-1102.2,-9.7,295.0,1013.943,-3.9867031000000006,3106.0,0.008578174,-0.0073057576666666,0.0119140273333333,0.0157581576666666,-1.3031946666666665,-0.0031635383333333,66020.0,28534.0,30730.0,-18.0,14.0,-45.0,1,27_xacc_avg_constant_0
2023-01-04 10:43:53.650,175.44966666666667,0.1000000000000037,69.0,1385.0,22525.0,4869.0,98.16666666666669,1387.1666666666667,163.0,4881.5,152.5404,0.7583533333333333,-0.0008352814333333,0.0087861503333333,-1.330682,65.97666666666667,0.0041707203333333,0.0136398686666666,-1.3084096666666667,0.3907406333333333,1.0474891,3.634967833333333,0.0,-13.166666666666666,51.0,-16.5,5.5,246.66666666666663,-1067.8333333333333,-21.166666666666668,306.1666666666667,1013.9238333333332,-4.005846333333333,3108.1666666666665,0.0041707203333333,0.0084082873333333,0.0136398686666666,-0.013932434,-1.3084096666666667,-0.0068010423333333,65980.0,28505.0,30690.0,-8.0,14.0,-43.0,1,27_xacc_avg_constant_0
2023-01-04 10:43:54.200,176.033,0.1119999999999947,69.0,1399.0,22528.0,4885.0,98.0,1397.6,165.0,4882.4,152.23846,0.7640886199999999,0.00114957635,-0.0041975555,-1.3291105,65.96,0.0054391435,0.00234625865,-1.306873,0.37563094,0.94338076,3.3449032,0.0,-10.4,45.6,-16.8,1.6,240.8,-1074.6,15.4,310.2,1013.9334,-3.9963906,3110.4,0.0054391435,-0.00178538865,0.00234625865,-0.0096135619999999,-1.306873,0.0172796939999999,65960.0,28509.0,30670.0,0.0,12.0,-42.0,1,27_xacc_avg_constant_0
2023-01-04 10:43:54.750,176.573,0.104000000000002,69.0,1380.0,22525.0,4866.0,98.0,1394.6,167.0,4886.6,151.9604,0.7682171999999999,-0.0002625587333333,-0.0036459423333333,-1.3289963333333334,65.96,0.004265991,0.0025608293333333,-1.3069303333333335,0.32373206,1.0496962,3.9149108,0.0,5.4,43.8,3.4,1.4,242.0,-1079.2,7.4,307.6,1013.9352,-3.9943122,3112.2,0.0043378466666666,-0.0013727661666666,0.0026228256666666,0.0051372533333333,-1.3067523333333335,0.0050637517666666,65960.0,28516.0,30670.0,0.0,9.0,-43.0,1,27_xacc_avg_constant_0
2023-01-04 10:43:55.300,177.101,0.1079999999999983,69.0,1383.0,22539.0,4882.0,98.0,1373.0,169.2,4883.8,151.74548,0.77109872,0.0014035281333333,-0.0021440336666666,-1.3301736666666668,65.97,0.0066369146666666,0.0039365696666666,-1.3090346666666666,0.37362696,1.0667619599999998,3.6341956,0.0,-0.1,49.5,-2.5,12.7,242.5,-1066.9,3.3,303.3,1013.9293,-4.0003282,3114.2,0.0062848053333333,0.0082930709999999,0.0038649683333333,-0.0036343866666666,-1.3091263333333332,-0.0019893049999999,65970.0,28502.0,30680.0,3.0,7.0,-44.0,1,27_xacc_avg_constant_0
2023-01-04 10:43:55.850,177.617,0.0999999999999999,69.0,1351.0,22533.0,4858.0,98.0,1371.2,171.2,4880.6,151.55068,0.77366496,0.0043215484999999,-0.006475363,-1.326233,65.98,0.009611046,0.0002784907999999,-1.305961,0.33049708,1.09261182,3.8613574,0.0,-7.8,49.4,-17.8,3.2,234.8,-1089.2,3.0,310.2,1013.9306,-3.9992966,3116.4,0.009611046,0.0072582005,0.0002784907999999,-0.0087215105,-1.305961,0.0032435399999999,65970.0,28507.0,30680.0,5.0,5.0,-44.0,1,27_xacc_avg_constant_0
2023-01-04 10:43:56.400,178.19966666666667,0.1100000000000041,69.0,1393.0,22548.0,4888.0,98.0,1379.8333333333333,173.33333333333334,4885.333333333333,151.3492,0.7763220666666667,0.0036514686666666,-0.008056706,-1.32312,65.97666666666667,0.008919273,-0.0011493861666666,-1.3026086666666667,0.39590835,1.01253425,3.716242,0.0,6.666666666666667,45.0,-7.166666666666667,6.0,241.3333333333333,-1045.8333333333333,6.333333333333333,309.6666666666667,1013.9336666666668,-3.995950333333333,3118.1666666666665,0.008919273,0.0093916976666666,-0.0011493861666666,0.009344175,-1.3026086666666667,0.012197006,65975.0,28534.0,30685.0,5.0,4.5,-44.0,1,27_xacc_avg_constant_0
2023-01-04 10:43:56.950,178.75324999999998,0.1102499999999935,69.0,1362.0,22555.0,4864.0,98.0,1388.25,175.5,4883.0,151.24085,0.7782858500000001,0.0059066019999999,-0.0035257162333333,-1.32373,65.96,0.0120824566666666,0.0026348718333333,-1.303748,0.350656025,1.033167675,4.444413,0.0,8.0,49.25,7.75,11.5,245.375,-1110.0,-8.5,313.625,1013.932375,-3.997119125,3120.375,0.0120824566666666,0.0067052656666666,0.0026348718333333,0.0076284513333333,-1.303748,-0.0155235533333333,65960.0,28537.0,30670.0,5.0,4.0,-43.0,1,27_xacc_avg_constant_0
2023-01-04 10:43:57.500,179.28633333333332,0.1065000000000016,68.0,1368.5,22531.0,4875.5,98.0,1387.0,177.66666666666666,4879.166666666667,151.14213333333333,0.7805631166666666,0.0086092823333333,-0.0061888546666666,-1.3213806666666663,65.93333,0.0151486,0.0002092287333333,-1.301845666666667,0.3230019666666666,1.0545340166666668,4.228607333333334,0.0,-3.5,45.833333333333336,-31.166666666666668,4.833333333333333,237.5,-1051.0,-9.333333333333334,311.3333333333333,1013.9373333333334,-3.9924086666666665,3122.333333333333,0.0151486,0.0182304166666666,0.0002092287333333,0.0034824388666666,-1.301845666666667,0.0082493,65930.0,28542.0,30640.0,6.0,6.0,-42.0,1,27_xacc_avg_constant_0
2023-01-04 10:43:58.050,179.869,0.1120000000000004,68.0,1408.0,22529.0,4883.0,98.0,1369.6,179.6,4882.0,151.0745,0.78263076,0.0088591649999999,-0.0049134455,-1.32331,65.92500000000001,0.016125425,0.00159756,-1.304754,0.3341119,1.0411347199999998,4.1843676,0.0,12.2,49.9,-4.7,15.8,235.7,-1072.4,-15.2,305.0,1013.9451,-3.9845389,3124.4,0.016125425,0.015776504,0.00159756,0.0121374869999999,-1.304754,-0.00792359545,65930.0,28522.0,30640.0,7.0,7.0,-43.0,1,27_xacc_avg_constant_0
2023-01-04 10:43:58.600,180.40500000000003,0.0999999999999999,68.0,1367.0,22534.0,4869.0,98.0,1371.0,182.0,4877.4,151.00984,0.784743,0.0158020866666666,-0.0039204943333333,-1.324382333333333,65.92,0.0226615333333333,0.0033669983333333,-1.3056236666666663,0.4064188599999999,0.98171288,4.039442,0.0,5.6,42.0,-30.8,10.2,232.0,-1075.4,-3.0,300.6,1013.9318,-3.9980624,3126.6,0.0226615333333333,0.0145541503333333,0.0033669983333333,0.006433637,-1.3056236666666663,-0.0051152603333333,65920.0,28519.0,30630.0,6.0,9.0,-42.0,1,27_xacc_avg_constant_0
2023-01-04 10:43:59.150,180.929,0.1079999999999983,68.0,1389.0,22588.0,4880.0,98.0,1374.2,183.8,4880.0,150.87958,0.78706702,0.014610775,-0.0023738204999999,-1.321188,65.92,0.0206615,0.004497381,-1.3026270000000002,0.33943816,1.06537068,3.94461,0.0,4.8,38.6,-5.4,-2.8,245.8,-1054.4,-4.0,336.8,1013.9264,-4.0031406,3128.2,0.0206615,-0.005318591,0.004497381,0.00219650375,-1.3026270000000002,0.02236977,65920.0,28538.0,30630.0,6.0,15.0,-42.0,1,27_xacc_avg_constant_0
2023-01-04 10:43:59.700,181.513,0.103333333333334,68.0,1361.0,22520.0,4867.0,98.0,1373.8333333333333,186.0,4881.333333333333,150.66799999999998,0.7902276833333334,0.0072869449999999,-0.0019802599999999,-1.3203083333333332,65.91,0.01457468,0.0040820806666666,-1.3005943333333334,0.4559542166666666,1.0841213833333334,3.5256833333333333,0.0,2.6666666666666665,38.66666666666666,-25.0,-6.666666666666667,240.0,-1067.3333333333333,23.83333333333333,328.8333333333333,1013.9243333333334,-4.0053775,3130.1666666666665,0.01457468,-0.0086407266666666,0.0040820806666666,0.0074201916666666,-1.3005943333333334,0.0091337786,65910.0,28546.0,30620.0,7.0,17.0,-43.0,1,27_xacc_avg_constant_0
2023-01-04 10:44:00.250,182.101,0.1079999999999983,68.0,1397.0,22528.0,4887.0,98.0,1378.8,188.2,4878.2,150.46266,0.7931034799999999,0.0076313093333333,-0.0041621926666666,-1.320125,65.88666666666667,0.0151523433333333,0.0013774477666666,-1.3003056666666666,0.33135596,1.0633045,3.8972628,0.0,-3.6,44.2,10.8,16.5,236.5,-1094.0,2.6,314.4,1013.9373,-3.992367,3132.5,0.0151523433333333,0.010805844,0.0013774477666666,-0.0027708193333333,-1.3003056666666666,-0.0191291756666666,65890.0,28552.0,30600.0,6.0,16.0,-45.0,1,27_xacc_avg_constant_0
2023-01-04 10:44:00.800,182.64120000000003,0.108000000000004,68.0,1379.0,22496.0,4864.0,98.0,1387.0,190.4,4878.8,150.22822000000002,0.79622574,0.0097510863333333,-0.0013874791,-1.3180126666666667,65.85,0.0170112866666666,0.004079471,-1.299132,0.4781543199999999,0.9998971999999998,3.612342200000001,0.0,7.2,42.2,-17.0,9.4,212.8,-1068.6,10.8,291.8,1013.929,-4.000500000000001,3134.8,0.0170112866666666,0.0083468426666666,0.004079471,0.00357205,-1.299132,-0.01148667,65860.0,28561.0,30570.0,5.0,16.0,-43.0,1,27_xacc_avg_constant_0
2023-01-04 10:44:01.350,183.169,0.1039999999999962,68.0,1382.0,22514.0,4883.0,98.0,1378.4,192.4,4878.4,150.02234,0.798882,0.0059677029999999,-0.003956504,-1.318687,65.83,0.0138929,0.00170919965,-1.3005495,0.28074756,1.07963072,4.095465000000001,0.0,-4.8,43.4,-6.8,7.6,221.6,-1077.0,-23.4,291.6,1013.9188,-4.0110472,3136.2,0.0138929,0.0056458164999999,0.00170919965,-0.0070981369,-1.3005495,0.00817097,65830.0,28552.0,30540.0,6.0,16.0,-42.0,1,27_xacc_avg_constant_0
2023-01-04 10:44:01.900,183.689,0.104000000000002,68.0,1378.0,22507.0,4867.0,98.0,1389.4,194.4,4880.6,149.8451,0.80128848,0.0127866366666666,-0.005453224,-1.3213926666666669,65.81,0.0205873533333333,-0.0006080174333333,-1.3035453333333331,0.4970086999999999,1.0430254600000002,3.5245945999999995,0.0,-1.3,43.1,-8.8,15.7,230.4,-1047.8,-8.0,303.4,1013.9256,-4.0040076,3138.2,0.0205873533333333,0.0144626723333333,-0.0006080174333333,-0.0023656636666666,-1.3035453333333331,0.0075926499999999,65810.0,28534.0,30520.0,5.0,16.0,-43.0,1,27_xacc_avg_constant_0
2023-01-04 10:44:02.450,184.2132,0.104000000000002,68.0,1391.0,22508.0,4880.0,98.0,1373.4,196.6,4876.8,149.65168,0.8039340599999999,0.01728035,-0.0067888535,-1.322898,65.785,0.025344585,-0.00143925055,-1.3056375,0.39132062,1.0132101800000002,4.3027218,0.0,5.6,43.6,-14.4,9.0,245.2,-1076.8,-29.4,318.2,1013.9358,-3.9937028,3140.0,0.025344585,0.018850722,-0.00143925055,0.016040486,-1.3056375,-0.0181856955,65790.0,28521.0,30500.0,3.0,17.0,-44.0,1,27_xacc_avg_constant_0
2023-01-04 10:44:03.000,184.76966666666667,0.1033333333333293,68.0,1410.5,22509.5,4876.0,98.0,1416.8,198.6,4879.333333333333,149.43903333333336,0.8069990666666667,0.0185474999999999,-0.0027865050666666,-1.3257713333333332,65.74333333333334,0.02589935,0.00312702975,-1.3090506666666666,0.35651815,1.0787183333333332,3.9056806666666666,0.0,21.5,42.66666666666666,-15.5,-8.5,241.0,-1053.3333333333333,3.5,310.1666666666667,1013.932,-3.9978253333333336,3142.1666666666665,0.02589935,-0.0149488166666666,0.00312702975,0.0237046366666666,-1.3090506666666666,-0.01100442,65760.0,28501.0,30470.0,1.0,21.0,-45.0,1,27_xacc_avg_constant_0
2023-01-04 10:44:03.550,185.337,0.104000000000002,68.0,1411.0,22495.0,4866.0,98.0,1391.4,200.8,4886.8,149.17130000000003,0.81127664,0.0006192911666666,0.003758929,-1.3224966666666669,65.70666666666666,0.008253681,0.0096743993333333,-1.3062426666666669,0.395898,0.8868453199999999,3.929741,0.0,2.0,47.0,-11.8,-30.8,239.2,-1093.8,9.8,308.2,1013.9312,-3.9982184,3144.4,0.008253681,-0.0205210826666666,0.0096743993333333,-0.0020757683333333,-1.3062426666666669,0.0188702203333333,65710.0,28510.0,30420.0,2.5,25.0,-42.0,1,27_xacc_avg_constant_0
2023-01-04 10:44:04.100,185.897,0.1120000000000004,68.0,1406.0,22495.0,4888.0,98.0,1389.2,203.0,4884.0,148.95942,0.8143064799999999,-0.003505995,0.0038616685,-1.3248535,65.684995,0.0044145815,0.009057652,-1.308845,0.3025329199999999,1.06939332,3.6886194,-9.3,-19.4,47.5,-15.6,12.8,237.8,-1060.5,-12.5,306.7,1013.9264,-4.0031563000000006,3146.4,0.0044145815,0.008427134,0.009057652,-0.0081350176,-1.308845,-0.0258812945,65670.0,28500.0,30380.0,10.0,20.0,-43.0,0,None
2023-01-04 10:44:04.650,186.45316666666668,0.099999999999999,68.0,1383.0,22509.0,4872.0,98.0,1397.6666666666667,205.16666666666663,4884.333333333333,148.72716666666665,0.8170878999999999,0.001382842875,-0.009409302,-1.3243615000000002,65.6475,0.00970492425,-0.0040136699999999,-1.30858525,0.3938087666666667,1.119345,4.327528,-6.666666666666667,0.5,46.5,-8.666666666666666,17.833333333333332,241.16666666666663,-1057.3333333333333,6.833333333333333,313.6666666666667,1013.9303333333332,-3.9994401666666666,3148.333333333333,0.00970492425,0.0116345425,-0.0040136699999999,-0.0059092379999999,-1.30858525,0.0053589395,65640.0,28501.0,30350.0,8.0,17.0,-42.0,0,None
2023-01-04 10:44:05.200,187.0252,0.104000000000002,68.0,1336.0,22521.0,4888.0,98.0,1352.0,207.4,4881.8,148.52524,0.81942304,0.004575337,-0.00800943,-1.3273925,65.625,0.0116256195,-0.0025109435,-1.3125025,0.39754568,0.98155832,4.2605276000000005,-14.6,2.8,43.4,11.2,10.4,242.6,-1095.0,-20.6,320.2,1013.934,-3.9957188,3150.2,0.0116256195,0.016466426,-0.0025109435,0.008556176,-1.3125025,-0.02312017,65620.0,28481.0,30330.0,6.0,14.0,-41.0,0,None
2023-01-04 10:44:05.750,187.541,0.0999999999999999,67.0,1363.0,22476.0,4869.0,98.0,1368.4,209.4,4883.4,148.38386,0.8214314600000001,0.0048710776666666,-0.009937276,-1.3303726666666666,65.60333333333332,0.0126629233333333,-0.0041052323333333,-1.315937666666667,0.3391725,0.9750557599999998,4.3334706,-5.0,-4.8,45.6,-22.4,3.4,235.6,-1068.2,13.2,309.0,1013.9322,-3.997578,3151.8,0.0126629233333333,0.0043051413333333,-0.0041052323333333,-0.009131286,-1.315937666666667,-0.0025397623333333,65600.0,28457.0,30310.0,5.0,14.0,-41.0,0,None
2023-01-04 10:44:06.300,188.08666666666667,0.103333333333334,67.0,1382.0,22500.0,4887.0,98.0,1371.0,211.3333333333333,4889.0,148.2931166666667,0.8233736166666666,0.0061045483333333,-0.0152014266666666,-1.3255493333333332,65.58333333333333,0.0129984766666666,-0.009194228,-1.311934,0.3899824999999999,1.0899531666666666,4.130472833333333,-6.166666666666667,-0.5,45.333333333333336,-5.166666666666667,0.5,237.0,-1062.8333333333333,15.833333333333334,308.8333333333333,1013.9125,-4.0171875,3154.0,0.0129984766666666,0.004134838,-0.009194228,0.013033416,-1.311934,0.0035550399999999,65590.0,28479.0,30300.0,0.0,14.0,-46.0,0,None
2023-01-04 10:44:06.850,188.65320000000003,0.0999999999999999,67.0,1373.0,22509.0,4867.0,98.0,1391.6,213.4,4881.4,148.26131999999998,0.82551152,0.0039512155,-0.007673666,-1.3174115,65.56,0.01089218,-0.0015553636,-1.304516,0.30782982,0.9908756,4.326160400000001,-14.6,22.6,47.2,-8.8,11.8,233.4,-1051.2,3.8,309.4,1013.9148,-4.014921599999999,3156.0,0.01089218,0.004434022,-0.0015553636,0.0212959295,-1.304516,0.010431203,65560.0,28517.0,30270.0,-3.0,13.0,-46.0,0,None
2023-01-04 10:44:07.400,189.223,0.103333333333334,67.0,1410.0,22469.0,4888.0,98.0,1409.6666666666667,215.66666666666663,4885.0,148.28436666666667,0.8279148333333334,0.003053402,0.000450064,-1.3175123333333332,65.52666666666666,0.0104614433333333,0.0059671562,-1.3046083333333331,0.3765403999999999,1.043624433333333,5.0346261666666665,-2.6666666666666665,21.83333333333333,43.16666666666666,-12.333333333333334,3.0,239.3333333333333,-1091.8333333333333,-1.8333333333333333,307.5,1013.9201666666668,-4.0096095,3158.1666666666665,0.0104614433333333,0.0009090006666666,0.0059671562,0.0231873119999999,-1.3046083333333331,-0.021443991,65540.0,28532.0,30250.0,-4.0,12.0,-45.0,0,None
2023-01-04 10:44:07.950,189.777,0.0999999999999999,67.0,1369.0,22492.0,4864.0,98.0,1387.0,217.8,4884.6,148.31594,0.83016548,0.003227934,0.005139169,-1.3190896666666665,65.5,0.0103749826666666,0.0099239589666666,-1.3055506666666667,0.35295986,0.9017912,5.555026,-3.2,-18.2,36.2,3.8,0.2,247.0,-1061.2,8.0,301.8,1013.9134,-4.016297,3159.8,0.0103749826666666,0.0050532543333333,0.0099239589666666,-0.0258312033333333,-1.3055506666666667,0.0155685296666666,65510.0,28516.0,30220.0,1.0,13.0,-45.0,0,None
2023-01-04 10:44:08.500,190.301,0.1039999999999963,67.0,1373.0,22494.0,4883.0,98.0,1374.0,220.0,4882.4,148.30398,0.8317330000000001,0.0025537805,-0.016649935,-1.3169965,65.485,0.00964956,-0.0116698335,-1.3052685,0.3867640599999999,0.8961587200000001,5.9019342,-16.7,-21.6,52.8,-11.0,5.2,229.7,-1068.2,-14.5,303.2,1013.9094,-4.0200234,3162.2,0.00964956,0.0087456085,-0.0116698335,-0.0326592849999999,-1.3052685,-0.01605959,65500.0,28525.0,30210.0,5.0,14.0,-44.0,0,None
2023-01-04 10:44:09.050,190.86633333333336,0.103333333333334,67.0,1393.5,22474.5,4869.0,98.0,1381.6666666666667,222.16666666666663,4880.666666666667,148.2927666666667,0.8333119666666667,0.0035075393333333,-0.0115907063333333,-1.316611,65.47666666666667,0.0103492869999999,-0.0062573273333333,-1.3051726666666663,0.32195835,0.9881777833333332,5.390672166666668,-8.166666666666666,35.333333333333336,43.333333333333336,-10.5,7.833333333333333,228.3333333333333,-1055.1666666666667,11.333333333333334,302.6666666666667,1013.919,-4.010676833333334,3164.0,0.0103492869999999,0.0037168233333333,-0.0062573273333333,0.0308274833333333,-1.3051726666666663,0.0110266687333333,65480.0,28513.0,30190.0,1.0,13.0,-44.0,0,None
2023-01-04 10:44:09.600,191.441,0.1079999999999983,67.0,1343.0,22482.0,4869.0,98.0,1368.0,224.25,4873.8,148.32276,0.83521486,0.0044410146666666,0.0016337559333333,-1.3096603333333332,65.44999666666666,0.01130478,0.0057113663333333,-1.2989686666666669,0.3594779199999999,1.03586034,5.3374846,-11.0,-2.8,52.6,15.8,2.6,258.8,-1115.2,14.8,321.8,1013.913,-4.0166404,3166.0,0.01130478,-0.00479633,0.0057113663333333,-0.0007035009999999,-1.2989686666666669,-6.822666666666856e-05,65455.0,28556.5,30165.0,0.0,12.5,-48.0,0,None
2023-01-04 10:44:10.150,191.961,0.104000000000002,67.0,1366.0,22467.0,4877.0,98.0,1361.4,226.2,4882.4,148.34320000000002,0.8366660400000001,0.0029611265,-0.007092239,-1.306363,65.42500000000001,0.0097993005,-0.00274016545,-1.2960470000000002,0.37626194,1.02418092,4.5561152,-11.4,-6.0,49.6,2.2,10.8,236.8,-1043.4,-0.2,311.4,1013.9122,-4.017765599999999,3167.6,0.0097993005,-0.0053618869999999,-0.00274016545,-0.0148016565,-1.2960470000000002,-0.018548685,65400.0,28568.0,30110.0,1.0,12.0,-46.0,0,None
2023-01-04 10:44:10.700,192.523,0.099999999999999,67.0,1368.0,22451.0,4871.0,98.0,1358.1666666666667,228.16666666666663,4879.0,148.37481666666667,0.8379789499999998,0.00220219,-0.0062763326666666,-1.308252,65.39666666666666,0.0095653186666666,-0.0014352652666666,-1.2982583333333333,0.3971138833333333,1.02176165,4.5603066666666665,-0.8333333333333334,7.5,48.5,-28.0,7.333333333333333,234.16666666666663,-1063.5,-2.333333333333333,306.3333333333333,1013.9183333333334,-4.011405833333333,3169.333333333333,0.0095653186666666,0.01728936,-0.0014352652666666,0.007253163,-1.2982583333333333,-0.0052225116666666,65380.0,28550.0,30090.0,1.0,11.0,-47.0,0,None
2023-01-04 10:44:11.250,193.093,0.1079999999999983,67.0,1390.0,22469.0,4885.0,98.0,1367.6,230.4,4884.0,148.41158,0.8391675,0.0080995803333333,-0.003690474,-1.3109313333333332,65.35000000000001,0.0148475133333333,0.0003956395333333,-1.3023706666666666,0.3282806,1.06338092,5.0842906,-10.4,9.6,49.8,-11.3,14.6,228.0,-1063.2,-12.7,304.8,1013.9199,-4.0097577,3171.5,0.0148475133333333,0.0014402549999999,0.0003956395333333,0.0088867959999999,-1.3023706666666666,0.003191688,65330.0,28536.0,30040.0,0.0,12.0,-45.0,0,None
2023-01-04 10:44:11.800,193.609,0.0999999999999999,67.0,1367.0,22468.0,4872.0,98.0,1374.6,232.6,4877.4,148.44371999999998,0.84023906,0.0099410124999999,0.0003431055,-1.312002,65.315,0.016461015,0.004732037,-1.3037315,0.41889436,1.0693694,4.7595738,-9.0,20.4,47.6,-28.0,0.0,238.2,-1081.6,-6.0,307.0,1013.9308,-3.9988592,3173.4,0.016461015,0.0028588285,0.004732037,0.0148451115,-1.3037315,-0.024821395,65310.0,28528.0,30020.0,0.0,16.0,-44.0,0,None
2023-01-04 10:44:12.350,194.129,0.104000000000002,67.0,1385.0,22484.0,4883.0,98.0,1369.4,234.6,4882.4,148.45922,0.84139394,0.0060640813333333,0.003555123,-1.3138286666666663,65.28333333333332,0.0125517969999999,0.008037349,-1.306103,0.3772570999999999,0.98874046,4.8151178,-5.4,-2.6,43.2,-4.6,-8.0,237.4,-1055.8,5.4,307.4,1013.9348,-3.9948282,3175.6,0.0125517969999999,-9.855566666666649e-05,0.008037349,0.003031975,-1.306103,-0.00128676,65270.0,28510.0,29980.0,3.0,20.0,-45.0,0,None
2023-01-04 10:44:12.900,194.70633333333333,0.1066666666666691,67.0,1350.0,22459.0,4872.0,98.0,1361.0,236.66666666666663,4890.0,148.43875,0.8424764000000001,-0.0012895033333333,0.0023542476666666,-1.314506,65.25333333333333,0.0051840366666666,0.006704146,-1.307161,0.3565019333333333,0.9798108666666666,4.788335833333333,-13.666666666666666,5.333333333333333,47.833333333333336,-7.333333333333333,-4.0,243.5,-1062.3333333333333,-2.6666666666666665,310.1666666666667,1013.9250000000002,-4.0045571666666655,3176.833333333333,0.0051840366666666,-0.0031799933333333,0.006704146,0.0018825433333333,-1.307161,-0.0135641583333333,65250.0,28511.0,29960.0,5.0,20.0,-45.0,0,None
2023-01-04 10:44:13.450,195.29720000000003,0.1079999999999983,67.0,1386.0,22484.0,4887.0,98.0,1361.8,239.0,4883.0,148.39862,0.8431780999999999,-0.004263925,0.0005216344999999,-1.3140014999999998,65.24,0.0027606395,0.0052932795,-1.3064095,0.39169336,1.04630154,4.4911218,-15.6,3.8,47.0,-24.9,7.6,238.0,-1069.2,-1.2,310.7,1013.9151,-4.0145001,3179.3,0.0027606395,0.001094395,0.0052932795,0.006669234,-1.3064095,-0.01761578,65240.0,28514.0,29950.0,7.0,17.0,-42.0,0,None
2023-01-04 10:44:14.000,195.817,0.1039999999999963,67.0,1352.5,22474.5,4880.5,98.0,1361.8,241.0,4882.8,148.35345999999998,0.8433997200000001,0.0013357972,-0.000774911,-1.3161493333333334,65.20666333333334,0.0089257163333333,0.003310915,-1.3095053333333333,0.366219,0.9968588,4.0146976,-11.6,-6.6,48.2,-3.4,9.8,236.4,-1072.6,2.8,309.8,1013.9238,-4.0059528,3180.8,0.0089257163333333,0.0177224366666666,0.003310915,-0.0030284573333333,-1.3095053333333333,0.0050206966666666,65210.0,28498.0,29920.0,8.0,16.0,-45.0,0,None
2023-01-04 10:44:14.550,196.341,0.104000000000002,67.0,1344.0,22475.0,4871.0,98.0,1358.6,242.8,4875.2,148.30464,0.84317572,-0.002583071,-0.0022089049999999,-1.312042,65.184995,0.0042257775,0.0017502335,-1.305907,0.38557838,0.96035338,3.9286656,-11.4,-2.6,52.8,6.4,-6.4,241.2,-1085.4,17.4,315.4,1013.921,-4.008452799999999,3182.6,0.0042257775,-0.0080383835,0.0017502335,-0.0098022185,-1.305907,0.01550844,65190.0,28519.0,29900.0,7.0,16.0,-43.0,0,None
2023-01-04 10:44:15.100,196.913,0.103333333333334,67.0,1367.0,22459.0,4888.0,98.0,1358.6666666666667,244.8333333333333,4885.166666666667,148.2803,0.8426629166666668,-0.0056677583333333,-0.0027820926666666,-1.3024763333333331,65.16,0.0013624718333333,0.000541504,-1.296593,0.2869900999999999,0.9715210666666666,3.752115,-3.8333333333333335,11.0,51.16666666666666,-28.0,7.5,232.16666666666663,-1039.3333333333333,5.666666666666667,295.6666666666667,1013.9256666666668,-4.0042056666666666,3184.6666666666665,0.0013624718333333,0.0186636183333333,0.000541504,0.0075695453333333,-1.296593,0.0073914966666666,65160.0,28573.0,29870.0,8.0,11.0,-46.0,0,None
2023-01-04 10:44:15.650,197.517,0.1079999999999983,67.0,1338.0,22477.0,4871.0,98.0,1356.6,247.2,4883.2,148.28776,0.84182554,0.005204704,0.0022363666666666,-1.2962136666666666,65.12666666666667,0.0120887516666666,0.0066432976666666,-1.2910236666666666,0.3335730799999999,1.277785,3.480083,-12.3,11.9,51.9,-51.1,32.6,236.4,-1065.6,-6.4,308.7,1013.9345,-3.9951017,3187.0,0.0120887516666666,0.0240973166666666,0.0066432976666666,0.0038641883333333,-1.2910236666666666,0.0328292366666666,65130.0,28600.0,29840.0,11.0,7.0,-45.0,0,None
2023-01-04 10:44:16.200,198.025,0.104000000000002,66.0,1377.0,22452.0,4877.0,98.0,1359.0,249.4,4878.0,148.31996,0.84068558,0.01506653,-0.0075776555,-1.3009595,65.095,0.02165385,-0.003520587,-1.2962335,0.42208804,0.8053794999999999,4.6960612,-12.4,-35.4,49.8,-7.6,29.6,249.8,-1066.8,-24.6,329.0,1013.9244,-4.0052498,3188.8,0.02165385,0.02044237,-0.003520587,-0.04123907,-1.2962335,-0.027186175,65100.0,28592.0,29810.0,13.0,9.0,-44.0,0,None
2023-01-04 10:44:16.750,198.545,0.1039999999999963,66.0,1341.0,22462.0,4874.0,98.0,1351.4,251.2,4873.6,148.3295,0.83970612,0.01882593,-0.0117921016666666,-1.313486333333333,65.07,0.02563036,-0.0072034803333333,-1.3093163333333333,0.33162254,1.06589842,4.3892258,-0.8,31.6,44.2,-14.8,-2.8,236.4,-1074.6,-0.6,315.8,1013.93025,-3.999414,3190.25,0.02563036,-0.0036157153333333,-0.0072034803333333,0.0278783799999999,-1.3093163333333333,-0.0273915566666666,65070.0,28502.0,29780.0,6.0,15.0,-44.0,0,None
2023-01-04 10:44:17.300,199.11633333333336,0.103333333333334,66.0,1370.0,22454.0,4887.0,98.0,1380.8333333333333,253.16666666666663,4885.833333333333,148.30418333333336,0.8394197,0.0135631133333333,0.0029656393333333,-1.3174713333333332,65.02666666666666,0.02050062,0.0071342243333333,-1.3137596666666669,0.3916367,0.9445302166666668,4.068793166666667,-11.666666666666666,10.0,40.333333333333336,-11.833333333333334,-14.0,231.3333333333333,-1072.0,-13.0,298.1666666666667,1013.938,-3.9917186666666673,3192.0,0.02050062,-0.016668073,0.0071342243333333,0.0017538399999999,-1.3137596666666669,0.002427448,65040.0,28480.0,29750.0,3.0,22.0,-46.0,0,None
