00000_Time_epoch,00000_Time_boot_sec,00000_Span_Time_boot_sec,1_battery_remaining_avg,1_current_battery_avg,1_voltage_battery_avg,125_Vcc_avg,147_battery_remaining_avg,147_current_battery_avg,147_current_consumed_avg,165_Vcc_avg,168_direction_avg,168_speed_avg,178_pitch_avg,178_roll_avg,178_yaw_avg,182_altitude_avg,182_pitch_avg,182_roll_avg,182_yaw_avg,241_vibration_x_avg,241_vibration_y_avg,241_vibration_z_avg,27_xacc_avg,27_xgyro_avg,27_xmag_avg,27_yacc_avg,27_ygyro_avg,27_ymag_avg,27_zacc_avg,27_zgyro_avg,27_zmag_avg,29_press_abs_avg,29_press_diff_avg,29_temperature_avg,30_pitch_avg,30_pitchspeed_avg,30_roll_avg,30_rollspeed_avg,30_yaw_avg,30_yawspeed_avg,33_alt_avg,33_hdg_avg,33_relative_alt_avg,33_vx_avg,33_vy_avg,33_vz_avg,label,diagnosis
2023-01-03 16:41:55.550,312.364,0.5,83.0,90.0,23313.0,4882.0,99.0,94.0,76.0,4887.0,-144.6551,0.1938362,-0.003737933,-0.01620379,-1.16426,24.630000000000003,0.0030811049999999,-0.01131667,-1.1846835,0.02470459,0.02644953,0.03593896,-14.0,5.0,91.0,1.0,5.0,255.0,-1064.0,0.0,338.0,1019.386,-0.00765625,3402.0,0.0030811049999999,0.0059648925,-0.01131667,0.0056257385,-1.1846835,-0.0004946476,24620.0,29213.0,-100.0,1.0,13.0,-29.0,0,None
2023-01-03 16:41:56.100,312.864,0.5,83.0,85.0,23309.0,4882.0,99.0,86.0,76.0,4879.0,-144.5605,0.1969102,-0.0040117846666666,-0.0160024066666666,-1.1642363333333332,24.58,0.003108634,-0.0114263399999999,-1.1847213333333333,0.02766404,0.02672248,0.03752442,-15.0,4.0,91.0,2.0,6.0,254.0,-1064.0,0.0,341.0,1019.395,0.001328125,3403.0,0.003108634,0.0060850783333333,-0.0114263399999999,0.00417819,-1.1847213333333333,5.034700000000001e-05,24570.0,29212.0,-150.0,0.0,13.0,-30.0,0,None
2023-01-03 16:41:56.650,313.364,0.5,83.0,93.0,23261.0,4874.0,99.0,88.0,76.0,4888.0,-144.4611,0.2126996,-0.003770769,-0.0160340949999999,-1.1642755,24.53,0.003096242,-0.011578515,-1.184752,0.02607763,0.02290998,0.03801658,-16.0,4.0,89.0,1.0,6.0,255.0,-1064.0,0.0,339.0,1019.422,0.0284375,3403.0,0.003096242,0.0061726495,-0.011578515,0.004539767,-1.184752,0.0002097898,24520.0,29212.0,-200.0,-1.0,13.0,-30.0,0,None
2023-01-03 16:41:57.200,313.864,0.5,83.0,249.0,23253.0,4888.0,99.0,91.0,76.0,4890.0,-144.2222,0.2423408,-0.003905893,-0.0158564766666666,-1.163965666666667,24.5,0.0031036656666666,-0.01151768,-1.1845123333333334,0.1911703,0.1400333,2.529547,5.0,5.0,97.0,-6.0,4.0,254.0,-1060.0,-10.0,331.0,1019.395,0.00140625,3404.0,0.0031036656666666,0.0127868816666666,-0.01151768,0.0055242513333333,-1.1845123333333334,-0.0043316543333333,24500.0,29215.0,-220.0,-2.0,12.0,-29.0,0,None
2023-01-03 16:41:57.750,314.364,0.5,83.0,130.0,23278.0,4875.0,99.0,133.0,77.0,4890.0,-144.0516,0.2642845,-0.0036186409999999,-0.016055895,-1.1641945,24.48,0.003127766,-0.0114787249999999,-1.1854445,0.1974919,0.135732,0.8923517,8.0,17.0,96.0,10.0,-7.0,248.0,-1067.0,33.0,339.0,1019.445,0.05171875,3405.0,0.003127766,0.009538483,-0.0114787249999999,0.0039090984999999,-1.1854445,-0.04398177,24480.0,29209.0,-240.0,-2.0,12.0,-29.0,0,None
2023-01-03 16:41:58.300,314.864,0.5,83.0,128.0,23259.0,4891.0,99.0,136.0,77.0,4890.0,-143.8526,0.3011225,-0.0040395756666666,-0.0155436799999999,-1.1626586666666665,24.46333333333333,0.0030493636666666,-0.01113529,-1.1847473333333334,0.2156224,0.1582578,0.9920536,-19.0,14.0,95.0,-1.0,-1.0,246.0,-1063.0,-31.0,335.0,1019.432,0.03890625,3405.0,0.0030493636666666,0.0039263786666666,-0.01113529,0.0072998216666666,-1.1847473333333334,0.0128942166666666,24470.0,29214.0,-250.0,-2.0,12.0,-30.0,0,None
2023-01-03 16:41:58.850,315.384,0.5200000000000387,83.0,132.0,23263.0,4871.0,99.0,131.0,77.0,4893.0,-143.7172,0.3265397,-0.004273048,-0.015971615,-1.162074,24.44,0.003053757,-0.01090955,-1.1848109999999998,0.162302,0.1177333,0.7491154,-35.0,9.0,94.0,10.0,0.0,249.0,-1083.0,17.0,337.0,1019.43,0.03679688,3406.0,0.003053757,0.004404979,-0.01090955,0.0075271685,-1.1848109999999998,-0.009681152,24440.0,29213.0,-280.0,-1.0,10.0,-28.0,0,None
2023-01-03 16:41:59.400,315.924,0.5399999999999636,83.0,1800.0,22818.0,4883.0,99.0,1196.0,77.0,4890.0,-143.56,0.3659132,0.015266085,-0.0044359933333333,-1.1608593333333337,24.456666666666667,0.0214508053333333,0.000775608,-1.1830343333333333,1.059401,0.4724462,4.373366,-8.0,47.0,85.0,-10.0,85.0,254.0,-1266.0,-22.0,311.0,1019.669,0.2753125,3406.0,0.0214508053333333,0.0566593176666666,0.000775608,0.05260745,-1.1830343333333333,0.0091850819999999,24520.0,29234.0,-200.0,-4.0,15.0,28.0,0,None
2023-01-03 16:41:59.950,316.444,0.5200000000000387,82.0,1729.0,22819.0,4874.0,99.0,1615.0,80.0,4879.0,-143.3864,0.3890618,0.026254215,0.017129935,-1.1549935,24.85,0.032420855,0.022928515,-1.1762375,0.5276998,0.9265406,4.265981,-25.0,75.0,77.0,-3.0,-4.0,247.0,-1238.0,8.0,292.0,1019.602,0.2084375,3407.0,0.032420855,-0.0480910125,0.022928515,0.0373627099999999,-1.1762375,-0.006421445,25130.0,29267.0,410.0,0.0,33.0,125.0,0,None
2023-01-03 16:42:00.500,316.984,0.5399999999999636,82.0,1819.0,22791.0,4883.0,99.0,1776.0,83.0,4890.0,-142.8775,0.4093345,-0.0146474944,0.004573913,-1.1627163333333332,25.85333333333333,-0.0084985283333333,0.0109504036666666,-1.1827553333333334,0.305737,0.8777043,2.391875,-13.0,-43.0,76.0,-64.0,-61.0,266.0,-1237.0,-15.0,283.0,1019.295,-0.098125,3407.0,-0.0084985283333333,-0.05350904,0.0109504036666666,-0.0200484206666666,-1.1827553333333334,-0.019357039,26320.0,29201.0,1600.0,7.0,30.0,214.0,0,None
2023-01-03 16:42:01.050,317.524,0.5400000000000205,81.0,1866.0,22764.0,4887.0,99.0,1775.0,85.0,4888.0,-142.1894,0.4208131,-0.0323360166666666,-0.0053317586666666,-1.171076,27.666666666666668,-0.0246126566666666,0.0009349777666666,-1.2171543333333334,0.4183771,1.283176,2.671891,-1.0,19.0,71.0,1.0,17.0,230.0,-1216.0,15.0,242.0,1019.175,-0.218125,3408.0,-0.0246126566666666,0.02375238,0.0009349777666666,0.0344735533333333,-1.2171543333333334,0.003364122,27910.0,29177.0,3190.0,12.0,10.0,275.0,0,None
2023-01-03 16:42:01.600,318.3245,0.5300000000000011,80.5,1456.0,22829.5,4886.25,99.0,1677.0,89.0,4881.0,-138.76515,0.4382289,-0.0046353481666666,-0.0030513388583333,-1.1732947500000002,30.275,0.0026646808333333,0.0031711463333333,-1.27230525,0.3346975,0.9023269,2.475475,-13.75,6.25,77.0,-24.0,24.0,241.75,-990.0,-23.25,290.5,1018.76075,-0.632968725,3410.25,0.0026646808333333,0.0256424963333333,0.0031711463333333,0.01753094575,-1.27230525,0.0023469858333333,30535.0,28707.5,5815.0,13.5,-3.0,302.5,0,None
2023-01-03 16:42:02.150,319.124,0.5400000000000205,80.0,1094.0,22905.0,4874.0,99.0,1235.0,92.0,4883.0,-134.752,0.4571176,0.0033279575,-0.0088573465,-1.177409,32.685,0.0113625899999999,-0.0023774245,-1.274018,0.4176604,1.187224,1.586435,20.0,-98.0,84.0,-45.0,-73.0,260.0,-875.0,58.0,342.0,1018.442,-0.9516406,3410.0,0.0113625899999999,-0.027081225,-0.0023774245,-0.0693723149999999,-1.274018,0.04845982,32880.0,28719.0,8160.0,17.0,-4.0,199.0,0,None
2023-01-03 16:42:02.700,319.644,0.5199999999999818,80.0,1159.0,22844.0,4883.0,99.0,1038.0,94.0,4875.0,-133.6143,0.468633,-0.0009661783333333,-0.0241160966666666,-1.163493,33.60333333333333,0.0066279213333333,-0.0161117383333333,-1.2590463333333333,0.7834933,0.7618441,3.017338,-27.0,72.0,78.0,-6.0,17.0,238.0,-934.0,12.0,291.0,1018.379,-1.014453,3412.0,0.0066279213333333,0.0443430766666666,-0.0161117383333333,0.0073956929999999,-1.2590463333333333,0.0089231933333333,33710.0,28782.0,8990.0,8.0,-13.0,94.0,0,None
2023-01-03 16:42:03.250,320.184,0.5400000000000205,79.0,1154.0,22882.0,4875.0,99.0,1204.0,96.0,4883.0,-133.9015,0.4935902,0.0245750299999999,-0.004282648,-1.1574575,34.065,0.03198533,0.0048620685,-1.2523235,0.6485259,0.6467396,1.413981,12.0,60.0,78.0,-5.0,79.0,255.0,-973.0,-3.0,310.0,1018.302,-1.091484,3412.0,0.03198533,0.05670595,0.0048620685,0.0549668549999999,-1.2523235,0.0108352655,34110.0,28824.0,9390.0,-1.0,-15.0,40.0,0,None
2023-01-03 16:42:03.800,320.704,0.5199999999999818,79.0,1157.0,22897.0,4883.0,99.0,1182.0,97.0,4877.0,-135.1857,0.5166291,0.0323194133333333,0.0223952333333333,-1.1590386666666666,34.32,0.0394132466666666,0.0305334066666666,-1.253164,0.6353678,0.739753,3.876555,16.0,17.0,73.0,-62.0,-35.0,256.0,-1008.0,-25.0,300.0,1018.269,-1.124609,3413.0,0.0394132466666666,-0.0003039733333333,0.0305334066666666,0.0620070266666666,-1.253164,-0.0043054833333333,34360.0,28822.0,9640.0,-2.0,-7.0,11.0,0,None
2023-01-03 16:42:04.350,321.245,0.5409999999999968,79.0,1225.0,22902.0,4877.0,99.0,1225.0,99.0,4882.0,-136.393,0.5261346,0.03541619,0.036245485,-1.1563075,34.49,0.04428264,0.044750765,-1.2488484999999998,0.3010466,1.111711,2.655147,23.0,2.0,76.0,6.0,43.0,246.0,-1027.0,7.0,300.0,1018.237,-1.156953,3414.0,0.0436234749999999,0.0118860432499999,0.044118985,0.0228619649999999,-1.2486605,-0.0026121949999999,34510.0,28850.0,9790.0,5.0,-1.0,-1.0,0,None
2023-01-03 16:42:04.900,321.765,0.5199999999999818,79.0,1244.0,22860.0,4880.0,99.0,1265.0,101.0,4893.0,-138.4773,0.5257754,0.0336753299999999,0.0304331466666666,-1.1591349999999998,34.6,0.0420702666666666,0.0394977366666666,-1.2514263333333335,0.3014094,0.9345676,2.760833,12.0,-19.0,68.0,-78.0,-17.0,268.0,-1050.0,-15.0,296.0,1018.241,-1.152734,3415.0,0.0420702666666666,-0.032835631,0.0394977366666666,-0.0426065433333333,-1.2514263333333335,-1.4377000000000605e-05,34620.0,28834.0,9900.0,13.0,7.0,-9.0,0,None
2023-01-03 16:42:05.450,322.305,0.5400000000000205,78.0,1261.0,22870.0,4871.0,99.0,1222.0,103.0,4890.0,-141.1306,0.5126151,0.039425,0.0211508866666666,-1.1745910000000002,34.67666666666667,0.0481963533333333,0.0299669566666666,-1.2655656666666666,0.3799697,0.8798642,5.748073,25.0,5.0,71.0,21.0,34.0,268.0,-1009.0,-34.0,315.0,1018.234,-1.159531,3415.0,0.0481963533333333,0.02246238,0.0299669566666666,0.0073157529999999,-1.2655656666666666,-0.0448750433333333,34680.0,28756.0,9960.0,17.0,10.0,-17.0,0,None
2023-01-03 16:42:06.000,322.785,0.4800000000000182,78.0,1221.0,22843.0,4890.0,99.0,1254.0,105.0,4890.0,-143.3207,0.4984977,0.05295832,0.0085245915,-1.1910690000000002,34.72,0.06075374,0.017274455,-1.2807475,0.2522067,1.258971,8.253695,14.0,33.0,62.0,-28.0,9.0,252.0,-1031.0,-25.0,284.0,1018.22,-1.173125,3416.0,0.06075374,0.036519465,0.017274455,0.0307397399999999,-1.2807475,-0.03619754,34720.0,28662.0,10000.0,14.0,17.0,-21.0,0,None
2023-01-03 16:42:06.550,323.306,0.5209999999999582,78.0,1449.0,22806.0,4880.0,99.0,1236.0,106.0,4890.0,-147.6397,0.473677,-0.03677899,0.01868227,-1.187255333333333,34.766666666666666,-0.0289036766666666,0.0272757733333333,-1.276253,0.4082811,1.21455,6.711751,29.0,28.0,58.0,-33.0,-555.0,256.0,-1140.0,58.0,295.0,1018.196,-1.197812,3416.0,-0.0289036766666666,-0.34604938,0.0272757733333333,0.0073064366666666,-1.276253,0.0543486266666666,34760.0,28673.0,10040.0,13.0,24.0,-16.0,0,None
2023-01-03 16:42:07.100,323.786,0.4800000000000182,78.0,1723.0,22723.0,4851.0,99.0,1397.0,108.0,4890.0,-151.3281,0.4587874,-0.1864205,0.0003853095,-1.1622705,35.04,-0.1764923,0.0081917265,-1.250609,0.5163919,0.9963312,9.039922,8.0,-19.0,131.0,-73.0,-52.0,241.0,-1262.0,17.0,259.0,1018.214,-1.179531,3417.0,-0.1764923,-0.02940392,0.0081917265,-0.019519544,-1.250609,0.037342989,35050.0,28835.0,10330.0,35.0,-54.0,35.0,0,None
2023-01-03 16:42:07.650,324.307,0.521000000000015,77.0,1582.0,22774.0,4877.0,99.0,1826.0,110.0,4890.0,-158.5453,0.4378647,-0.1618667,0.007570782,-1.1589993333333333,35.776666666666664,-0.1523643666666666,0.0156466266666666,-1.2462043333333332,0.4402553,0.7208034,3.41232,-14.0,11.0,125.0,-39.0,152.0,229.0,-1158.0,-51.0,244.0,1018.15,-1.243828,3418.0,-0.1523643666666666,0.10797121,0.0156466266666666,0.031885299,-1.2462043333333332,0.0030635875666666,35710.0,28865.0,10990.0,64.0,-164.0,108.0,0,None
2023-01-03 16:42:08.200,324.827,0.5199999999999818,77.0,1411.0,22781.0,4874.0,99.0,1482.0,113.0,4883.0,-163.8374,0.4268216,-0.12494655,0.0132879075,-1.1681935,36.7,-0.11788265,0.021340505,-1.2543905,0.4915903,0.9081331,6.379986,-9.0,-16.0,136.0,-1.0,41.0,267.0,-1052.0,-19.0,305.0,1018.061,-1.332187,3419.0,-0.11788265,0.0234012519999999,0.021340505,-0.0247763349999999,-1.2543905,-0.0399118549999999,36680.0,28812.0,11960.0,92.0,-242.0,133.0,0,None
2023-01-03 16:42:08.750,325.347,0.5199999999999818,77.0,1415.0,22802.0,4877.0,99.0,1499.0,115.0,4888.0,-171.9903,0.4144674,-0.1294366333333333,-0.0003012293666666,-1.1713656666666667,37.61666666666667,-0.1232512666666666,0.0091914559999999,-1.257094333333333,0.5167503,1.030576,6.49737,-26.0,14.0,111.0,-80.0,20.0,259.0,-1074.0,-27.0,291.0,1017.944,-1.449687,3420.0,-0.1232512666666666,-0.0163496433333333,0.0091914559999999,-0.0144654023333333,-1.257094333333333,0.0153760196666666,37550.0,28794.0,12830.0,109.0,-302.0,130.0,0,None
2023-01-03 16:42:09.300,325.847,0.5,77.0,1353.0,22785.0,4877.0,99.0,1439.0,117.0,4890.0,-177.3858,0.4097795,-0.151189,0.00016377865,-1.175344,38.485,-0.145675,0.0099969105,-1.259967,0.425856,1.376374,2.78741,-41.0,-2.0,126.0,-57.0,-49.0,248.0,-1075.0,-28.0,289.0,1017.862,-1.531562,3420.0,-0.145675,-0.04557725,0.0099969105,0.0052444554999999,-1.259967,-0.0076995004999999,38440.0,28784.0,13720.0,126.0,-364.0,129.0,0,None
2023-01-03 16:42:09.850,326.367,0.5200000000000387,77.0,1362.0,22758.0,4890.0,99.0,1453.0,119.0,4893.0,174.8649,0.406248,-0.1612106,-0.0064951276666666,-1.1849616666666665,39.376666666666665,-0.1559798666666666,0.0047692183333333,-1.2690156666666668,0.4719887,1.078425,4.039998,-44.0,-11.0,132.0,-68.0,-50.0,268.0,-1140.0,-20.0,327.0,1017.806,-1.587969,3421.0,-0.1559798666666666,0.012508964,0.0047692183333333,-0.0066084823333333,-1.2690156666666668,0.0015235033333333,39350.0,28721.0,14630.0,144.0,-434.0,129.0,0,None
2023-01-03 16:42:10.400,327.127,0.5099999999999909,76.0,1315.0,22787.0,4885.0,99.0,1407.0,122.0,4894.5,165.159,0.40490305,-0.1582188416666666,0.0025143528083333,-1.1806743333333336,40.6575,-0.1538908749999999,0.0158159855,-1.26556925,0.49886615,0.9355708,4.4743815,-53.5,26.5,138.0,-25.0,77.5,249.5,-990.0,4.5,292.0,1017.6445,-1.74875,3421.5,-0.1538908749999999,-0.00269312625,0.0158159855,0.0112021658333333,-1.26556925,0.0100458903333333,40630.0,28744.5,15910.0,168.0,-528.5,133.0,0,None
2023-01-03 16:42:10.950,327.907,0.5199999999999818,76.0,1254.0,22793.0,4883.0,99.0,1055.0,125.0,4890.0,156.3663,0.408372,-0.1640943,-0.008469701,-1.1721115000000002,41.915,-0.16070985,0.005379519,-1.256229,0.4779385,1.27675,6.388411,-57.0,-84.0,141.0,-35.0,4.0,242.0,-1060.0,-27.0,272.0,1017.616,-1.777266,3423.0,-0.16070985,0.019176414,0.005379519,-0.06389495,-1.256229,-0.02164815,41880.0,28809.0,17160.0,202.0,-604.0,131.0,0,None
2023-01-03 16:42:11.500,328.427,0.5200000000000387,76.0,1440.0,22759.0,4858.0,99.0,1392.0,127.0,4875.0,152.2911,0.4118633,-0.1619161,-0.0218504,-1.1863850000000002,42.71666666666667,-0.1581438666666667,-0.006687568,-1.269929,0.5196646,0.7117763,7.664257,-83.0,8.0,141.0,-16.0,-2.0,248.0,-1218.0,-24.0,332.0,1017.397,-1.996719,3424.0,-0.1581438666666667,0.0627066026666666,-0.006687568,-0.0292136496666666,-1.269929,-0.0228528434,42690.0,28724.0,17970.0,212.0,-663.0,141.0,0,None
2023-01-03 16:42:12.050,328.947,0.5199999999999818,76.0,1215.0,22803.0,4888.0,99.0,1349.0,129.0,4893.0,146.5093,0.4187441,-0.1431003,-0.0057503195,-1.181838,43.625,-0.14022075,0.010444953,-1.2653115,0.6287841,0.9116921,5.71231,-83.0,165.0,120.0,-13.0,29.0,237.0,-1045.0,62.0,291.0,1017.371,-2.022891,3424.0,-0.14022075,0.072810195,0.010444953,0.022735645,-1.2653115,0.0187569364999999,43590.0,28758.0,18870.0,226.0,-707.0,143.0,0,None
2023-01-03 16:42:12.600,329.487,0.5400000000000205,75.0,1131.0,22817.0,4877.0,99.0,1309.0,130.0,4883.0,141.1807,0.4279843,-0.1267514666666666,-0.0210088233333333,-1.188679,44.52666666666667,-0.1239228666666666,-0.0041195983333333,-1.2727389999999998,0.5873848,1.00086,7.207945,-75.0,-76.0,132.0,-22.0,-27.0,276.0,-1049.0,-37.0,304.0,1017.3,-2.093203,3425.0,-0.1239228666666666,0.0146407733333333,-0.0041195983333333,-0.009034107,-1.2727389999999998,-0.0014360137333333,44500.0,28701.0,19780.0,239.0,-735.0,141.0,0,None
2023-01-03 16:42:13.150,329.987,0.5,75.0,1227.0,22790.0,4890.0,99.0,1180.0,132.0,4885.0,137.8979,0.435985,-0.12321485,-0.02471311,-1.188959,45.39,-0.1205807499999999,-0.006526537,-1.2735035,0.6979868,0.9126814,8.960459,-108.0,70.0,115.0,-34.0,11.0,229.0,-1100.0,5.0,288.0,1017.224,-2.169453,3426.0,-0.1205807499999999,0.0633092215,-0.006526537,-0.01250605,-1.2735035,0.00849414,45350.0,28707.0,20630.0,245.0,-757.0,145.0,0,None
2023-01-03 16:42:13.700,330.508,0.5209999999999582,75.0,1198.0,22794.0,4874.0,99.0,1116.0,134.0,4883.0,133.4434,0.4515409,-0.1381861333333333,-0.0363119466666666,-1.1956466666666663,46.25666666666667,-0.1353029,-0.0190789133333333,-1.280099,0.6699808,1.279034,10.38103,-70.0,44.0,124.0,-37.0,8.0,242.0,-957.0,-30.0,311.0,1017.093,-2.30039,3427.0,-0.1353029,0.0169459503333333,-0.0190789133333333,0.03849626,-1.280099,-0.031969865,46230.0,28657.0,21510.0,243.0,-783.0,141.0,0,None
2023-01-03 16:42:14.250,331.028,0.5200000000000387,75.0,1278.0,22781.0,4864.0,99.0,1278.0,136.0,4880.0,130.5157,0.4634943,-0.1234184999999999,-0.02815558,-1.1949715,47.115,-0.1205788999999999,-0.0096510515,-1.279621,0.720297,1.146622,6.021878,-82.0,-31.0,128.0,-33.0,114.0,235.0,-1062.0,-25.0,303.0,1016.967,-2.426641,3428.0,-0.1205788999999999,-0.05658107,-0.0096510515,0.046390955,-1.279621,0.01752309,47090.0,28670.0,22370.0,234.0,-820.0,140.0,0,None
2023-01-03 16:42:14.800,331.568,0.5399999999999636,75.0,1417.5,22749.0,4875.5,99.0,1481.0,138.0,4880.0,126.3068,0.4871913,-0.0954045366666666,0.0127940303333333,-1.1966646666666667,47.946666666666665,-0.0922728833333333,0.0294062066666666,-1.2806430000000002,0.6069413,0.8262126,6.37598,-89.0,74.0,112.5,-34.5,104.0,238.0,-1045.0,-7.5,262.5,1016.7625,-2.6311325,3428.5,-0.0927971833333333,0.1032927733333333,0.0290356533333333,0.0711868333333333,-1.2805416666666667,0.0063120586666666,47900.0,28659.0,23180.0,229.0,-848.0,133.0,0,None
2023-01-03 16:42:15.350,332.068,0.5,75.0,1190.0,22800.0,4880.0,99.0,1354.0,140.0,4882.0,122.2855,0.5177725,-0.02716617,0.0389344033333333,-1.190719,49.02,-0.0250415733333333,0.0533480066666666,-1.274783,0.5802907,0.9550411,3.610858,-55.0,-59.0,95.0,-26.0,199.0,245.0,-1098.0,-23.0,253.0,1016.659,-2.733984,3429.0,-0.0250415733333333,0.1677211233333333,0.0533480066666666,0.0109998976666666,-1.274783,-0.0104969566666666,48810.0,28693.0,24090.0,242.0,-848.0,134.0,0,None
2023-01-03 16:42:15.900,332.718,0.2000000000000028,75.0,1192.0,22812.0,4883.0,99.0,1210.25,142.75,4888.5,118.137675,0.5663517,0.0619263916666666,0.0363860116666666,-1.190011,50.33166666666667,0.0623034633333332,0.0520950283333333,-1.2723678333333333,0.679870325,1.10701755,7.50192025,-82.5,11.5,67.5,-28.75,144.25,256.75,-1093.5,-3.75,307.25,1016.59375,-2.79990225,3430.5,0.0623034633333332,0.1227513716666666,0.0520950283333333,0.0304994831666666,-1.2723678333333333,-0.0092566536666666,50110.0,28706.5,25390.0,243.0,-785.0,132.5,0,None
2023-01-03 16:42:16.450,333.1714,0.0999999999999999,74.0,1167.0,22795.0,4877.0,99.0,1153.6,144.6,4888.2,115.30298,0.60954734,0.12773495,0.04760638,-1.183542,51.155,0.1272568,0.062651945,-1.2633454999999998,0.6875562399999999,0.98921918,7.0198866,-69.8,30.2,46.8,-11.8,64.2,256.2,-1084.4,4.4,303.4,1016.5304,-2.863156,3431.0,0.1272568,0.016687265,0.062651945,0.0112152455,-1.2633454999999998,0.016698175,51280.0,28781.0,26560.0,230.0,-672.0,130.0,0,None
2023-01-03 16:42:17.000,333.7178333333333,0.0998333333333315,74.0,1307.0,22764.0,4877.0,99.0,1258.1666666666667,146.5,4880.666666666667,112.0956,0.6657383666666666,0.1116501466666666,0.04191194,-1.1879510000000002,51.90333333333333,0.1123344199999999,0.0562310066666666,-1.2651316666666668,0.58480185,1.2026641666666666,3.7193458333333336,-53.16666666666666,-17.833333333333332,46.66666666666666,-27.5,-62.0,258.0,-1051.6666666666667,-12.0,320.5,1016.4073333333332,-2.9861066666666667,3432.0,0.1123344199999999,-0.06600072,0.0562310066666666,-0.005396898,-1.2651316666666668,-0.0292850966666666,52030.0,28748.0,27310.0,218.0,-585.0,130.0,0,None
2023-01-03 16:42:17.550,334.27200000000005,0.1002000000000065,74.0,1206.0,22795.0,4887.0,99.0,1275.8,148.4,4888.6,109.29964,0.7212767,0.07314793,0.0356516233333333,-1.1998086666666667,52.84,0.0768633666666666,0.0484741433333333,-1.2725206666666666,0.4978193999999999,1.1499882200000002,5.6078576,-43.2,12.4,57.0,-22.6,-26.6,256.4,-1062.8,-21.4,308.2,1016.2482,-3.1450936,3432.2,0.0768633666666666,-0.0321166166666666,0.0484741433333333,0.0303028266666666,-1.2725206666666666,-0.0189929193333333,52810.0,28706.0,28090.0,204.0,-523.0,127.0,0,None
2023-01-03 16:42:18.100,334.8445,0.103333333333334,74.0,1258.0,22768.0,4870.5,99.0,1292.5,150.5,4890.833333333333,106.972,0.7734562333333334,0.0891795733333333,0.0413944933333333,-1.207267,53.85666666666666,0.0935402966666666,0.0522146066666666,-1.274506666666667,0.56788345,0.9824647166666666,4.2166958333333335,-32.166666666666664,7.166666666666667,48.66666666666666,-25.83333333333333,45.833333333333336,264.3333333333333,-1032.3333333333333,-13.5,300.6666666666667,1016.1186666666669,-3.2748045,3433.0,0.0935402966666666,0.0422037026666666,0.0522146066666666,0.00177039,-1.274506666666667,-0.0165663656666666,53670.0,28703.0,28950.0,194.0,-474.0,122.0,0,None
2023-01-03 16:42:18.650,335.392,0.0999999999999999,74.0,1026.0,22812.0,4883.0,99.0,1114.6,152.6,4888.8,104.898,0.82456826,0.1202197999999999,0.038145025,-1.2098655,54.575,0.12509805,0.04755077,-1.273955,0.54631762,0.92758114,4.876290599999999,-25.8,9.4,43.8,-36.6,69.2,257.4,-979.4,-8.6,317.0,1016.0486,-3.3449374,3434.0,0.12509805,0.083359435,0.04755077,0.02439384,-1.273955,0.0024322895,54440.0,28693.0,29720.0,182.0,-425.0,92.0,0,None
2023-01-03 16:42:19.200,335.93800000000005,0.0999999999999942,74.0,1160.0,22794.0,4866.0,99.0,1053.6666666666667,153.83333333333334,4885.5,102.98393333333335,0.8768832666666665,0.1629233,0.0333020866666666,-1.2065973333333333,54.93,0.1670977333333333,0.04154706,-1.2678376666666666,0.565231,0.9298901833333332,3.377308166666667,-21.166666666666668,-9.5,25.666666666666668,-48.16666666666666,91.5,258.0,-964.6666666666666,-3.1666666666666665,307.3333333333333,1015.9915,-3.4021224999999995,3434.333333333333,0.1670977333333333,0.0912541699999999,0.04154706,-0.0013978896666666,-1.2678376666666666,0.0023984743333333,54910.0,28729.0,30190.0,164.0,-369.0,15.0,0,None
2023-01-03 16:42:19.750,336.5004,0.1042000000000029,74.0,1331.0,22736.0,4887.0,99.0,1276.4,156.0,4886.6,101.26636,0.92825268,0.1823753333333333,0.0381166033333333,-1.203918,54.96,0.1855107666666666,0.04433051,-1.262834,0.43833614,1.03541296,7.341265,-8.4,15.4,14.6,-24.8,-29.0,248.6,-1096.6,0.8,308.4,1015.9768,-3.4165156000000003,3435.0,0.1855107666666666,-0.0448215093333333,0.04433051,0.0360174299999999,-1.262834,-0.0032002859333333,54970.0,28759.0,30250.0,135.0,-292.0,-34.0,0,None
2023-01-03 16:42:20.300,337.01660000000004,0.103800000000001,74.0,1212.0,22775.0,4883.0,99.0,1211.6,157.6,4882.8,99.929404,0.97222244,0.14836375,0.049695705,-1.2106279999999998,54.955,0.15335105,0.05516274,-1.2686895,0.55005162,1.2138354,7.1972182,13.6,29.6,25.8,-49.2,-57.8,259.0,-1107.0,7.6,312.0,1015.967,-3.426578,3436.2,0.15335105,-0.0353742,0.05516274,0.04125624,-1.2686895,-0.032636725,54950.0,28758.0,30230.0,108.0,-205.0,-33.0,0,None
2023-01-03 16:42:20.850,337.5648,0.1081999999999993,74.0,1211.0,22741.0,4893.0,99.0,1204.8,159.4,4880.6,98.478102,1.0251996,0.1528174666666666,0.0556120533333333,-1.2181013333333333,54.99333333333333,0.1602280666666666,0.0600176966666666,-1.275107,0.5680291,1.1932206,5.422466200000001,0.9,7.8,25.2,-51.8,51.1,265.6,-1038.2,-42.5,305.2,1015.9618,-3.431586,3437.0,0.1602280666666666,0.0517389166666666,0.0600176966666666,-0.0059415433333333,-1.275107,-0.0404864833333333,54980.0,28712.0,30260.0,91.0,-139.0,-34.0,0,None
2023-01-03 16:42:21.400,338.119,0.1000000000000037,74.0,1147.0,22771.0,4877.0,98.83333333333331,1184.1666666666667,161.16666666666666,4886.166666666667,97.02571333333331,1.083683333333333,0.1889953666666667,0.0419553433333333,-1.2227506666666663,55.03,0.1954896,0.0448447566666666,-1.2784016666666669,0.4678114666666667,1.07419815,4.231687833333333,38.5,-21.33333333333333,17.333333333333332,-62.66666666666666,61.0,268.8333333333333,-1089.5,-3.5,321.3333333333333,1015.9706666666668,-3.422864666666667,3437.6666666666665,0.1954896,0.0592971233333333,0.0448447566666666,-0.02900936,-1.2784016666666669,0.0004252776666666,55025.0,28675.0,30305.0,68.5,-44.0,-34.0,0,None
2023-01-03 16:42:21.950,338.68500000000006,0.1039999999999963,74.0,1217.0,22759.0,4896.0,98.0,1180.6,163.0,4891.2,95.777336,1.1405162,0.17317995,0.0333756699999999,-1.2273935,55.04,0.17961765,0.03552771,-1.282009,0.48679264,1.02203018,4.6265118,49.6,7.2,11.4,-46.2,-141.8,262.2,-1081.4,-3.2,314.2,1015.974,-3.4195156000000004,3438.2,0.17961765,-0.16114485,0.03552771,0.0084455955,-1.282009,-0.00248014335,55040.0,28644.0,30320.0,33.0,41.0,-31.0,0,None
2023-01-03 16:42:22.500,339.209,0.1079999999999926,73.0,977.0,22825.0,4890.0,98.0,1074.0,164.6,4889.4,94.833328,1.1930002000000002,0.10891024,0.04061824,-1.2366333333333337,55.04666666666666,0.1168443333333333,0.0417891033333333,-1.2908336666666669,0.57011082,1.20214886,5.996867,53.4,28.6,31.8,-39.8,-57.6,259.6,-1052.2,-15.6,313.6,1016.0038,-3.389703,3439.0,0.1168443333333333,-0.0760227966666666,0.0417891033333333,-0.001498551457,-1.2908336666666669,-0.0333246086666666,55040.0,28571.0,30320.0,22.0,65.0,-34.0,0,None
2023-01-03 16:42:23.050,339.779,0.1000000000000037,73.0,1243.0,22763.0,4864.0,98.0,1081.0,166.5,4877.833333333333,93.93294,1.2574783333333337,0.0835344866666666,0.0358720133333333,-1.2483203333333333,55.01,0.0920498566666666,0.0360489533333333,-1.3025276666666668,0.5328359,1.19308085,9.005541333333333,42.0,-9.666666666666666,36.333333333333336,-41.833333333333336,6.666666666666667,261.5,-1100.0,-12.666666666666666,301.3333333333333,1016.0173333333332,-3.3761848333333333,3439.333333333333,0.0920498566666666,-0.0233935633333333,0.0360489533333333,-0.0106821273333333,-1.3025276666666668,-0.0288887966666666,55010.0,28532.0,30290.0,17.0,75.0,-29.0,0,None
2023-01-03 16:42:23.600,340.353,0.108000000000004,73.0,1040.5,22801.0,4866.5,98.0,1047.8,168.2,4874.4,93.156792,1.321312,0.070067115,0.031261285,-1.255908,54.975,0.07809001,0.031002355,-1.3105335,0.4758502,1.10001372,9.0547508,44.0,-27.0,38.8,-41.7,-27.3,261.2,-1070.9,-4.3,314.2,1016.0074,-3.3861093,3440.4,0.07809001,-0.021369655,0.031002355,-0.024580365,-1.3105335,-0.002666084,54970.0,28486.0,30250.0,15.0,79.0,-31.0,0,None
2023-01-03 16:42:24.150,340.85720000000003,0.0999999999999999,73.0,960.0,22833.0,4890.0,98.0,1058.8,169.6,4884.0,92.464288,1.3834382,0.0623914766666666,0.01877783,-1.2541466666666663,54.965,0.067042795,0.01791678,-1.3077345,0.6484176800000001,0.99428834,7.791305600000001,51.6,5.6,39.8,-50.0,7.6,257.4,-1036.2,10.4,314.4,1016.0138,-3.3795156,3441.0,0.0696477866666666,-0.0057086538,0.01906941,0.0028295166666666,-1.308607,0.01417149,54960.0,28506.0,30240.0,7.0,75.0,-31.0,0,None
2023-01-03 16:42:24.700,341.42900000000003,0.103333333333334,73.0,1086.0,22760.0,4882.0,98.0,1023.8333333333334,171.16666666666666,4886.0,91.838765,1.446168,0.0513734066666666,0.02560554,-1.245283,54.96,0.0583367033333333,0.02552467,-1.2998283333333334,0.5948655666666666,1.14885025,8.005208666666666,55.16666666666666,12.333333333333334,50.833333333333336,-46.333333333333336,14.666666666666666,264.3333333333333,-1103.6666666666667,23.83333333333333,318.3333333333333,1016.0528333333332,-3.3405728333333333,3442.0,0.0583367033333333,0.0008612639999999,0.02552467,-0.0105611199999999,-1.2998283333333334,0.0117513466466666,54970.0,28550.0,30250.0,2.0,66.0,-31.0,0,None
2023-01-03 16:42:25.250,341.997,0.1039999999999963,73.0,1075.0,22796.0,4888.0,98.0,1091.6,172.8,4886.2,91.339088,1.5024450000000005,0.053195235,0.02045218,-1.2378195,54.91,0.05948583,0.021168125,-1.291993,0.5242026,1.2208845199999998,8.921686,54.8,-4.0,49.8,-36.8,-3.0,261.8,-1075.2,-7.2,307.8,1016.0428,-3.3506406,3442.6,0.05948583,0.0010809075,0.021168125,-0.005778944,-1.291993,0.03069041,54910.0,28599.0,30190.0,1.0,57.0,-30.0,0,None
2023-01-03 16:42:25.800,342.55916666666667,0.1000000000000037,73.0,1130.0,22783.0,4888.0,98.0,1087.5,174.83333333333334,4885.0,90.88668,1.558427,0.0507134966666666,0.0142872733333333,-1.2362696666666668,54.885000000000005,0.05726448,0.016159705,-1.2901895,0.5670047500000001,1.19438575,7.095309666666668,44.0,9.166666666666666,47.5,-44.0,1.1666666666666667,256.0,-1077.6666666666667,-10.5,313.3333333333333,1016.0515,-3.3422395,3443.1666666666665,0.05628676,-0.0151404933333333,0.0158914333333333,-0.0063190869999999,-1.2897163333333332,0.0147452046666666,54880.0,28610.0,30160.0,-1.0,46.0,-23.0,0,None
2023-01-03 16:42:26.350,343.125,0.1079999999999927,73.0,1106.0,22785.0,4880.0,98.0,1065.0,176.4,4887.8,90.494362,1.6125338,0.0492489333333333,0.01512009,-1.237088,54.873333333333335,0.0548859466666666,0.0181707333333333,-1.289513666666667,0.5570063399999999,1.0929915,8.010434799999999,0.0,3.6,57.0,-57.0,19.8,268.2,-1033.0,-12.6,314.4,1016.0368,-3.3564999,3444.0,0.0548859466666666,0.0247804833333333,0.0181707333333333,0.0035160233333333,-1.289513666666667,0.0068509619999999,54870.0,28610.0,30150.0,-5.0,35.0,-25.0,1,27_xacc_avg_constant_0
2023-01-03 16:42:26.900,343.6812,0.108000000000004,73.0,1118.0,22705.0,4890.0,98.0,1108.4,178.0,4884.4,90.139902,1.6681444,0.0487796866666666,0.0156311,-1.2330096666666666,54.87,0.0537082033333333,0.0197065766666666,-1.2852923333333333,0.55742034,1.13115836,7.0706804000000005,0.0,13.2,47.6,-65.4,-20.8,258.4,-1049.8,-5.2,319.4,1016.0446,-3.3488594,3444.4,0.0537082033333333,-0.0162837333333333,0.0197065766666666,0.01455749,-1.2852923333333333,0.0033604786666666,54880.0,28627.0,30160.0,-9.0,26.0,-23.0,1,27_xacc_avg_constant_0
2023-01-03 16:42:27.450,344.2052,0.1039999999999963,73.0,1065.0,22792.0,4856.0,98.0,1092.4,179.6,4886.8,89.89583,1.7110016,0.04675962,0.02011909,-1.231612,54.87,0.05222573,0.024409075,-1.283349,0.5252033999999999,1.094177,7.6314522,0.0,8.6,59.2,-58.0,15.6,257.0,-1065.4,9.2,312.8,1016.0574,-3.3360625999999995,3445.0,0.05222573,0.0118967444999999,0.024409075,0.013089903,-1.283349,0.0195003525,54870.0,28640.0,30150.0,-11.0,19.0,-23.0,1,27_xacc_avg_constant_0
2023-01-03 16:42:28.000,344.75933333333336,0.1000000000000037,73.0,1076.0,22771.0,4888.0,98.0,1116.8333333333333,181.5,4888.5,89.63618666666666,1.7589756666666665,0.0448483266666666,0.02179456,-1.2317986666666667,54.85999999999999,0.05008449,0.02653079,-1.2840010000000002,0.4659353666666666,1.24856365,7.959606333333333,0.0,13.0,54.5,-47.333333333333336,7.5,250.3333333333333,-1060.0,6.666666666666667,317.3333333333333,1016.0548333333332,-3.338554666666667,3445.6666666666665,0.05064062,0.01463054,0.0271514949999999,-0.0056536995,-1.284126,0.021615415,54855.0,28643.0,30135.0,-9.5,10.5,-22.5,1,27_xacc_avg_constant_0
2023-01-03 16:42:29.100,345.8443333333333,0.1099999999999946,73.0,1117.5,22698.0,4892.0,98.0,1090.5,184.5,4894.333333333333,89.166465,1.8461125,0.0478532599999999,0.0109935935,-1.2274699999999998,54.865,0.0532428,0.017695055,-1.278007,0.4371042833333333,1.1985011166666666,7.250498666666665,0.0,1.8,52.8,-56.6,3.4,260.4,-1094.6,-11.0,316.6,1016.028,-3.3654214,3447.0,0.0534067,0.0468182,0.01776013,0.004883757,-1.2778595,0.0061069535,54865.0,28677.5,30145.0,-8.0,2.0,-24.0,1,27_xacc_avg_constant_0
2023-01-03 16:42:29.650,346.4194,0.1081999999999993,73.0,1099.0,22748.0,4756.0,98.0,1128.6,186.6,4831.4,88.97582799999999,1.8849904,0.0474938833333333,0.0171022433333333,-1.224608,54.88,0.0529014733333333,0.0241224966666666,-1.2754956666666668,0.5362486000000001,1.2018926,7.616091799999999,0.0,22.2,57.2,-62.7,-11.1,256.3,-1067.6,-1.8,320.3,1016.0448,-3.3488281,3447.8,0.0529014733333333,-0.008601489,0.0241224966666666,0.0400067733333333,-1.2754956666666668,-0.0091564313333333,54880.0,28708.0,30160.0,-12.0,-2.0,-25.0,1,27_xacc_avg_constant_0
2023-01-03 16:42:30.200,346.97100000000006,0.103800000000001,73.0,1152.0,22749.0,4900.0,98.0,1113.6,188.0,4868.0,88.818182,1.922264,0.0450909033333333,0.0298692733333333,-1.222671,54.88,0.0512964633333333,0.03741031,-1.273487,0.5111322599999999,1.03926444,6.329898200000001,0.0,14.4,56.8,-49.8,9.8,260.6,-1039.2,-20.0,308.4,1016.0302,-3.3633436000000003,3448.2,0.0512964633333333,0.002393511,0.03741031,0.01549833,-1.273487,-0.02078331,54880.0,28700.0,30160.0,-9.0,-3.0,-24.0,1,27_xacc_avg_constant_0
2023-01-03 16:42:30.750,347.48720000000003,0.108000000000004,73.0,1118.0,22765.0,4890.0,98.0,1115.6,189.8,4890.4,88.662992,1.9577386,0.0452848899999999,0.03004896,-1.2222945,54.89,0.051919015,0.03730758,-1.2723775000000002,0.49413758,1.05556426,5.415288,0.0,0.4,54.4,-29.6,-5.2,259.4,-1066.6,-16.0,311.2,1016.034,-3.3595156000000004,3449.0,0.051919015,-0.0069396125,0.03730758,0.011613244,-1.2723775000000002,0.0057468476,54890.0,28711.0,30170.0,-3.0,-1.0,-23.0,1,27_xacc_avg_constant_0
2023-01-03 16:42:31.300,348.019,0.1039999999999963,73.0,1074.0,22659.0,4893.0,98.0,1077.4,191.4,4794.0,88.51194,1.9872226,0.0400527833333333,0.0204473366666666,-1.2294496666666666,54.9,0.0469122466666666,0.02882224,-1.279587,0.4879609,1.1711522,8.273852000000002,0.0,-20.2,59.2,-29.2,7.8,259.6,-1050.0,-22.4,314.6,1016.0246,-3.3688122,3449.6,0.0469122466666666,0.0293984786666666,0.02882224,-0.00841685,-1.279587,-0.012236479,54900.0,28655.0,30180.0,-1.0,0.0,-22.0,1,27_xacc_avg_constant_0
2023-01-03 16:42:31.850,348.551,0.108000000000004,72.0,1002.0,22798.0,4885.0,98.0,1057.2,193.0,4891.0,88.321938,2.0201812,0.03765475,0.021741225,-1.238711,54.92,0.04502931,0.0307987399999999,-1.288663,0.51060442,1.2290772,9.6316234,0.0,36.6,58.2,-60.4,19.6,259.2,-1077.6,-30.4,321.8,1016.0296,-3.3635779999999995,3450.1,0.04502931,0.02867468,0.0307987399999999,0.01050523,-1.288663,-0.0187513845,54930.0,28615.0,30210.0,0.0,-2.0,-23.0,1,27_xacc_avg_constant_0
2023-01-03 16:42:32.400,349.1376666666667,0.103333333333334,72.0,1140.0,22761.0,4893.0,98.0,1094.5,194.5,4822.833333333333,88.11892,2.0527460000000004,0.0488309699999999,0.03107704,-1.241874666666667,54.91666666666666,0.0576126533333333,0.0391862833333333,-1.2916736666666668,0.5381067166666667,1.2577781666666663,8.345017999999998,0.0,-8.166666666666666,45.66666666666666,-37.66666666666666,40.16666666666666,258.1666666666667,-1065.5,12.666666666666666,306.0,1016.0305,-3.3629295,3450.1666666666665,0.0576126533333333,0.0383739096666666,0.0391862833333333,-0.002247003,-1.2916736666666668,-0.0087980796666666,54910.0,28599.0,30190.0,4.0,-3.0,-26.0,1,27_xacc_avg_constant_0
2023-01-03 16:42:32.950,349.72300000000007,0.1120000000000004,72.0,1121.0,22749.0,4896.0,98.0,1106.0,196.6,4889.6,87.91812999999999,2.0818926,0.06099673,0.0242234166666666,-1.241388333333333,54.88,0.06927601,0.0333752266666666,-1.290226,0.38670984,1.1807164,7.037800799999999,0.0,4.9,49.0,-62.8,1.8,261.0,-1045.9,-11.8,311.0,1016.0287,-3.3648358000000003,3451.1,0.06927601,-0.009579314,0.0333752266666666,-0.0081553623333333,-1.290226,0.0105201033333333,54880.0,28607.0,30160.0,4.0,3.0,-27.0,1,27_xacc_avg_constant_0
2023-01-03 16:42:33.500,350.2712,0.1039999999999963,72.0,1051.0,22768.0,4893.0,98.0,1107.6,198.2,4831.4,87.69874,2.113749,0.05108358,0.0334111,-1.238555,54.845,0.05940511,0.043312525,-1.2879230000000002,0.33289776,1.03639746,7.915442199999999,0.0,29.4,50.2,-35.8,-21.4,266.4,-1065.8,27.4,313.4,1016.0176,-3.3758592,3451.8,0.05940511,-0.067526445,0.043312525,0.005204,-1.2879230000000002,0.0233862175,54840.0,28612.0,30120.0,4.0,9.0,-23.0,1,27_xacc_avg_constant_0
2023-01-03 16:42:34.050,350.8272,0.1121999999999956,72.0,994.0,22632.0,4896.0,98.0,1090.6,200.0,4888.8,87.519184,2.1398006,0.0425148433333333,0.03478587,-1.2295943333333332,54.82333333333333,0.0512437366666666,0.0443277633333333,-1.277996,0.5179773599999999,1.13393136,6.947771,0.0,7.2,55.2,-37.4,6.0,261.6,-1107.6,34.8,308.4,1016.0404,-3.3528907999999995,3452.2,0.0512437366666666,-0.003142205,0.0443277633333333,0.0390899066666666,-1.277996,0.0106379593333333,54830.0,28675.0,30110.0,8.0,7.0,-26.0,1,27_xacc_avg_constant_0
2023-01-03 16:42:34.600,351.35900000000004,0.1078000000000087,72.0,1146.0,22724.0,4884.5,98.0,1122.4,201.6,4883.8,87.31251599999999,2.1675992,0.0486541666666666,0.0361446266666666,-1.2238343333333337,54.78,0.0574751099999999,0.0452777766666666,-1.272063,0.41819834,1.262739,8.8613354,0.0,-16.1,55.4,-26.3,-0.7,261.7,-1029.3,19.4,308.7,1016.0308,-3.3626167,3452.8,0.0574751099999999,-0.00380174,0.0452777766666666,-0.0324730303333333,-1.272063,0.008506693,54800.0,28719.0,30080.0,12.0,8.0,-27.0,1,27_xacc_avg_constant_0
2023-01-03 16:42:35.150,351.891,0.1079999999999927,72.0,1084.0,22759.0,4858.0,98.0,1124.6,203.0,4857.6,87.057098,2.1989896,0.05930095,0.025612055,-1.227331,54.745000000000005,0.067966925,0.0352219,-1.274181,0.49165652,1.3340564,9.6258228,0.0,25.8,48.6,-62.8,47.8,259.0,-1060.8,6.2,295.0,1016.023,-3.3703594000000003,3453.0,0.067966925,0.021296003,0.0352219,0.020903695,-1.274181,0.010337610345,54750.0,28709.0,30030.0,18.0,11.0,-26.0,1,27_xacc_avg_constant_0
2023-01-03 16:42:35.700,352.415,0.1039999999999963,72.0,1116.0,22728.0,4883.0,98.0,1130.0,205.0,4881.4,86.84940199999998,2.2241552,0.05502493,0.02803883,-1.2284843333333333,54.73,0.0632908666666666,0.0381848766666666,-1.2752626666666669,0.41904404,0.92185248,6.893849,0.0,-18.8,49.8,-34.0,-10.2,264.6,-1047.6,23.6,300.2,1016.0338,-3.3595936,3453.8,0.0632908666666666,-0.0175048466666666,0.0381848766666666,-0.016685731,-1.2752626666666669,0.0033445663333333,54740.0,28681.0,30020.0,18.0,15.0,-26.0,1,27_xacc_avg_constant_0
2023-01-03 16:42:36.250,352.9552,0.108000000000004,72.0,1093.0,22607.0,4748.0,98.0,1146.8,206.6,4858.8,86.616552,2.2536974,0.048897565,0.01886872,-1.2223875,54.72,0.057999715,0.02921339,-1.269516,0.4509419999999999,1.07371988,5.3507072,0.0,10.3,59.5,-43.0,-4.2,262.0,-1059.5,22.9,315.7,1016.0172,-3.3764216,3453.9,0.057999715,-0.035132385,0.02921339,-0.0003252649999999,-1.269516,-0.0080573495,54720.0,28725.0,30000.0,17.0,17.0,-26.0,1,27_xacc_avg_constant_0
2023-01-03 16:42:36.800,353.531,0.103333333333334,72.0,1126.0,22733.0,4890.0,98.0,1144.8333333333333,208.16666666666663,4894.166666666667,86.38623666666666,2.2849950000000003,0.0504767666666666,0.02153948,-1.221722,54.72333333333333,0.0598661,0.0315677566666666,-1.268368,0.4152469333333333,1.1062194,6.154590166666666,0.0,-11.0,50.5,-64.33333333333333,33.5,258.1666666666667,-1026.6666666666667,14.666666666666666,305.8333333333333,1016.017,-3.3766145,3454.6666666666665,0.0598661,0.0202169966666666,0.0315677566666666,-0.0018640439999999,-1.268368,-0.0224034606666666,54710.0,28732.0,29990.0,14.0,14.0,-25.0,1,27_xacc_avg_constant_0
2023-01-03 16:42:37.350,354.12699999999995,0.1120000000000004,72.0,963.0,22782.0,4896.0,98.0,1078.8,210.2,4855.4,86.191426,2.3136978000000004,0.0458653366666666,0.0173935133333333,-1.2198696666666666,54.74,0.0549692133333333,0.0273295699999999,-1.26623,0.5809407,1.247937,6.781434999999999,0.0,22.6,59.1,-58.9,17.5,255.5,-1057.5,-31.0,326.2,1016.0347,-3.3588124,3455.3,0.0547124766666666,-0.0454936769999999,0.0273372566666666,0.022480201,-1.266146,-0.0290958866666666,54740.0,28739.5,30020.0,6.5,14.5,-25.5,1,27_xacc_avg_constant_0
2023-01-03 16:42:37.900,354.6552,0.0999999999999999,72.0,1132.0,22672.0,4895.0,98.0,1174.6,212.0,4889.6,86.043742,2.3376458,0.05661348,0.02374886,-1.2319915,54.735,0.065918155,0.03406282,-1.2786995,0.4279413199999999,1.3010606,6.602689,0.0,24.6,50.4,-83.6,27.4,261.2,-1057.6,-36.6,309.6,1016.0326,-3.3609372,3455.6,0.065918155,0.0250074185,0.03406282,0.0362113649999999,-1.2786995,-0.020997925,54730.0,28662.0,30010.0,2.0,16.0,-28.0,1,27_xacc_avg_constant_0
2023-01-03 16:42:38.450,355.191,0.1120000000000004,72.0,1227.0,22691.0,4891.0,98.0,1212.8,213.8,4889.6,85.87841599999999,2.366684,0.0578441533333333,0.0297609166666666,-1.226157333333333,54.72333333333333,0.0667685866666666,0.0395688533333333,-1.2723173333333333,0.4315602,1.2701072,5.217233800000001,0.0,4.0,56.8,-73.2,-15.4,259.4,-1083.2,12.2,313.8,1016.0162,-3.3770936,3455.8,0.0667685866666666,0.0200044066666666,0.0395688533333333,-0.0186735396666666,-1.2723173333333333,0.0582040399999999,54730.0,28764.0,30010.0,0.0,21.0,-23.0,1,27_xacc_avg_constant_0
2023-01-03 16:42:39.000,355.74766666666665,0.1000000000000037,72.0,1044.0,22643.0,4748.0,98.0,1101.1666666666667,215.5,4821.0,85.73101333333334,2.393764,0.04089938,0.03232197,-1.2183643333333334,54.74,0.0498721133333333,0.0418623966666666,-1.2643733333333331,0.4253667333333333,1.2340883333333337,6.699587666666666,0.0,20.666666666666668,53.0,-16.333333333333332,-14.0,253.66666666666663,-1108.3333333333333,-2.833333333333333,298.3333333333333,1016.0356666666668,-3.3578645000000003,3456.833333333333,0.0498721133333333,-0.0370054433333333,0.0418623966666666,0.0160334666666666,-1.2643733333333331,-0.0489185666666666,54740.0,28738.0,30020.0,4.0,19.0,-26.0,1,27_xacc_avg_constant_0
2023-01-03 16:42:39.550,356.315,0.0999999999999999,72.0,1236.0,22704.0,4895.0,98.0,1225.2,217.4,4890.0,85.576982,2.4203582000000003,0.0409664466666666,0.0388140966666666,-1.225461,54.72,0.0504741733333333,0.0482997099999999,-1.271498,0.3934636999999999,0.7884557600000001,5.764987400000001,0.0,-29.0,67.2,-33.0,-2.6,278.2,-1075.6,22.4,306.2,1016.0416,-3.3517968,3457.0,0.0504741733333333,0.0226823719999999,0.0482997099999999,-0.0123927833333333,-1.271498,0.0004978566666666,54720.0,28722.0,30000.0,18.0,17.0,-24.0,1,27_xacc_avg_constant_0
2023-01-03 16:42:40.100,356.819,0.1039999999999963,72.0,1183.0,22679.0,4893.0,98.0,1162.6,219.0,4890.4,85.429958,2.4422102,0.048943005,0.01322782,-1.2137455,54.71,0.05728051,0.022344625,-1.258695,0.45344438,0.98615496,4.3763250000000005,0.0,-49.2,56.2,-22.2,22.2,258.6,-1066.4,32.8,304.4,1016.054,-3.3394218,3457.6,0.05728051,0.03931607,0.022344625,-0.05982621,-1.258695,0.0116693389999999,54710.0,28799.0,29990.0,21.0,16.0,-23.0,1,27_xacc_avg_constant_0
2023-01-03 16:42:40.650,357.35900000000004,0.108000000000004,71.0,1167.0,22637.0,4896.0,98.0,1168.6,220.6,4897.2,85.270578,2.4647516,0.0527411899999999,0.0101240373333333,-1.21545,54.696666666666665,0.0612962866666666,0.0201426266666666,-1.2603253333333333,0.44479764,1.01016716,4.2316562,0.0,2.0,58.9,-31.8,5.0,255.4,-1056.8,18.2,323.6,1016.0906,-3.3028359000000003,3458.1,0.0612962866666666,0.0238983333333333,0.0201426266666666,0.0052457599999999,-1.2603253333333333,-0.010531358,54700.0,28778.0,29980.0,23.0,17.0,-22.0,1,27_xacc_avg_constant_0
2023-01-03 16:42:41.200,357.903,0.111999999999989,71.0,1204.0,22698.0,4896.5,98.0,1175.8,222.4,4858.2,85.12281399999999,2.4897342,0.0518783,-0.006239072,-1.2071079999999998,54.665,0.060349775,0.0042203645,-1.2517645000000002,0.6066140600000001,0.93663546,4.7725084,0.0,-12.8,61.4,-33.4,16.0,253.8,-1081.6,2.8,315.2,1016.092,-3.3013436,3458.4,0.060349775,0.0497355,0.0042203645,-0.019098065,-1.2517645000000002,0.010411376,54660.0,28835.0,29940.0,21.0,15.0,-19.0,1,27_xacc_avg_constant_0
2023-01-03 16:42:41.750,358.48766666666666,0.103333333333334,71.0,1226.0,22694.0,4891.0,98.0,1193.6666666666667,224.5,4868.166666666667,85.04812166666666,2.510956333333333,0.0617237266666666,-0.013224438,-1.2010303333333334,54.63666666666666,0.0707199866666666,-0.0035880846666666,-1.2455486666666666,0.5773746333333334,0.9828832000000002,4.244010666666667,0.0,-12.916666666666666,61.583333333333336,-25.0,35.416666666666664,247.66666666666663,-1050.3333333333333,9.166666666666666,327.0833333333333,1016.0874166666666,-3.3060154166666664,3459.0,0.0707199866666666,0.0029233036666666,-0.0035880846666666,-0.0270764333333333,-1.2455486666666666,0.0085895106666666,54630.0,28872.0,29910.0,13.0,12.0,-16.0,1,27_xacc_avg_constant_0
2023-01-03 16:42:42.300,359.0712,0.108000000000004,71.0,1159.0,22706.0,4893.0,98.0,1146.0,226.4,4890.4,85.050096,2.534025,0.0700041766666666,-0.008499205,-1.195565,54.63666666666666,0.0778777766666666,0.0009410133333333,-1.2400726666666666,0.54585178,0.99693564,4.6293542,43.0,39.4,57.2,-38.0,4.2,243.0,-1037.4,-6.2,316.4,1016.0624,-3.3312028000000007,3459.2,0.0778777766666666,1.5334333333334265e-05,0.0009410133333333,0.0201962766666666,-1.2400726666666666,0.0148617066666666,54630.0,28886.0,29910.0,-2.0,14.0,-16.0,0,None
2023-01-03 16:42:42.850,359.60299999999995,0.1039999999999963,71.0,1177.0,22554.0,4898.0,98.0,1149.2,228.0,4892.0,85.120322,2.5525878000000004,0.06308795,0.01211081,-1.199984,54.655,0.072048925,0.020114315,-1.2444345,0.55150188,0.96248418,4.5892072,49.8,32.2,52.2,-12.8,-5.2,254.4,-1058.8,3.4,317.8,1016.057,-3.3364998,3460.0,0.072048925,-0.026603235,0.020114315,0.022627485,-1.2444345,-0.00887305,54650.0,28865.0,29930.0,-10.0,19.0,-17.0,0,None
2023-01-03 16:42:43.400,360.15160000000003,0.112200000000007,71.0,1155.0,22702.0,4887.0,98.0,1181.0,229.6,4889.0,85.241554,2.5721532000000003,0.0532182133333333,0.010866471,-1.202575333333333,54.66333333333333,0.06231479,0.01858603,-1.246745,0.5098920600000001,1.0522676199999998,4.7184134,34.7,-12.7,62.5,-40.4,-12.9,249.0,-1050.2,-3.6,307.8,1016.0625,-3.3310158000000003,3460.2,0.06231479,-0.0206371066666666,0.01858603,-0.0192189396666666,-1.246745,0.0131482853333333,54660.0,28849.0,29940.0,-7.0,24.0,-21.0,0,None
2023-01-03 16:42:43.950,360.672,0.0999999999999999,71.0,1170.0,22633.0,4727.0,98.0,1143.2,231.4,4882.6,85.37647999999999,2.5913054000000004,0.0431648,-0.000633121325,-1.208686,54.67,0.05272266,0.007302219,-1.2533089999999998,0.45082044,1.15852678,5.4652468,31.2,27.2,60.4,-25.6,-15.2,246.4,-1064.4,-58.4,312.2,1016.0518,-3.3417342,3460.8,0.05272266,-0.0013949499999999,0.007302219,0.027399264,-1.2533089999999998,-0.028512618,54670.0,28832.0,29950.0,-9.0,23.0,-22.0,0,None
2023-01-03 16:42:44.500,361.222,0.0999999999999942,71.0,1144.0,22667.0,4880.0,98.0,1147.0,233.16666666666663,4888.0,85.51227,2.608629,0.0420854566666666,0.0124992713333333,-1.2232903333333331,54.69,0.0514407266666666,0.0196527033333333,-1.2673746666666668,0.5110508666666668,0.93733955,5.6520735,29.83333333333333,1.6666666666666667,60.833333333333336,-28.83333333333333,4.666666666666667,257.3333333333333,-1039.1666666666667,-11.666666666666666,327.8333333333333,1016.0336666666668,-3.3597396666666666,3461.0,0.0514407266666666,0.0066831933333333,0.0196527033333333,0.0256036466666666,-1.2673746666666668,5.864300000000058e-05,54690.0,28733.0,29970.0,-8.0,22.0,-20.0,0,None
2023-01-03 16:42:45.050,361.7720000000001,0.0999999999999999,71.0,1205.0,22613.0,4880.0,98.0,1169.8,235.0,4856.8,85.64395199999998,2.6248262,0.0431747866666666,0.007468386,-1.2204073333333334,54.70333333333334,0.05243443,0.014705763,-1.2642133333333332,0.5132635600000001,0.98270198,6.2667564,36.2,21.2,55.2,-40.4,-4.2,252.0,-1032.8,-2.8,310.2,1016.0024,-3.3910468,3461.6,0.05243443,0.0164706816666666,0.014705763,0.0121124216666666,-1.2642133333333332,0.0236933733333333,54700.0,28749.0,29980.0,-9.0,21.0,-24.0,0,None
2023-01-03 16:42:45.600,362.3253333333334,0.103333333333334,71.0,1088.0,22537.0,4742.0,98.0,1149.6666666666667,236.8333333333333,4862.333333333333,85.77303,2.6404743333333336,0.03980161,0.02182075,-1.219134,54.74,0.0497887966666666,0.02854916,-1.2620509999999998,0.5284309333333334,1.0422081333333335,6.230133333333334,38.333333333333336,25.666666666666668,58.5,-33.833333333333336,21.0,259.8333333333333,-1098.1666666666667,0.8333333333333334,303.1666666666667,1016.0193333333332,-3.374166666666667,3462.1666666666665,0.0497887966666666,0.0099808106666666,0.02854916,0.02932032,-1.2620509999999998,-0.01791496,54735.0,28767.5,30015.0,-13.0,14.5,-25.0,0,None
2023-01-03 16:42:46.150,362.872,0.0960000000000036,71.0,1182.0,22662.0,4887.0,98.0,1199.6,238.4,4886.8,85.88578600000001,2.6552616,0.046129065,0.03640859,-1.2231435,54.745000000000005,0.05611844,0.042886905,-1.266263,0.5037527999999999,0.95354488,5.5776916,47.0,-8.8,57.6,-25.4,-0.2,267.0,-1059.0,10.2,302.2,1016.0220000000002,-3.3716096,3462.4,0.05611844,0.007473276,0.042886905,0.02166143,-1.266263,-0.025494915,54740.0,28750.0,30020.0,-5.0,16.0,-28.0,0,None
2023-01-03 16:42:46.700,363.442,0.103333333333334,71.0,1167.5,22663.0,4882.5,98.0,1173.1666666666667,240.5,4817.0,85.96609833333333,2.6694245,0.04169866,0.0238850566666666,-1.223453,54.73,0.05135235,0.03097903,-1.2662326666666666,0.4702601333333333,1.0498618166666664,5.3379695,20.5,15.0,63.5,-52.16666666666666,-1.3333333333333333,252.5,-1075.1666666666667,-14.666666666666666,304.6666666666667,1016.0116666666668,-3.3817710000000005,3462.833333333333,0.05135235,0.0026534233333333,0.03097903,-0.0061064373333333,-1.2662326666666666,0.0042368653333333,54740.0,28735.0,30020.0,-3.0,15.0,-25.0,0,None
2023-01-03 16:42:47.250,363.992,0.0999999999999999,71.0,1174.0,22671.0,4895.0,98.0,1139.2,242.0,4889.0,86.022976,2.683223,0.0371602733333333,0.0322919266666666,-1.223062,54.75,0.046827465,0.0421828499999999,-1.2659565,0.52107324,0.9635999199999998,4.1189654,22.0,18.8,58.6,-39.8,20.6,262.2,-1064.0,-13.8,308.6,1016.016,-3.3774062,3463.0,0.0469093633333333,0.0194591493333333,0.0405004366666666,0.0136270699999999,-1.266266,0.0189932716666666,54750.0,28742.0,30030.0,0.0,14.0,-27.0,0,None
2023-01-03 16:42:47.800,364.542,0.0999999999999942,70.0,1112.0,22537.0,4882.0,98.0,1145.1666666666667,244.0,4893.333333333333,86.05079333333333,2.697378333333333,0.03795316,0.03404418,-1.2240153333333332,54.75333333333333,0.04775792,0.04138821,-1.266004666666667,0.4810608666666666,1.0627276,5.415787333333333,30.5,-4.833333333333333,56.333333333333336,-26.83333333333333,23.33333333333333,257.8333333333333,-1066.1666666666667,-0.1666666666666666,303.5,1016.0018333333334,-3.391523333333333,3464.0,0.04775792,0.0125298676666666,0.04138821,-0.0079306196666666,-1.266004666666667,0.0249473133333333,54760.0,28744.0,30040.0,7.0,15.0,-28.0,0,None
2023-01-03 16:42:48.350,365.092,0.0999999999999999,70.0,1173.0,22667.0,4888.0,98.0,1175.6,245.6,4892.0,86.04639399999999,2.7112314,0.040428445,0.028067625,-1.224897,54.755,0.050089645,0.03626261,-1.2671774999999998,0.48196314,1.0365349599999998,4.5363426,35.2,4.2,63.6,-21.6,18.8,260.8,-1053.8,15.8,313.4,1016.0136,-3.3802188,3464.0,0.050089645,0.014617253,0.03626261,0.005816975,-1.2671774999999998,-0.01871252,54760.0,28740.0,30040.0,11.0,15.0,-29.0,0,None
2023-01-03 16:42:48.900,365.642,0.1000000000000037,70.0,1153.0,22651.0,4880.0,98.0,1155.1666666666667,247.5,4895.333333333333,86.01751833333333,2.724027166666666,0.0391503233333333,0.0277104066666666,-1.22756,54.75,0.0489944033333333,0.0354035133333333,-1.269418333333333,0.5438947166666667,1.0296552833333334,5.783290999999999,27.666666666666668,6.0,59.833333333333336,-69.5,14.333333333333334,255.3333333333333,-1067.1666666666667,3.0,307.0,1016.004,-3.389296833333333,3464.833333333333,0.0489944033333333,0.01893912,0.0354035133333333,-0.020300539,-1.269418333333333,-0.0073461703333333,54750.0,28720.0,30030.0,12.0,15.0,-28.0,0,None
2023-01-03 16:42:49.450,366.2120000000001,0.1039999999999963,70.0,1214.0,22628.0,4895.0,98.0,1120.4,249.4,4887.2,85.97168,2.7363448000000004,0.03650705,0.0271194699999999,-1.2254066666666663,54.75333333333333,0.0462726533333333,0.03494026,-1.267089666666667,0.4447091799999999,1.0975119800000002,5.757705400000001,27.8,15.8,60.4,-38.6,15.6,257.0,-996.8,-19.2,319.6,1016.0058,-3.388031,3465.2,0.0462726533333333,-0.0146653313333333,0.03494026,0.0149855866666666,-1.267089666666667,0.0097900517,54750.0,28736.0,30030.0,11.0,14.0,-29.0,0,None
2023-01-03 16:42:50.000,366.7653333333333,0.1000000000000037,70.0,1093.0,22703.0,4883.0,98.0,1132.5,251.16666666666663,4863.833333333333,85.91032666666666,2.7483543333333333,0.0370388766666666,0.0308178666666666,-1.2322883333333332,54.76666666666667,0.04736929,0.0383210033333333,-1.2733083333333333,0.5515710166666666,0.9128224,5.325643666666667,23.83333333333333,5.5,57.66666666666666,-46.66666666666666,8.666666666666666,265.3333333333333,-1108.0,-32.5,307.3333333333333,1016.0283333333332,-3.3651823333333333,3465.6666666666665,0.04736929,0.0394327976666666,0.0383210033333333,0.0066336703099999,-1.2733083333333333,0.0083489086666666,54770.0,28710.0,30050.0,14.0,12.0,-28.0,0,None
2023-01-03 16:42:50.550,367.332,0.1039999999999963,70.0,1141.0,22562.0,4748.0,98.0,1119.8,253.0,4831.2,85.83436800000001,2.759613,0.0425304566666666,0.0250582533333333,-1.22966,54.74666666666667,0.0518928366666666,0.0322803866666666,-1.2699399999999998,0.48792298,1.21115252,6.109786,37.2,4.6,55.0,-70.2,45.6,255.4,-1020.6,7.0,312.6,1016.0038,-3.3896874,3466.0,0.0518928366666666,-0.0043498233333333,0.0322803866666666,-0.0165141333333333,-1.2699399999999998,0.01693067,54750.0,28696.0,30030.0,15.0,10.0,-29.0,0,None
2023-01-03 16:42:51.100,367.832,0.0999999999999999,70.0,1117.0,22692.0,4882.0,98.0,1113.75,254.5,4883.8,85.759916,2.7690674,0.03974764,0.031733755,-1.2276665000000002,54.75,0.049548285,0.0400374349999999,-1.267304,0.52867978,1.06950084,4.7794412,36.6,17.6,59.6,-16.6,11.4,260.6,-1018.0,5.0,311.0,1016.0138,-3.3795782,3466.2,0.049548285,0.021703264,0.0400374349999999,0.0183148889999999,-1.267304,0.0005829464999999,54750.0,28738.0,30030.0,16.0,10.0,-26.0,0,None
2023-01-03 16:42:51.650,368.402,0.103333333333334,70.0,1133.5,22673.0,4886.0,98.0,1119.6666666666667,256.1666666666667,4893.333333333333,85.66633666666667,2.7798010000000004,0.0358392433333333,0.0346413133333333,-1.2318406666666668,54.75,0.04614959,0.0422654533333333,-1.2712763333333337,0.5097168499999999,1.03904815,5.428080166666665,36.16666666666666,-20.33333333333333,62.333333333333336,-22.33333333333333,7.833333333333333,278.1666666666667,-1066.5833333333333,-1.1666666666666667,310.0833333333333,1016.0325,-3.3608464166666665,3466.75,0.04614959,0.0043526525,0.0422654533333333,-0.0148161166666666,-1.2712763333333337,-0.003052891,54750.0,28715.5,30030.0,22.0,12.5,-25.5,0,None
2023-01-03 16:42:52.200,368.968,0.1040000000000077,70.0,1169.0,22693.0,4867.0,98.0,1136.6,258.0,4896.2,85.554598,2.7907174,0.0446021133333333,0.016544403,-1.243008,54.73333333333333,0.0542359066666666,0.0242718266666666,-1.281685,0.42601888,1.0926332,6.936939,36.6,-32.6,56.8,-11.8,31.8,256.0,-1067.2,0.6,303.8,1016.0586,-3.334703,3467.2,0.0542359066666666,0.0134818916666666,0.0242718266666666,-0.024483553,-1.281685,-0.0137485833333333,54720.0,28645.0,30000.0,25.0,14.0,-25.0,0,None
2023-01-03 16:42:52.750,369.4728,0.1001999999999952,70.0,1073.0,22579.0,4882.0,98.0,1162.0,259.4,4836.6,85.446628,2.8005732,0.051708635,0.00286548295,-1.240352,54.705,0.06130123,0.0115618675,-1.2785815,0.41478908,0.90940562,6.892497199999999,41.2,-15.0,50.8,-21.6,-16.2,262.0,-1111.2,26.0,330.0,1016.0418,-3.3514684000000003,3467.6,0.06130123,-0.009875125,0.0115618675,-0.006219595,-1.2785815,0.030824265,54700.0,28687.0,29980.0,16.0,19.0,-24.0,0,None
2023-01-03 16:42:53.300,370.0328,0.1200000000000045,70.0,1093.0,22699.0,4890.0,98.0,1072.6,261.2,4896.6,85.36409199999999,2.810142,0.0428188366666666,-0.0016108685333333,-1.2342536666666668,54.70666666666667,0.0525068366666666,0.007437223,-1.2714976666666666,0.5008560400000001,1.11642928,6.3148936,32.4,16.2,51.5,-27.4,-15.5,251.2,-1034.3,11.2,330.2,1016.0444,-3.3488982,3468.0,0.0525068366666666,-0.019413151,0.007437223,0.0193544799999999,-1.2714976666666666,0.0180851766666666,54710.0,28729.0,29990.0,1.0,20.0,-24.0,0,None
2023-01-03 16:42:53.850,370.543,0.1149999999999948,70.0,1267.0,22672.0,4877.0,98.0,1199.75,262.75,4889.75,85.3069925,2.81983025,0.04041119,0.02581712,-1.241443,54.705,0.0506526199999999,0.0335419099999999,-1.2786155,0.5334144999999999,1.075391275,6.778504,44.5,58.75,52.5,-13.25,-24.5,259.75,-1042.25,-1.0,303.0,1016.03125,-3.362168,3468.75,0.0506526199999999,0.01068672,0.0335419099999999,0.0890912849999999,-1.2786155,-0.0440918649999999,54700.0,28654.0,29980.0,0.0,20.0,-22.0,0,None
2023-01-03 16:42:54.400,371.1295,0.1099999999999946,70.0,1179.0,22544.0,4890.0,98.0,1098.6666666666667,264.5,4823.333333333333,85.26210000000002,2.8305846666666667,0.0301275866666666,0.0273863366666666,-1.2450176666666666,54.71666666666667,0.04042037,0.0342022233333333,-1.281339,0.4866698833333333,1.0407731333333332,6.543064833333335,38.083333333333336,-27.08333333333333,52.833333333333336,-18.666666666666668,6.0,258.25,-1076.5,12.083333333333334,303.9166666666667,1016.0495833333332,-3.344069,3468.9166666666665,0.04015777,0.004691008,0.03401459,-0.0222448543333333,-1.2814263333333331,0.0165080033,54720.0,28661.0,30000.0,11.0,17.0,-22.0,0,None
2023-01-03 16:42:54.950,371.7288,0.1078000000000088,70.0,1099.0,22716.0,4890.0,98.0,1076.0,266.6,4884.0,85.215654,2.8396508,0.03583049,0.0022332313333333,-1.2422073333333332,54.72,0.0459659,0.0100589053333333,-1.2781643333333332,0.5824987399999999,1.02555328,6.9923792,27.6,-34.4,61.2,-34.0,22.0,260.4,-1036.6,-18.6,313.6,1016.029,-3.3643124,3469.2,0.0459659,0.0137222433333333,0.0100589053333333,-0.0372384233333333,-1.2781643333333332,-0.009220355,54720.0,28681.0,30000.0,14.0,13.0,-21.0,0,None
2023-01-03 16:42:55.500,372.2407999999999,0.1001999999999952,70.0,1083.0,22688.0,4888.0,98.0,1084.6,268.2,4798.8,85.17713,2.8466588,0.048631425,-0.0081192905,-1.2454645,54.715,0.05814687,0.0001560948,-1.28088,0.49866554,1.11116002,8.323979,28.2,0.6,53.0,-39.4,23.6,244.4,-1068.0,-19.2,319.4,1016.0576,-3.3361720000000004,3470.0,0.05814687,0.0173059915,0.0001560948,-0.0161472725,-1.28088,-1.6190000000000128e-06,54720.0,28661.0,30000.0,7.0,8.0,-22.0,0,None
2023-01-03 16:42:56.050,372.7608,0.108000000000004,70.0,1117.0,22709.0,4887.0,98.0,1117.2,269.6,4885.6,85.156892,2.8540358,0.06300474,0.0016127219999999,-1.2458016666666667,54.70000000000001,0.07263544,0.009412479,-1.2815593333333333,0.4575258,1.02702092,7.927888399999999,36.0,31.5,47.0,-44.8,34.9,250.4,-1040.2,13.6,320.0,1016.0385,-3.3550309999999994,3470.0,0.07263544,0.03987658,0.009412479,0.0373766966666666,-1.2815593333333333,0.001619003,54700.0,28654.0,29980.0,-1.0,11.0,-25.0,0,None
2023-01-03 16:42:56.600,373.3048,0.1079999999999927,70.0,1201.0,22673.0,4883.0,98.0,1166.6,271.4,4829.4,85.168316,2.8612424,0.068723635,0.0098879585,-1.239228,54.69,0.0778002949999999,0.01810163,-1.2748795,0.4794980799999999,1.03224912,6.5040762,38.6,23.0,46.6,-25.6,-25.2,259.6,-1053.8,45.8,311.6,1016.0458,-3.34775,3470.8,0.0778002949999999,-0.0280688199999999,0.01810163,0.0164013995,-1.2748795,0.0135037399999999,54690.0,28704.0,29970.0,-11.0,21.0,-22.0,0,None
2023-01-03 16:42:57.150,373.857,0.1120000000000004,70.0,1051.0,22581.0,4890.0,98.0,1113.8,273.2,4860.4,85.206236,2.8688076,0.0490384399999999,0.02587311,-1.2322503333333332,54.68666666666667,0.05866279,0.0342591933333333,-1.2678163333333334,0.53089334,1.05485386,5.1069078,36.7,34.2,54.5,-57.4,-36.2,260.0,-1046.7,8.0,312.3,1016.0405,-3.3529841999999994,3471.0,0.0581408133333333,-0.0084291616666666,0.0339133766666666,0.0429525,-1.2681493333333334,0.022709501,54680.0,28732.0,29960.0,-16.0,26.0,-22.0,0,None
2023-01-03 16:42:57.700,374.443,0.1066666666666738,70.0,1018.5,22713.0,4819.0,98.0,1047.8333333333333,275.0,4867.166666666667,85.25081666666667,2.8770861666666665,0.03881223,0.0331448666666666,-1.2382003333333331,54.7,0.0479698366666666,0.0407277199999999,-1.273136,0.5347000166666667,1.0554838333333334,6.299903833333334,28.5,11.5,57.66666666666666,-52.833333333333336,26.33333333333333,262.8333333333333,-1036.8333333333333,-19.5,306.5,1016.0313333333334,-3.3622005,3471.833333333333,0.0479698366666666,0.0139727066666666,0.0407277199999999,0.00948539,-1.273136,-0.00283087,54700.0,28728.0,29980.0,-14.0,23.0,-22.0,0,None
2023-01-03 16:42:58.800,375.5293333333333,0.1100000000000041,70.0,1080.5,22701.0,4890.0,98.0,1106.1666666666667,278.1666666666667,4893.166666666667,85.27953666666666,2.893944666666666,0.0501798399999999,0.0276274433333333,-1.2575293333333333,54.71,0.0588774133333333,0.03491752,-1.2915613333333331,0.4517574666666666,1.2465973333333331,8.297781833333334,32.5,-17.5,49.66666666666666,-62.833333333333336,13.666666666666666,263.4166666666667,-1049.75,-8.0,309.0833333333333,1016.0491666666668,-3.34451175,3472.6666666666665,0.0597173866666666,0.0068484133333333,0.0354199533333333,-0.03596301,-1.2915896666666666,-0.01878052,54710.0,28611.0,29990.0,2.0,21.0,-24.0,0,None
