00000_Time_epoch,00000_Time_boot_sec,00000_Span_Time_boot_sec,1_battery_remaining_avg,1_current_battery_avg,1_voltage_battery_avg,125_Vcc_avg,147_battery_remaining_avg,147_current_battery_avg,147_current_consumed_avg,165_Vcc_avg,168_direction_avg,168_speed_avg,178_pitch_avg,178_roll_avg,178_yaw_avg,182_altitude_avg,182_pitch_avg,182_roll_avg,182_yaw_avg,241_vibration_x_avg,241_vibration_y_avg,241_vibration_z_avg,27_xacc_avg,27_xgyro_avg,27_xmag_avg,27_yacc_avg,27_ygyro_avg,27_ymag_avg,27_zacc_avg,27_zgyro_avg,27_zmag_avg,29_press_abs_avg,29_press_diff_avg,29_temperature_avg,30_pitch_avg,30_pitchspeed_avg,30_roll_avg,30_rollspeed_avg,30_yaw_avg,30_yawspeed_avg,33_alt_avg,33_hdg_avg,33_relative_alt_avg,33_vx_avg,33_vy_avg,33_vz_avg,label,diagnosis
2023-01-03 18:20:04.950,207.694,0.5199999999999818,80.0,61.0,23158.0,4856.0,99.0,65.0,42.0,4880.0,-152.0326,0.1201329,-0.0015036863333333,-0.0099864746666666,-1.2432203333333334,29.19666666666667,0.0022974206666666,-0.005515741,-1.2386213333333334,0.02630224,0.02733303,0.05059633,-17.0,4.0,70.0,-7.0,5.0,258.0,-1073.0,0.0,337.0,1019.181,-0.1361719,3175.0,0.0022974206666666,0.0052651476666666,-0.005515741,0.0040208973333333,-1.2386213333333334,-0.0002046232333333,29190.0,28903.0,-70.0,3.0,15.0,-28.0,0,None
2023-01-03 18:20:05.500,208.194,0.5,80.0,58.0,23130.0,4871.0,99.0,61.0,42.0,4869.0,-153.7273,0.1242421,-0.0018040119999999,-0.0100218075,-1.2432919999999998,29.145,0.002290408,-0.0053041419999999,-1.2387715,0.02865947,0.02498859,0.03114664,-15.0,3.0,71.0,-6.0,5.0,258.0,-1071.0,1.0,338.0,1019.171,-0.1466406,3176.0,0.002290408,0.005044988,-0.0053041419999999,0.0029479744999999,-1.2387715,-0.000109641395,29140.0,28903.0,-120.0,4.0,15.0,-29.0,0,None
2023-01-03 18:20:06.050,208.964,0.5100000000000051,80.0,86.0,23129.0,4866.0,99.0,255.5,42.5,4874.0,-155.47585,0.14743625,-0.0015388069999999,-0.0095110017499999,-1.2435841666666665,29.08,0.00242283575,-0.0050107424166666,-1.23865025,0.14562888,0.22023669,1.1381770249999998,-16.0,-2.0,72.0,-7.0,9.0,255.5,-1064.5,-5.5,336.0,1019.188,-0.1292969,3177.5,0.00242283575,0.0019059744166666,-0.0050107424166666,0.0062446635833333,-1.23865025,0.0174588031,29075.0,28902.0,-185.0,5.5,15.5,-29.5,0,None
2023-01-03 18:20:06.600,209.755,0.5409999999999968,80.0,1143.0,22834.0,4862.0,99.0,111.0,43.0,4869.0,-156.1711,0.1789069,-0.0021062796666666,-0.0117848066666666,-1.2446853333333332,29.03,0.0025515796666666,-0.005294534,-1.2391423333333331,0.1191939,0.1618012,0.9022653,-27.0,-15.0,51.0,-25.0,18.0,243.0,-1026.0,-14.0,360.0,1019.278,-0.03976562,3179.0,0.0025515796666666,0.0001265323333333,-0.005294534,0.0052620716666666,-1.2391423333333331,-0.0127519808333333,29030.0,28902.0,-230.0,4.0,16.0,-31.0,0,None
2023-01-03 18:20:07.150,210.274,0.5190000000000055,80.0,1434.0,22758.0,4879.0,99.0,1508.0,44.0,4888.0,-156.4852,0.2047226,0.0253818,-0.0080120335,-1.2457120000000002,29.065,0.029823805,-0.0025372305,-1.2380755,1.084293,0.7399541,4.109571,-19.0,25.0,31.0,-33.0,-68.0,261.0,-1227.0,43.0,330.0,1019.541,0.2228906,3180.0,0.029823805,0.122605815,-0.0025372305,0.0136998695,-1.2380755,0.012443989,29180.0,28929.0,-80.0,-3.0,27.0,42.0,0,None
2023-01-03 18:20:07.700,210.815,0.5409999999999968,79.0,1745.0,22707.0,4858.0,99.0,1499.0,46.0,4875.0,-158.6653,0.2277067,0.0053977989999999,-0.0069041536666666,-1.2437996666666666,29.58666666666667,0.0096491366666666,-0.0020638193,-1.2336863333333332,0.4099762,1.449687,3.510422,0.0,2.0,53.0,-13.0,-70.0,230.0,-1242.0,31.0,258.0,1019.158,-0.16,3181.0,0.0096491366666666,-0.0780871566666666,-0.0020638193,0.0082208183333333,-1.2336863333333332,-0.0259656433333333,29860.0,28923.0,600.0,-8.0,33.0,136.0,0,None
2023-01-03 18:20:08.250,211.335,0.5200000000000102,79.0,1780.0,22645.0,4882.0,99.0,1780.0,49.0,4879.0,-162.0735,0.2603788,-0.034446575,-0.0009955089999999,-1.2567400000000002,30.6,-0.029168225,0.00396515825,-1.2446865,0.2851762,1.25775,4.116571,-9.0,-38.0,39.0,7.0,-42.0,207.0,-1214.0,7.0,224.0,1019.001,-0.3171094,3182.0,-0.029168225,-0.040485811,0.00396515825,-0.0110924815,-1.2446865,-0.048464635,31100.0,28845.0,1840.0,-1.0,17.0,228.0,0,None
2023-01-03 18:20:08.800,211.894,0.5589999999999975,78.0,1720.0,22632.0,4862.0,99.0,1680.0,51.0,4883.0,-162.1726,0.2885183,-0.0348698966666666,-0.0126270039999999,-1.2626483333333334,32.13,-0.0301787233333333,-0.007562084,-1.2643363333333333,0.3566599,1.065924,4.07039,0.0,-4.0,58.0,37.0,-19.0,259.0,-1164.0,46.0,275.0,1018.822,-0.495625,3182.0,-0.0301787233333333,-0.0127944327666666,-0.007562084,-0.0438870333333333,-1.2643363333333333,0.0240398666666666,32720.0,28582.0,3460.0,0.0,-5.0,277.0,0,None
2023-01-03 18:20:09.350,212.415,0.5209999999999866,78.0,1746.0,22669.0,4882.0,99.0,1700.0,54.0,4871.0,-160.8471,0.314018,-0.0097490906666666,-0.0065786683333333,-1.243205,34.166666666666664,-0.004570416,-0.0022468926666666,-1.2743946666666666,0.3493671,1.464854,4.292641,-8.0,29.0,51.0,-18.0,143.0,260.0,-1142.0,55.0,330.0,1018.661,-0.6561719,3184.0,-0.004570416,0.0788919433333333,-0.0022468926666666,0.0123901433333333,-1.2743946666666666,0.0631025633333333,34460.0,28746.0,5200.0,3.0,-23.0,303.0,0,None
2023-01-03 18:20:09.900,212.954,0.5390000000000157,77.0,1570.0,22666.0,4862.0,99.0,1665.0,57.0,4856.0,-158.0637,0.3518744,0.01670817,-0.0056416865,-1.2352585,35.94,0.01925017,-9.41894999999999e-05,-1.2643285,0.471071,1.754506,2.44836,-19.0,6.0,73.0,-21.0,76.0,245.0,-1021.0,-5.0,294.0,1018.479,-0.8382812,3185.0,0.01925017,0.06504769,-9.41894999999999e-05,0.0062907049999999,-1.2643285,-0.02773194,36200.0,28734.0,6940.0,0.0,-17.0,278.0,0,None
2023-01-03 18:20:10.450,213.455,0.5010000000000048,77.0,1014.0,22800.0,4879.0,99.0,1302.0,59.0,4877.0,-157.5847,0.3623215,0.0046477695333333,-0.0121352699999999,-1.2408956666666668,37.28666666666667,0.0092370406666666,-0.0067959169999999,-1.268134,0.355385,1.156472,1.904733,-27.0,38.0,53.0,-30.0,-79.0,245.0,-859.0,-12.0,317.0,1018.307,-1.010469,3186.0,0.0092370406666666,-0.0241546246666666,-0.0067959169999999,-0.0118145833333333,-1.268134,0.0143973946666666,37490.0,28734.0,8230.0,-7.0,-14.0,185.0,0,None
2023-01-03 18:20:11.000,213.954,0.4989999999999952,77.0,1034.0,22797.0,4861.0,99.0,1100.0,60.0,4879.0,-157.9772,0.3606284,-0.0013623675,-0.0096255695,-1.239542,38.13,0.00450550415,-0.0034612939999999,-1.264525,0.7550821,0.5793617,1.521316,-3.0,33.0,67.0,7.0,-5.0,243.0,-864.0,14.0,326.0,1018.178,-1.139453,3186.0,0.00450550415,0.0572336555,-0.0034612939999999,0.031296365,-1.264525,-0.0020086099999999,38220.0,28766.0,8960.0,-15.0,-20.0,89.0,0,None
2023-01-03 18:20:11.550,214.475,0.5209999999999866,77.0,1247.0,22715.0,4879.0,99.0,1188.0,62.0,4880.0,-158.6331,0.3518349,0.0288722833333333,0.019836687,-1.231299666666667,38.53,0.03336924,0.0265065466666666,-1.2545413333333333,0.5382276,1.191198,2.221649,-8.0,16.0,60.0,-62.0,34.0,264.0,-988.0,-3.0,331.0,1018.09,-1.227578,3187.0,0.03336924,0.0710516866666666,0.0265065466666666,0.0874408833333333,-1.2545413333333333,0.0190320966666666,38580.0,28820.0,9320.0,-19.0,-14.0,36.0,0,None
2023-01-03 18:20:12.100,214.975,0.5,76.0,1248.0,22728.0,4869.0,99.0,1259.0,63.0,4871.0,-159.2233,0.3469236,0.031871335,0.041837525,-1.2338505,38.785,0.03608546,0.045576365,-1.2547134999999998,0.3622178,1.372178,4.831134,-18.0,44.0,44.0,-12.0,-19.0,235.0,-1024.0,-32.0,274.0,1018.045,-1.272187,3188.0,0.03608546,-0.053391145,0.045576365,0.04055312,-1.2547134999999998,-0.0483833949999999,38820.0,28806.0,9560.0,-14.0,2.0,15.0,0,None
2023-01-03 18:20:12.650,215.475,0.5,76.0,1178.0,22744.0,4871.0,99.0,1176.0,65.0,4869.0,-161.0121,0.3334973,0.0133281936666666,0.0491512666666666,-1.256235,38.98333333333333,0.01847219,0.0539378133333333,-1.2742956666666665,0.2518097,1.570138,9.349382,-9.0,-35.0,63.0,-5.0,15.0,272.0,-1081.0,-8.0,307.0,1018.042,-1.276094,3189.0,0.01847219,-0.0152747943333333,0.0539378133333333,-0.0054816433333333,-1.2742956666666665,-0.0477867499999999,39010.0,28672.0,9750.0,-2.0,9.0,0.0,0,None
2023-01-03 18:20:13.200,216.016,0.5409999999999968,76.0,1216.0,22754.0,4871.0,99.0,1208.0,67.0,4869.0,-162.4174,0.3202265,0.01574312,0.03862298,-1.2765925,39.1,0.021734635,0.044108725,-1.2925785,0.2106681,1.362743,7.503262,25.0,-36.0,49.0,6.0,-3.0,243.0,-1044.0,-10.0,279.0,1017.991,-1.326406,3190.0,0.021734635,0.014148565,0.044108725,-0.00929301745,-1.2925785,-0.05043847,39110.0,28590.0,9850.0,10.0,11.0,-16.0,0,None
2023-01-03 18:20:13.750,216.535,0.5190000000000055,76.0,1219.0,22710.0,4877.0,99.0,1244.0,69.0,4879.0,-165.1416,0.2931138,0.0284104533333333,0.0280450966666666,-1.2882593333333334,39.16666666666666,0.03378204,0.0335376766666666,-1.3012393333333334,0.5374504,0.8095174,3.301981,7.0,-59.0,46.0,-21.0,-7.0,265.0,-1060.0,-18.0,295.0,1018.02,-1.297266,3191.0,0.03378204,0.02019333,0.0335376766666666,-0.0229616603333333,-1.3012393333333334,-0.0097206586666666,39180.0,28537.0,9920.0,15.0,19.0,-20.0,0,None
2023-01-03 18:20:14.300,217.075,0.539999999999992,75.0,1234.0,22712.0,4862.0,99.0,1250.0,70.0,4882.0,-169.4755,0.2616187,0.02723092,0.01815689,-1.3015145,39.22,0.03258414,0.025430365,-1.312172,0.6495082,0.9323739,5.071832,9.0,9.0,39.0,-54.0,-2.0,248.0,-1091.0,-3.0,295.0,1017.989,-1.328203,3192.0,0.03258414,0.01202338,0.025430365,0.006604384,-1.312172,-0.02277136,39220.0,28477.0,9960.0,12.0,19.0,-28.0,0,None
2023-01-03 18:20:14.850,217.595,0.5200000000000102,75.0,1197.0,22703.0,4882.0,99.0,1199.0,72.0,4869.0,-174.1161,0.2390102,0.0305168733333333,0.0284647166666666,-1.304366666666667,39.25666666666667,0.0351999766666666,0.0341766533333333,-1.3130806666666668,0.3645875,0.8946831,6.272179,8.0,44.0,32.0,-73.0,6.0,279.0,-991.0,-4.0,323.0,1017.982,-1.335938,3193.0,0.0351999766666666,0.0100770776666666,0.0341766533333333,0.0224110266666666,-1.3130806666666668,0.01622085,39260.0,28484.0,10000.0,12.0,23.0,-29.0,0,None
2023-01-03 18:20:15.400,218.135,0.539999999999992,75.0,1244.5,22666.5,4874.0,99.0,1199.0,74.0,4871.0,175.6051,0.2074036,0.03257174,0.0364324666666666,-1.294092,39.28,0.0381883933333333,0.0420307433333333,-1.299853666666667,0.3413427,0.8622301,6.200683,2.0,-10.0,41.5,-51.5,16.5,265.0,-981.0,20.0,278.0,1017.9935,-1.324492,3194.5,0.0381883933333333,-0.0001821739999999,0.0420307433333333,0.0190950366666666,-1.299853666666667,0.0364976699999999,39280.0,28550.0,10020.0,11.0,28.0,-31.0,0,None
2023-01-03 18:20:15.950,218.636,0.5010000000000048,75.0,1245.0,22675.0,4867.0,99.0,1294.0,76.0,4875.0,158.71,0.1828146,0.02538737,0.030494155,-1.287455,39.29,0.0302041399999999,0.035759775,-1.2906915,0.6229876,1.084849,8.250064,28.0,-50.0,59.0,-30.0,42.0,272.0,-1089.0,45.0,341.0,1017.974,-1.343672,3195.0,0.0302041399999999,-0.020125496,0.035759775,-0.024827825,-1.2906915,0.0177305899999999,39290.0,28602.0,10030.0,18.0,33.0,-34.0,0,None
2023-01-03 18:20:16.500,219.415,0.5195000000000078,74.0,1228.0,22686.0,4881.0,99.0,1251.5,78.5,4881.5,133.50365,0.1821712,0.0257160508333333,0.0133950064166666,-1.2721469166666668,39.28333333333333,0.03047935,0.0196169767499999,-1.2725918333333333,0.51185605,1.1149589,4.7129395,15.5,11.5,56.5,-52.5,-1.0,271.0,-1092.0,16.5,327.0,1018.004,-1.313633,3197.0,0.03047935,0.0006651071666666,0.0196169767499999,-0.0142360389999999,-1.2725918333333333,0.0411332133333332,39285.0,28705.0,10025.0,19.0,38.5,-27.5,0,None
2023-01-03 18:20:17.050,220.195,0.5199999999999818,74.0,1220.0,22676.0,4883.0,99.0,1198.0,81.0,4875.0,111.2639,0.2029807,0.0108929241666666,-0.0054775479999999,-1.2593376666666665,39.26666666666667,0.0157497956666666,0.0017402776666666,-1.2579596666666666,0.5129215,1.110517,7.798708,16.0,76.0,66.0,-38.0,-3.0,248.0,-1025.0,-52.0,298.0,1017.995,-1.322266,3199.0,0.0157497956666666,-0.05501317,0.0017402776666666,0.0109214456666666,-1.2579596666666666,-0.025735656,39270.0,28815.0,10010.0,7.0,43.0,-28.0,0,None
2023-01-03 18:20:17.600,220.695,0.5,74.0,1143.0,22554.0,4729.0,99.0,1220.0,83.0,4893.0,99.20683,0.2372012,-0.0031266365,0.01977029,-1.2827134999999998,39.26,0.0031696945,0.02558843,-1.2804485,0.5523779,1.102445,6.170677,11.0,21.0,60.0,-34.0,13.0,279.0,-1098.0,-4.0,310.0,1017.992,-1.325703,3199.0,0.0031696945,-0.011218774,0.02558843,0.039624695,-1.2804485,-0.0722230849999999,39260.0,28669.0,10000.0,2.0,36.0,-28.0,0,None
2023-01-03 18:20:18.150,221.215,0.5200000000000102,74.0,1170.0,22695.0,4882.0,99.0,1143.0,84.0,4869.0,93.49467,0.2616099,0.007318097,0.0206325933333333,-1.2985696666666666,39.26,0.01266903,0.02547175,-1.295383333333333,0.5286053,1.209423,5.857355,-3.0,35.0,55.0,28.0,-5.0,269.0,-1097.0,10.0,314.0,1018.034,-1.283203,3201.0,0.01266903,0.0228950433333333,0.02547175,-0.011351426,-1.295383333333333,-0.0230712004,39260.0,28579.0,10000.0,5.0,32.0,-29.0,0,None
2023-01-03 18:20:18.700,221.715,0.5,73.0,1170.0,22708.0,4854.0,99.0,1124.0,86.0,4882.0,86.63021,0.2985752,-0.0045489035,0.010890545,-1.302462,39.27,0.0006023375,0.01512078,-1.298079,0.3809442,1.258789,5.279637,9.0,12.0,57.0,-19.0,10.0,254.0,-1004.0,0.0,282.0,1017.998,-1.319766,3201.0,0.0006023375,-0.0508533449999999,0.01512078,0.0021973399999999,-1.298079,0.0093820615,39260.0,28562.0,10000.0,8.0,30.0,-29.0,0,None
2023-01-03 18:20:19.250,222.215,0.5,73.0,1132.0,22570.0,4875.0,99.0,1189.0,88.0,4879.0,83.11019,0.3227177,-0.0136441399999999,0.01250987,-1.30207,39.26333333333333,-0.0082800793333333,0.0181694833333333,-1.2968966666666668,0.3887944,0.6901755,5.07602,-5.0,31.0,55.0,-71.0,15.0,260.0,-1041.0,-27.0,307.0,1018.012,-1.305391,3202.0,-0.0082800793333333,0.0104524916666666,0.0181694833333333,-6.532599999999981e-05,-1.2968966666666668,0.0125709073333333,39260.0,28571.0,10000.0,9.0,18.0,-30.0,0,None
2023-01-03 18:20:19.800,222.716,0.5010000000000048,73.0,1186.0,22662.0,4850.0,99.0,1152.0,89.0,4891.0,78.66852,0.355842,0.0023523285,0.01332162,-1.3026825,39.26,0.0076572394999999,0.018236565,-1.2958455,0.3234916,1.521766,5.575755,9.0,-52.0,49.0,-30.0,36.0,269.0,-1109.0,30.0,318.0,1018.035,-1.283047,3203.0,0.0076572394999999,0.05175278,0.018236565,-0.02719091,-1.2958455,-0.016457095,39260.0,28577.0,10000.0,15.0,9.0,-29.0,0,None
2023-01-03 18:20:20.350,223.236,0.5199999999999818,73.0,1182.0,22591.0,4737.0,99.0,1239.0,91.0,4719.0,74.80076,0.3865083,0.0140262066666666,0.0009347169999999,-1.2977653333333334,39.223333333333336,0.01938663,0.0058316739999999,-1.2892503333333332,0.2991859,0.8097097,3.748089,-20.0,-58.0,53.0,-42.0,14.0,249.0,-1042.0,-16.0,297.0,1018.008,-1.309453,3204.0,0.01938663,0.00747943,0.0058316739999999,-0.015457953,-1.2892503333333332,0.0305500733333333,39230.0,28608.0,9970.0,15.0,9.0,-28.0,0,None
2023-01-03 18:20:20.900,223.735,0.4990000000000236,73.0,1120.0,22688.0,4877.0,99.0,1137.0,93.0,4882.0,72.90285,0.4064118,0.018033945,-0.0094081455,-1.2906655,39.21,0.02302312,-0.0037118194999999,-1.281316,0.4404966,1.301124,4.067756,6.0,-12.0,47.0,-24.0,-14.0,263.0,-1092.0,-7.0,316.0,1018.042,-1.275937,3205.0,0.02302312,0.0040503305,-0.0037118194999999,-0.0093680274999999,-1.281316,0.0105575529999999,39210.0,28659.0,9950.0,9.0,12.0,-24.0,0,None
2023-01-03 18:20:21.450,224.236,0.5009999999999764,73.0,1253.0,22645.0,4867.0,99.0,1177.0,94.0,4850.0,71.16768,0.4348924,0.0148808133333333,-0.0072472443333333,-1.293996666666667,39.20333333333333,0.0211820166666666,-0.00096836,-1.2835133333333333,0.4832656,0.9376248,3.010145,1.0,-18.0,35.0,-56.0,4.0,218.0,-1074.0,-33.0,282.0,1018.021,-1.29625,3205.0,0.0211820166666666,-0.009498495,-0.00096836,0.0127805733333333,-1.2835133333333333,-0.02193204,39200.0,28652.0,9940.0,3.0,12.0,-25.0,0,None
2023-01-03 18:20:22.000,224.735,0.4990000000000236,72.0,1154.0,22510.0,4871.0,99.0,1228.0,96.0,4882.0,70.51816,0.4526704,0.0027818813,-0.0030787436649999,-1.3098195,39.205,0.0090981335,0.0030984308,-1.2977385,0.5178653,0.9284663,2.701798,-22.0,14.0,44.0,-5.0,17.0,299.0,-1078.0,-48.0,344.0,1018.029,-1.288906,3207.0,0.0090981335,-0.021834676,0.0030984308,0.005213485,-1.2977385,-0.026964385,39200.0,28569.0,9940.0,0.0,10.0,-25.0,0,None
2023-01-03 18:20:22.550,225.236,0.5009999999999764,72.0,1224.0,22682.0,4851.0,99.0,1138.0,98.0,4890.0,69.80247,0.476672,0.0058427983333333,-0.0080306046666666,-1.3178173333333334,39.22666666666666,0.0122070626666666,-0.001779422,-1.304209,0.5753717,0.8965695,2.799382,-11.0,-1.0,46.0,-3.0,37.0,232.0,-1022.0,-21.0,278.0,1018.024,-1.293828,3208.0,0.0122070626666666,0.0230327133333333,-0.001779422,-0.03077064,-1.304209,0.018626534,39230.0,28521.0,9970.0,-1.0,6.0,-24.0,0,None
2023-01-03 18:20:23.100,225.9855,0.5,72.0,1215.5,22627.5,4872.0,99.0,1212.5,100.0,4882.0,69.11988,0.5005884,0.0139326449999999,-0.0093196801666666,-1.3171866666666667,39.22166666666666,0.0204478675,-0.0034438809666666,-1.302307,0.308468,0.9576419,3.5597955,9.5,44.0,41.0,-40.5,-40.0,270.0,-1100.0,-23.5,334.0,1018.0215,-1.29625,3208.5,0.0204478675,-0.00408285825,-0.0034438809666666,0.0235066624999999,-1.302307,-0.0196020616666666,39220.0,28544.5,9960.0,-11.0,0.0,-26.5,0,None
2023-01-03 18:20:23.650,226.735,0.4990000000000236,72.0,1281.0,22616.0,4869.0,99.0,1190.0,103.0,4882.0,68.7381,0.5225878,0.013566805,0.033632195,-1.3452055,39.23,0.019438335,0.03837928,-1.3285715,0.2787615,1.22507,2.283649,-11.0,2.0,23.0,9.0,-46.0,258.0,-1131.0,-31.0,256.0,1018.038,-1.279766,3210.0,0.019438335,0.011106645,0.03837928,0.0435477549999999,-1.3285715,-0.001180855,39230.0,28384.0,9970.0,-9.0,-1.0,-26.0,0,None
2023-01-03 18:20:24.200,227.236,0.5009999999999764,72.0,1248.0,22487.0,4721.0,99.0,1246.0,104.0,4891.0,68.52498,0.542458,0.0282265233333333,0.0209288633333333,-1.3346203333333335,39.23,0.0341314633333333,0.02616344,-1.3161473333333331,0.385397,1.212072,4.0879,0.0,-35.0,28.0,-34.0,-9.0,297.0,-1075.0,45.0,343.0,1018.049,-1.268984,3211.0,0.0341314633333333,0.0321239013333333,0.02616344,-0.0189926999999999,-1.3161473333333331,0.0298329733333333,39230.0,28456.0,9970.0,7.0,3.0,-27.0,0,None
2023-01-03 18:20:24.750,227.735,0.4990000000000236,71.0,1212.0,22626.0,4879.0,99.0,1178.0,106.0,4858.0,68.47993,0.5572276,0.027650525,0.0030218364999999,-1.3243165,39.22,0.03285963,0.0091836749999999,-1.3035205,0.2412697,1.202796,1.645262,-1.0,-44.0,37.0,-53.0,19.0,286.0,-1038.0,-12.0,368.0,1018.002,-1.315313,3212.0,0.03285963,-0.019187715,0.0091836749999999,-0.042487085,-1.3035205,-0.017425259,39220.0,28538.0,9960.0,8.0,9.0,-25.0,0,None
2023-01-03 18:20:25.300,228.236,0.5009999999999764,71.0,1236.0,22631.0,4880.0,99.0,1257.0,108.0,4742.0,68.6475,0.5807449,0.0295980333333333,-0.0020357026666666,-1.331819,39.22666666666666,0.0354585566666666,0.0036079376333333,-1.3089126666666668,0.4114666,0.8322753,3.938228,4.0,45.0,31.0,-24.0,-57.0,265.0,-1111.0,1.0,348.0,1018.018,-1.299531,3213.0,0.0354585566666666,-0.0143011066666666,0.0036079376333333,0.0180029766666666,-1.3089126666666668,-0.0100830899999999,39230.0,28500.0,9970.0,3.0,16.0,-23.0,0,None
2023-01-03 18:20:25.850,228.735,0.4990000000000236,71.0,1524.0,22557.0,4885.0,99.0,1198.0,109.0,4869.0,68.8688,0.5969895,-0.00666295,0.013996535,-1.3294845,39.235,0.0004129449999999,0.01975421,-1.3053005,0.3241009,1.087423,3.680156,-13.0,74.0,53.0,-48.0,-337.0,241.0,-1176.0,-6.0,303.0,1018.033,-1.284219,3214.0,0.0004129449999999,-0.2224357,0.01975421,0.042354775,-1.3053005,0.035201655,39230.0,28520.0,9970.0,-1.0,19.0,-22.0,0,None
2023-01-03 18:20:26.400,229.236,0.5009999999999764,71.0,1484.0,22535.0,4883.0,99.0,1470.0,111.0,4900.0,69.04224,0.6233804,-0.1292860566666666,0.0152770933333333,-1.3154466666666669,39.406666666666666,-0.1205448866666666,0.0210202766666666,-1.289791,0.415676,1.115593,2.576904,-23.0,55.0,78.0,-23.0,-124.0,256.0,-1248.0,62.0,285.0,1017.953,-1.364141,3214.0,-0.1205448866666666,-0.1696874,0.0210202766666666,-0.01157078,-1.289791,0.0547791666666666,39370.0,28597.0,10110.0,12.0,-20.0,28.0,0,None
2023-01-03 18:20:26.950,229.735,0.4990000000000236,71.0,1299.0,22472.0,4708.0,99.0,1529.0,114.0,4748.0,69.39973,0.64297,-0.18525085,0.004170676,-1.2948125,39.885,-0.1754261,0.008512738,-1.2673804999999998,0.4157445,1.588683,7.71413,-25.0,28.0,116.0,-32.0,6.0,258.0,-1077.0,-18.0,292.0,1017.899,-1.418359,3215.0,-0.1754261,-0.026177643,0.008512738,-0.0094403,-1.2673804999999998,0.039203279,39860.0,28742.0,10600.0,41.0,-109.0,81.0,0,None
2023-01-03 18:20:27.500,230.236,0.5009999999999764,71.0,1389.0,22574.0,4888.0,99.0,1312.0,115.0,4893.0,70.13837,0.6706118,-0.1765174333333333,0.013439169,-1.298825,40.49,-0.1684829,0.01722555,-1.2700686666666667,0.4872596,0.8441324,6.929882,-35.0,-8.0,112.0,-16.0,29.0,266.0,-1071.0,-48.0,260.0,1017.862,-1.455234,3216.0,-0.1684829,0.0356424966666666,0.01722555,0.0042290813333333,-1.2700686666666667,-0.0153569933333333,40470.0,28730.0,11210.0,68.0,-201.0,84.0,0,None
2023-01-03 18:20:28.050,230.735,0.4990000000000236,70.0,1582.0,22500.0,4854.0,99.0,1409.0,117.0,4879.0,70.63808,0.6872772,-0.1561795,0.012081383,-1.306654,41.05,-0.1496058,0.0143169699999999,-1.276451,0.3604864,0.8469329,3.522777,-46.0,-67.0,94.0,-49.0,62.0,269.0,-1147.0,-14.0,348.0,1017.759,-1.558906,3217.0,-0.1496058,0.047321515,0.0143169699999999,-0.0308038699999999,-1.276451,-0.03261679,41030.0,28691.0,11770.0,96.0,-279.0,85.0,0,None
2023-01-03 18:20:28.600,231.505,0.5099999999999909,70.0,1547.0,22508.5,4884.0,99.0,1584.5,121.0,4877.0,71.50789,0.71762885,-0.1398102666666666,0.0051137010166666,-1.3026601666666666,42.1775,-0.1358757333333333,0.0084997873333333,-1.2702732499999998,0.45379045,1.3116690000000002,4.985973,-27.5,-47.0,104.5,-13.5,9.5,254.5,-1095.5,2.5,318.5,1017.611,-1.7065625,3218.5,-0.1358757333333333,-0.0185944708666667,0.0084997873333333,0.0066037249999999,-1.2702732499999998,0.0218418796666666,42130.0,28721.5,12870.0,124.5,-378.5,141.0,0,None
2023-01-03 18:20:29.150,232.255,0.5,70.0,1360.0,22409.0,4743.0,99.0,1591.0,124.0,4722.0,72.25154,0.7441984,-0.1550444666666666,-0.001942309,-1.3089066666666669,43.61666666666667,-0.1510449666666666,0.0009614506666666,-1.277467666666667,0.4188022,1.175307,6.501256,-43.0,-50.0,104.0,-33.0,-136.0,239.0,-1135.0,-18.0,312.0,1017.509,-1.808437,3220.0,-0.1510449666666666,-0.0135684219999999,0.0009614506666666,-0.0006117926666666,-1.277467666666667,0.0025252253333333,43580.0,28672.0,14320.0,147.0,-465.0,162.0,0,None
2023-01-03 18:20:29.700,232.755,0.5,70.0,1398.0,22554.0,4882.0,99.0,1426.0,126.0,4888.0,72.52091,0.7558476,-0.18492275,-0.0172948949999999,-1.316037,44.58,-0.1820861,-0.012132456,-1.283421,0.426508,1.174374,4.27127,-48.0,-2.0,120.0,3.0,-16.0,273.0,-1093.0,-12.0,297.0,1017.413,-1.904219,3220.0,-0.1820861,-0.0391687,-0.012132456,0.017137065,-1.283421,-0.020246685,44540.0,28646.0,15280.0,156.0,-526.0,157.0,0,None
2023-01-03 18:20:30.250,233.255,0.5,69.0,1273.0,22572.0,4883.0,99.0,1392.0,128.0,4895.0,72.81004,0.7717531,-0.1887451999999999,-0.0071462983333333,-1.333864333333333,45.50333333333333,-0.1845319,-0.00233727,-1.301493,0.450119,1.100645,6.358718,-109.0,105.0,121.0,-2.0,-125.0,238.0,-1155.0,-70.0,275.0,1017.272,-2.045781,3221.0,-0.1845319,0.0551756613333333,-0.00233727,0.01333216,-1.301493,-0.03501939,45470.0,28542.0,16210.0,159.0,-594.0,159.0,0,None
2023-01-03 18:20:30.800,233.755,0.5,69.0,1236.0,22451.0,4883.0,99.0,1464.0,130.0,4887.0,72.9003,0.7810019,-0.1823918,0.0106605125,-1.340602,46.425,-0.1784294,0.015190645,-1.3083695,0.4943288,1.458705,7.523213,-110.0,14.0,108.0,-50.0,0.0,247.0,-1075.0,3.0,290.0,1017.171,-2.146406,3222.0,-0.1784294,0.011156685,0.015190645,0.0050536719999999,-1.3083695,-0.025704675,46390.0,28501.0,17130.0,164.0,-650.0,160.0,0,None
2023-01-03 18:20:31.350,234.255,0.5,69.0,1308.0,22556.0,4887.0,99.0,1432.0,132.0,4890.0,72.8581,0.7920888,-0.1882583666666666,0.0218565733333333,-1.329385,47.34666666666666,-0.1851431999999999,0.0255614033333333,-1.2964703333333334,0.7128624,1.445369,9.700027,-75.0,41.0,120.0,-8.0,-53.0,275.0,-1122.0,28.0,294.0,1017.073,-2.244688,3223.0,-0.1851431999999999,0.0379073066666666,0.0255614033333333,0.0127330699999999,-1.2964703333333334,-0.003976977,47310.0,28576.0,18050.0,180.0,-697.0,159.0,0,None
2023-01-03 18:20:31.900,234.755,0.5,69.0,1366.0,22520.0,4882.0,99.0,1345.0,134.0,4743.0,72.73431,0.798108,-0.1952162,0.021285625,-1.3273585,48.24,-0.19235315,0.02434559,-1.2930595,0.5769851,1.557873,6.640835,-113.0,18.0,116.0,-47.0,-14.0,242.0,-1079.0,3.0,235.0,1016.912,-2.405703,3224.0,-0.19235315,-0.026659805,0.02434559,-0.005622411,-1.2930595,0.0101098905,48210.0,28594.0,18950.0,194.0,-742.0,161.0,0,None
2023-01-03 18:20:32.450,235.255,0.5,69.0,1357.0,22579.0,4883.0,99.0,1363.0,135.0,4888.0,72.35246,0.8067122,-0.1916940333333333,0.0189396566666666,-1.334125,49.16333333333333,-0.1885379666666666,0.0236146733333333,-1.2999543333333332,0.5869281,1.613306,7.039511,-116.0,48.0,117.0,-34.0,129.0,211.0,-987.0,-21.0,240.0,1016.808,-2.509687,3225.0,-0.1885379666666666,0.01745784,0.0236146733333333,-0.0064100233333333,-1.2999543333333332,0.0229485966666666,49130.0,28548.0,19870.0,205.0,-788.0,156.0,0,None
2023-01-03 18:20:33.000,235.755,0.5,69.0,1319.0,22537.0,4882.0,99.0,1300.0,137.0,4882.0,71.99213,0.8120684,-0.1762072,0.025862145,-1.333587,50.125,-0.1736211,0.031061295,-1.2986775000000002,0.6041908,1.876613,10.15557,-127.0,74.0,104.0,-21.0,76.0,260.0,-1205.0,-32.0,297.0,1016.714,-2.603437,3225.0,-0.1736211,0.07883497,0.031061295,0.06068389,-1.2986775000000002,0.0207919485,50090.0,28558.0,20830.0,215.0,-830.0,159.0,0,None
2023-01-03 18:20:33.550,236.255,0.5,69.0,1700.0,22342.0,4883.0,99.0,1313.0,139.0,4883.0,71.34443,0.8205405,-0.171652,0.0403662,-1.3322773333333335,51.04333333333333,-0.1704562333333333,0.0454985133333333,-1.2965313333333333,0.7616162,1.408626,10.95968,-111.0,47.0,98.0,-12.0,59.0,291.0,-974.0,9.0,319.0,1016.457,-2.860312,3226.0,-0.1704562333333333,0.0036166633333333,0.0454985133333333,-0.0164612333333333,-1.2965313333333333,0.0138752633333333,51000.0,28576.0,21740.0,226.0,-861.0,151.0,0,None
2023-01-03 18:20:34.100,237.005,0.5,68.5,1593.0,22481.5,4877.0,99.0,1676.0,142.5,4877.0,70.55343500000001,0.83293165,-0.1488789333333333,0.0359134191666666,-1.33410425,52.51,-0.1473893499999999,0.0408680633333333,-1.2969079166666668,0.56157225,1.8007019999999998,11.037215,-109.75,26.75,105.25,-63.75,16.25,253.5,-1016.75,3.75,265.0,1016.333,-2.9847655,3227.5,-0.1473893499999999,0.0450803331666666,0.0408680633333333,-0.0028489751666666,-1.2969079166666668,0.003567955,52470.0,28572.0,23210.0,248.5,-899.0,153.0,0,None
2023-01-03 18:20:34.650,237.555,0.0999999999999999,68.0,1441.0,22514.0,4882.0,99.0,1540.6,146.8,4884.8,69.96279799999999,0.84484012,-0.1232514999999999,0.039498105,-1.3401915,53.99,-0.12203135,0.044983875,-1.3015884999999998,0.60163868,1.3464228,8.587069399999999,-110.8,-9.8,96.4,-48.8,11.2,264.4,-1122.8,-4.8,290.4,1016.2138,-3.103828,3228.4,-0.12203135,0.0963100385,0.044983875,0.00273495,-1.3015884999999998,-0.0010065379999999,53950.0,28538.0,24690.0,264.0,-927.0,147.0,0,None
2023-01-03 18:20:35.200,238.1183333333333,0.103333333333334,68.0,1389.0,22535.0,4880.0,99.0,1314.0,148.83333333333334,4887.333333333333,69.40133,0.8609466333333332,-0.1154715,0.0322752433333333,-1.340207,54.97666666666667,-0.1149688,0.03850363,-1.3004083333333332,0.6508599166666668,1.6830301666666667,9.750878166666666,-121.5,7.666666666666667,88.5,-47.5,90.66666666666669,275.1666666666667,-1042.6666666666667,-1.0,309.5,1016.1516666666666,-3.166184666666666,3229.5,-0.1149688,0.0218217219999999,0.03850363,0.000508509,-1.3004083333333332,-0.0062294016666666,54950.0,28550.0,25690.0,267.0,-932.0,150.0,0,None
2023-01-03 18:20:35.750,238.675,0.0999999999999999,68.0,1170.0,22501.0,4858.0,99.0,1191.8,150.6,4794.0,68.886436,0.88060404,-0.0350846073333333,0.0378285366666666,-1.3375486666666667,56.05,-0.034833755,0.0441898766666666,-1.2958086666666668,0.72801266,1.5227928000000002,9.0374734,-123.4,25.0,68.6,-51.0,-1193.1,270.2,-1055.4,-8.4,305.2,1016.1152,-3.2023906,3230.2,-0.034833755,0.2461913,0.0441898766666666,0.0295520866666666,-1.2958086666666668,0.0031292566666666,55860.0,28574.0,26600.0,263.0,-924.0,146.0,1,27_ygyro_avg_abrupt_-1409.1
2023-01-03 18:20:36.300,239.2253333333333,0.1001666666666665,68.0,1103.0,22527.0,4882.0,99.0,1128.5,152.5,4882.0,68.53819,0.9057575333333332,0.1001340766666666,0.0456727399999999,-1.3306073333333333,56.97,0.0981480933333333,0.0538080866666666,-1.286952,0.77642385,1.2620965,7.925078,-99.83333333333331,17.666666666666668,28.83333333333333,-41.66666666666666,-1266.1,269.0,-1020.8333333333334,4.5,324.3333333333333,1016.0858333333332,-3.2318486666666666,3231.333333333333,0.0981480933333333,0.15904663,0.0538080866666666,0.0173523919999999,-1.286952,0.0046271553333333,56995.0,28621.0,27735.0,241.0,-830.5,128.0,1,27_ygyro_avg_abrupt_-1409.1
2023-01-03 18:20:36.850,239.776,0.0999999999999999,68.0,1010.0,22643.0,4854.0,99.0,1046.0,154.2,4857.8,68.34772799999999,0.93687144,0.11566325,0.0514548249999999,-1.332509,57.540000000000006,0.1126815999999999,0.05924592,-1.2855185,0.6081046599999999,1.18618798,7.2021984,-83.0,8.0,23.4,-33.2,-1448.3,276.4,-983.8,-7.8,310.2,1015.955,-3.3626718,3232.2,0.1126815999999999,-0.042506585,0.05924592,-0.03101394,-1.2855185,-0.00942532,57740.0,28628.0,28480.0,212.0,-700.0,46.0,1,27_ygyro_avg_abrupt_-1409.1
2023-01-03 18:20:37.400,240.32916666666665,0.099999999999999,68.0,1087.0,22606.0,4888.0,99.0,966.6666666666666,155.66666666666666,4885.333333333333,68.13269,0.9728556666666668,0.1088999666666666,0.0494295266666666,-1.3373133333333334,57.8,0.1085824999999999,0.0596681433333333,-1.2861123333333333,0.7931276833333333,1.4353518333333335,6.4023563333333335,-73.16666666666667,-5.0,22.166666666666668,-33.5,-1357.9333333333332,266.1666666666667,-943.0,10.666666666666666,308.5,1015.8801666666668,-3.4373826666666667,3232.833333333333,0.1085824999999999,0.0194391466666666,0.0596681433333333,0.0017013653333333,-1.2861123333333333,0.0019033799999999,57850.0,28673.0,28590.0,195.0,-622.0,-6.0,1,27_ygyro_avg_abrupt_-1409.1
2023-01-03 18:20:37.950,240.9,0.108000000000004,68.0,1075.0,22597.0,4877.0,99.0,1097.4,157.6,4846.6,67.865776,1.01006388,0.1180007666666666,0.03825316,-1.321314,57.85333333333333,0.1186244666666666,0.0489995233333333,-1.265213666666667,0.61532846,1.8833522,13.441944,-48.5,-1.3,25.7,-33.7,-1384.6,266.2,-1060.3,44.8,318.0,1015.8333,-3.4843592,3233.8,0.1186244666666666,0.0184613126666666,0.0489995233333333,-0.0052243536666666,-1.265213666666667,0.023409915,57860.0,28802.0,28600.0,172.0,-540.0,-16.0,1,27_ygyro_avg_abrupt_-1409.1
2023-01-03 18:20:38.500,241.42,0.0999999999999999,68.0,1090.0,22503.0,4740.0,99.0,1070.6,159.2,4846.8,67.569988,1.0424012,0.10407624,0.0418024166666666,-1.3118603333333334,57.906666666666666,0.1068440099999999,0.0544462866666666,-1.2515296666666669,0.56888548,1.7805996,14.150854,-57.0,22.2,32.4,-52.4,-1445.5,265.2,-1051.6,0.0,313.0,1015.823,-3.4947968000000005,3235.0,0.1068440099999999,-0.03422064,0.0544462866666666,0.0304384449999999,-1.2515296666666669,-0.010608746,57910.0,28832.0,28650.0,151.0,-469.0,-25.0,1,27_ygyro_avg_abrupt_-1409.1
2023-01-03 18:20:39.050,241.92400000000004,0.1039999999999963,68.0,1097.0,22623.0,4883.0,99.0,1141.2,160.6,4888.2,67.15710000000001,1.0802742,0.082999005,0.048948215,-1.3145945,57.96,0.0872677749999999,0.06238987,-1.2503395,0.49235308,2.0222686,14.834694,-30.8,18.0,34.0,-52.4,-1407.8999999999999,277.0,-1073.4,-12.8,307.6,1015.764,-3.5536718,3235.8,0.0872677749999999,0.015762777,0.06238987,0.0386751395,-1.2503395,-0.0003661689999999,57970.0,28831.0,28710.0,137.0,-411.0,-25.0,1,27_ygyro_avg_abrupt_-1409.1
2023-01-03 18:20:39.600,242.486,0.099999999999999,68.0,1216.0,22549.5,4875.5,98.33333333333331,1186.6666666666667,162.5,4839.0,66.67575666666666,1.1204619999999998,0.1085944599999999,0.0391982733333333,-1.3226953333333331,58.02,0.1128383133333333,0.0514824733333333,-1.255815,0.5174747000000001,1.938235333333333,12.62295,-32.333333333333336,25.666666666666668,19.33333333333333,-58.16666666666666,-1332.4333333333332,264.6666666666667,-1125.6666666666667,-0.3333333333333333,311.8333333333333,1015.7713333333332,-3.546367,3236.6666666666665,0.1128383133333333,0.07860879,0.0514824733333333,0.020504352,-1.255815,-0.0037544966666666,58030.0,28786.0,28770.0,124.0,-355.0,-33.0,1,27_ygyro_avg_abrupt_-1409.1
2023-01-03 18:20:40.150,243.05600000000004,0.108000000000004,68.0,1611.0,22475.0,4859.0,98.0,1378.8,164.4,4890.2,66.184196,1.1563414,0.1220067666666666,0.0588444666666666,-1.3036893333333333,58.19,0.1251536,0.07093241,-1.234821,0.50757758,1.46381382,10.3432702,-47.0,-17.8,19.2,-51.2,-1470.5,268.8,-1120.2,25.2,303.2,1015.7408,-3.5771404,3237.4,0.1251536,-0.043372727,0.07093241,0.0341692,-1.234821,0.024801115,58170.0,28925.0,28910.0,114.0,-276.0,-3.0,1,27_ygyro_avg_abrupt_-1409.1
2023-01-03 18:20:40.700,243.626,0.099999999999999,68.0,1402.0,22357.0,4883.0,98.0,1340.0,166.5,4863.833333333333,65.66243,1.1893,0.0980293466666666,0.03376556,-1.3028856666666668,58.56666666666666,0.1013665733333333,0.0467362733333333,-1.233148666666667,0.3707302999999999,2.205471333333333,9.476213833333334,-40.333333333333336,-9.333333333333334,27.5,-59.66666666666666,-1402.2666666666667,263.1666666666667,-1121.6666666666667,-11.333333333333334,311.3333333333333,1015.6945,-3.623033833333333,3238.333333333333,0.1013665733333333,0.0219481599999999,0.0467362733333333,-0.0116226133333333,-1.233148666666667,0.0043231666666666,58470.0,28935.0,29210.0,100.0,-207.0,27.0,1,27_ygyro_avg_abrupt_-1409.1
2023-01-03 18:20:41.250,244.204,0.1079999999999983,68.0,1313.0,22554.0,4887.0,98.0,1282.6,168.6,4884.6,65.10396800000001,1.2207994000000002,0.1212233,0.04397643,-1.317596,58.995,0.1250956,0.05718457,-1.2473065,0.4616517599999999,1.6939845999999998,9.290128800000002,-32.0,16.5,20.4,-25.1,-1358.5,260.8,-1065.7,-59.3,299.8,1015.6677,-3.6498672,3239.3,0.1250956,0.0374727,0.05718457,0.04238396,-1.2473065,-0.049650115,58880.0,28891.0,29620.0,81.0,-151.0,38.0,1,27_ygyro_avg_abrupt_-1409.1
2023-01-03 18:20:41.800,244.716,0.0999999999999999,68.0,1315.0,22501.0,4883.0,98.0,1257.0,170.6,4883.2,64.54384200000001,1.2496098,0.1304575666666666,0.0329091666666666,-1.3444283333333331,59.373333333333335,0.1339984333333333,0.0457213166666666,-1.2736409999999998,0.46765398,1.4629329,7.460935599999999,-11.2,-28.6,6.8,-44.8,-1401.1,268.6,-1040.6,-7.4,304.2,1015.6696,-3.6482968,3240.0,0.1339984333333333,-0.0007840286666666,0.0457213166666666,-0.0274604433333333,-1.2736409999999998,-0.0600542966666666,59290.0,28736.0,30030.0,66.0,-85.0,33.0,1,27_ygyro_avg_abrupt_-1409.1
2023-01-03 18:20:42.350,245.266,0.099999999999999,68.0,986.0,22518.0,4890.0,98.0,1063.5,172.33333333333334,4884.0,63.96464499999999,1.2786498333333334,0.1136959666666666,0.0123911106666666,-1.3540673333333333,59.64666666666667,0.1178091333333333,0.0255526033333333,-1.283333,0.4088852,1.160477166666667,7.034580333333333,-4.0,-35.5,14.166666666666666,-61.5,-1469.9333333333332,266.0,-976.1666666666666,4.5,327.8333333333333,1015.6473333333332,-3.6702995,3240.833333333333,0.1178091333333333,-0.0567282133333333,0.0255526033333333,-0.03534185,-1.283333,0.007061202,59610.0,28647.0,30350.0,48.0,-26.0,13.0,1,27_ygyro_avg_abrupt_-1409.1
2023-01-03 18:20:42.900,245.81600000000003,0.0999999999999999,68.0,1177.0,22570.0,4882.0,98.0,1236.2,174.0,4873.2,63.453424,1.30717,0.06559878,-0.0038138549999999,-1.3590185,59.63,0.07035662,0.009623961,-1.289188,0.52398644,1.1159519,8.8431298,-3.4,5.6,26.4,-56.4,-1514.1,254.6,-1065.4,-34.0,322.4,1015.6082,-3.7093436,3241.8,0.07035662,-0.11193915,0.009623961,0.017786977,-1.289188,-0.0237262099999999,59660.0,28647.0,30400.0,29.0,12.0,-30.0,1,27_ygyro_avg_abrupt_-1409.1
2023-01-03 18:20:43.450,246.3668333333333,0.1003333333333339,68.0,1118.0,22549.0,4737.0,98.0,1136.1666666666667,175.83333333333334,4881.5,63.082593333333335,1.3353946666666667,0.0254664466666666,0.0040162913333333,-1.3738033333333333,59.60999999999999,0.03156434,0.0166308526666666,-1.3057256666666668,0.5669851666666667,1.1091638833333335,9.806867333333331,25.5,54.0,34.166666666666664,-46.333333333333336,-1371.2666666666667,267.1666666666667,-1056.3333333333333,6.166666666666667,309.1666666666667,1015.6375,-3.680143166666666,3242.6666666666665,0.03156434,0.0034619266666666,0.0166308526666666,0.0374237633333333,-1.3057256666666668,-0.0394674933333333,59615.0,28525.0,30355.0,7.0,23.5,-32.5,1,27_ygyro_avg_abrupt_-1409.1
2023-01-03 18:20:44.000,246.922,0.104000000000002,68.0,1248.0,22578.0,4872.0,98.0,1248.8,177.6,4881.2,62.87635,1.3612382,0.06184459,0.0197792366666666,-1.3699286666666666,59.6,0.0681238466666666,0.0312115433333333,-1.3025203333333335,0.5226930999999999,1.027248675,9.713769,8.0,-25.8,27.6,-56.6,-1343.6999999999998,270.8,-1036.2,31.6,326.8,1015.632,-3.6855466,3243.6,0.0681238466666666,0.0722746893333333,0.0312115433333333,-0.0134851266666666,-1.3025203333333335,0.0264732233333333,59590.0,28578.0,30330.0,-4.0,30.0,-30.0,1,27_ygyro_avg_abrupt_-1409.1
2023-01-03 18:20:44.550,247.438,0.0999999999999999,68.0,1206.0,22541.0,4879.0,98.0,1195.8,179.4,4789.0,62.762694,1.3878568,0.07186996,0.02080794,-1.356157,59.59,0.07585324,0.032338665,-1.2900245,0.5277138,1.19542052,10.7307384,11.6,26.0,21.4,-67.4,-1431.6999999999998,275.0,-1077.4,9.8,324.6,1015.613,-3.7049218,3244.2,0.07585324,-0.02123994,0.032338665,0.01046847,-1.2900245,-0.0074572899999999,59590.0,28615.0,30330.0,-16.0,47.0,-27.0,1,27_ygyro_avg_abrupt_-1409.1
2023-01-03 18:20:45.100,247.9946666666667,0.103333333333334,68.0,1130.5,22537.0,4881.5,98.0,1151.8333333333333,181.16666666666663,4877.5,62.81208666666666,1.4129768333333337,0.0482213925,0.0293996675,-1.360739,59.61,0.0527634625,0.040232915,-1.2950555,0.40032865,1.6755678333333333,9.120428,12.666666666666666,21.5,32.0,-43.66666666666666,-1438.7666666666667,252.8333333333333,-1071.0,-1.1666666666666667,286.8333333333333,1015.6,-3.7177211666666654,3245.0,0.0527634625,-0.0247644449999999,0.040232915,0.011925692475,-1.2950555,-0.0130545727499999,59620.0,28574.0,30360.0,-21.0,55.0,-25.0,1,27_ygyro_avg_abrupt_-1409.1
2023-01-03 18:20:45.650,248.558,0.0999999999999999,68.0,1193.0,22542.0,4877.0,98.0,1194.2,183.0,4885.8,62.872938,1.436841,0.033362035,0.041024095,-1.362796,59.62,0.037821495,0.05122721,-1.2983924999999998,0.52312014,0.8592369799999998,6.980551199999999,21.6,20.0,36.0,-63.8,-1432.3,275.2,-1086.0,6.6,305.8,1015.6126,-3.7050936,3246.0,0.037821495,0.0086377325,0.05122721,-0.004798999,-1.2983924999999998,-0.0063370155,59630.0,28562.0,30370.0,-19.0,55.0,-31.0,1,27_ygyro_avg_abrupt_-1409.1
2023-01-03 18:20:46.200,249.111,0.099999999999999,68.0,1133.0,22562.0,4888.0,98.0,1157.8333333333333,184.8333333333333,4880.333333333333,62.83098,1.4609793333333334,0.0199084733333333,0.03769105,-1.359851,59.62,0.0245983666666666,0.0479182333333333,-1.295446,0.4977142333333333,1.3637429,7.969159833333333,11.5,-18.0,36.333333333333336,-37.333333333333336,-1416.4333333333332,272.5,-1080.6666666666667,6.0,309.1666666666667,1015.632,-3.6855466666666654,3246.833333333333,0.0245983666666666,-0.0161005566666666,0.0479182333333333,-0.0219169693333333,-1.295446,0.0167452266666666,59630.0,28576.0,30370.0,-12.0,53.0,-30.0,1,27_ygyro_avg_abrupt_-1409.1
2023-01-03 18:20:46.750,249.658,0.0999999999999999,68.0,1144.0,22616.0,4880.0,98.0,1116.8,186.6,4888.6,62.72029199999999,1.4850772,0.0146783066666666,0.02818539,-1.361559,59.61666666666667,0.0192912066666666,0.03946465,-1.297366,0.53005616,1.2388247800000003,7.844618800000001,6.2,2.4,40.4,-38.2,-1378.8999999999999,266.8,-1071.2,-27.8,311.8,1015.6138,-3.7038438,3247.4,0.0192912066666666,0.0152815133333333,0.03946465,-0.001990279,-1.297366,-0.008279862,59620.0,28580.0,30360.0,-7.0,44.0,-30.0,1,27_ygyro_avg_abrupt_-1409.1
2023-01-03 18:20:47.300,250.22466666666665,0.103333333333334,68.0,1046.0,22509.0,4888.0,98.0,1080.6666666666667,188.16666666666663,4865.0,62.56697499999999,1.5074360000000002,0.0087155026666666,0.0285629466666666,-1.3714996666666668,59.61333333333332,0.01262792,0.0394368766666666,-1.3084273333333332,0.4965681166666667,1.342315266666667,6.1022705,15.0,6.166666666666667,44.0,-40.5,-1403.7666666666667,267.0,-1045.6666666666667,-19.666666666666668,307.1666666666667,1015.6373333333336,-3.6801171666666654,3248.5,0.01262792,-0.0002977293333333,0.0394368766666666,0.0122882916666666,-1.3084273333333332,-0.0048462939999999,59620.0,28522.0,30360.0,-1.0,34.0,-28.0,1,27_ygyro_avg_abrupt_-1409.1
2023-01-03 18:20:47.850,250.78160000000003,0.0999999999999999,68.0,1110.0,22567.0,4864.0,98.0,1120.0,190.0,4885.0,62.38344599999999,1.5286792000000002,0.0133908,0.027246015,-1.3797995,59.585,0.017649745,0.0378657949999999,-1.3179605,0.4849761,1.5693769999999998,8.140045400000002,22.8,-2.2,34.2,-76.8,-1381.5,264.6,-1136.8,-28.8,305.0,1015.6294,-3.6883594,3249.0,0.017649745,0.0075307149999999,0.0378657949999999,-0.0211245,-1.3179605,0.0022494315,59600.0,28465.0,30340.0,3.0,23.0,-30.0,1,27_ygyro_avg_abrupt_-1409.1
2023-01-03 18:20:48.400,251.328,0.099999999999999,68.0,1069.0,22566.0,4888.0,98.0,1102.5,191.5,4810.333333333333,62.16050666666666,1.5493123333333336,0.02598832,0.0187707199999999,-1.3821985,59.57333333333333,0.0294081466666666,0.0315778466666666,-1.3202373333333333,0.60670215,1.0615045666666665,9.705373833333333,27.33333333333333,-1.5,28.5,-67.83333333333333,-1401.7666666666667,260.8333333333333,-1125.1666666666667,17.0,310.8333333333333,1015.6433333333332,-3.6742446666666666,3249.833333333333,0.0294081466666666,-0.0180963866666666,0.0315778466666666,-0.003245879,-1.3202373333333333,-0.02366193,59575.0,28440.5,30315.0,7.0,16.0,-27.0,1,27_ygyro_avg_abrupt_-1409.1
2023-01-03 18:20:48.950,251.8816,0.0999999999999999,68.0,1113.0,22636.0,4882.0,98.0,1100.4,193.4,4889.4,61.94267,1.5691081999999998,0.0310817766666666,0.0203920066666666,-1.37997,59.57666666666666,0.0352037333333333,0.0316369666666666,-1.3187383333333331,0.55969088,1.5960324,5.989153400000001,21.8,16.8,29.6,-92.4,-1399.6999999999998,268.0,-1007.4,1.2,308.4,1015.6374,-3.6802186,3250.8,0.0352037333333333,0.0428877473333333,0.0316369666666666,-0.0008946623333333,-1.3187383333333331,0.0270372433333333,59570.0,28450.0,30310.0,5.0,16.0,-32.0,1,27_ygyro_avg_abrupt_-1409.1
2023-01-03 18:20:49.500,252.378,0.0999999999999999,68.0,1103.0,22578.0,4888.0,98.0,1103.6,194.8,4888.6,61.775942,1.5854237999999998,0.0226955449999999,0.021809735,-1.378253,59.57,0.0268442149999999,0.0331375099999999,-1.3178055,0.4131158199999999,1.522416,10.0809766,22.6,7.4,32.0,-75.0,-1397.8999999999999,266.2,-1032.6,-6.8,307.8,1015.6482,-3.6696718000000006,3251.6,0.0268442149999999,-0.002398555,0.0331375099999999,-0.0063156235,-1.3178055,0.02413294,59570.0,28455.0,30310.0,6.0,14.0,-27.0,1,27_ygyro_avg_abrupt_-1409.1
2023-01-03 18:20:50.050,252.9026,0.1081999999999993,68.0,1052.0,22503.0,4734.0,98.0,1110.4,196.4,4883.0,61.616446,1.6026022000000002,0.02955436,0.0201632466666666,-1.3717266666666668,59.56666666666666,0.0345731866666666,0.0312082933333333,-1.3126263333333337,0.52954246,0.92186202,6.167804800000001,28.5,7.6,32.2,-28.7,-1349.6,272.4,-1035.2,17.4,317.3,1015.6332,-3.6844843,3252.1,0.0345731866666666,0.0424491673333333,0.0312082933333333,0.0320838566666666,-1.3126263333333337,0.0171003766666666,59560.0,28495.0,30300.0,3.0,10.0,-27.0,1,27_ygyro_avg_abrupt_-1409.1
2023-01-03 18:20:50.600,253.49566666666664,0.1099999999999993,68.0,1189.0,22572.0,4878.0,98.0,1206.1666666666667,198.5,4884.166666666667,61.45320333333333,1.6231980000000004,0.0418872333333333,0.0232825533333333,-1.3609346666666664,59.45333333333334,0.0464193699999999,0.0341897033333333,-1.302704,0.5222129333333333,0.9099777833333332,9.214133833333332,23.166666666666668,0.6666666666666666,31.33333333333333,-53.333333333333336,-1415.9333333333332,256.5,-1091.5,29.0,313.3333333333333,1015.6425,-3.675130166666667,3253.1666666666665,0.0464193699999999,-0.00362982,0.0341897033333333,-0.0016970666666666,-1.302704,0.0205447366666666,59450.0,28535.0,30190.0,-3.0,13.0,-27.0,1,27_ygyro_avg_abrupt_-1409.1
2023-01-03 18:20:51.150,254.04375,0.1150000000000019,68.0,1200.0,22442.0,4888.0,98.0,1202.0,200.25,4889.75,61.3511825,1.6409034999999998,0.025629405,0.031575855,-1.348754,59.215,0.031012045,0.0423482649999999,-1.291529,0.369230425,1.6369715,10.45889125,18.625,36.625,38.125,-79.625,-31.75,265.875,-1046.125,9.125,302.0,1015.641875,-3.675781125,3253.75,0.031012045,-0.04342488,0.0423482649999999,0.0473691849999999,-1.291529,0.016623275,59170.0,28610.0,29910.0,-5.0,15.0,-28.0,0,None
2023-01-03 18:20:51.700,254.5988333333333,0.103333333333334,68.0,1202.0,22578.0,4843.0,98.0,1211.3333333333333,202.16666666666663,4882.5,61.27009666666667,1.6588563333333337,0.0144770866666666,0.0384611,-1.3467513333333334,59.00666666666667,0.0210083266666666,0.0491226266666666,-1.2900383333333334,0.4400247166666667,1.1241415833333332,8.084803666666668,15.5,1.3333333333333333,41.66666666666666,-51.16666666666666,8.333333333333334,274.6666666666667,-1055.3333333333333,9.333333333333334,314.5,1015.6523333333332,-3.665338333333333,3254.6666666666665,0.0210083266666666,-0.0102521906666666,0.0491226266666666,-0.0042386899999999,-1.2900383333333334,0.001141551,59010.0,28609.0,29750.0,-2.0,9.0,-28.0,0,None
2023-01-03 18:20:52.250,255.1708,0.1039999999999963,68.0,1206.0,22457.0,4877.0,98.0,1207.8,204.0,4883.0,61.172558,1.6763974,0.0197822099999999,0.03835533,-1.344195,58.81666666666667,0.0261976366666666,0.0490303633333333,-1.2875123333333331,0.5298900200000001,0.73370816,6.007240200000001,20.4,12.8,38.2,-58.4,9.0,263.8,-1099.4,0.8,302.2,1015.6404,-3.6772812,3255.2,0.0261976366666666,0.0446642933333333,0.0490303633333333,0.0217614133333333,-1.2875123333333331,0.0022965566666666,58810.0,28624.0,29550.0,1.0,3.0,-25.0,0,None
2023-01-03 18:20:52.800,255.7323333333333,0.1000000000000037,68.0,1217.0,22508.0,4880.0,98.0,1205.5,205.8333333333333,4884.166666666667,61.03103000000001,1.6940206666666668,0.0250986266666666,0.0356108699999999,-1.346614,58.67666666666667,0.0313757933333333,0.0465432366666666,-1.2901686666666663,0.4897416500000001,0.7519540833333332,5.9474895,13.666666666666666,-7.333333333333333,37.333333333333336,-57.0,16.166666666666668,272.0,-1066.5,-10.0,305.1666666666667,1015.6466666666668,-3.6709505,3256.0,0.0313757933333333,0.0032886888,0.0465432366666666,-0.0247226436666666,-1.2901686666666663,0.0052475066666666,58720.0,28613.0,29460.0,5.0,1.0,-26.0,0,None
2023-01-03 18:20:53.350,256.295,0.104000000000002,68.0,1215.0,22517.0,4872.0,98.0,1213.2,207.6,4821.6,60.864856,1.7116067999999998,0.022507545,0.03143231,-1.344522,58.57,0.02870683,0.04294562,-1.2883835,0.3584485999999999,1.5743108,10.239359,13.4,13.8,41.2,-58.2,-9.8,269.4,-1027.8,15.8,319.4,1015.6426,-3.6751872,3256.8,0.02870683,-0.0259931609999999,0.04294562,0.0110176875,-1.2883835,-0.021124683,58600.0,28619.0,29340.0,7.0,2.0,-25.0,0,None
2023-01-03 18:20:53.900,256.79900000000004,0.0999999999999999,67.0,1168.0,22390.0,4880.0,98.0,1191.0,209.4,4850.4,60.709616,1.726404,0.0202201433333333,0.0355994833333333,-1.3465953333333331,58.49,0.0277072233333333,0.0466244566666666,-1.290677,0.24439852,1.6658556,8.2905612,12.6,-2.2,38.8,-39.6,13.8,265.8,-1102.0,-21.2,295.8,1015.6644,-3.6531094,3257.6,0.0277072233333333,0.0310731099999999,0.0466244566666666,-0.01648474,-1.290677,0.0220060099999999,58520.0,28596.0,29260.0,11.0,1.0,-24.0,0,None
2023-01-03 18:20:54.450,257.36566666666664,0.103333333333334,67.0,1277.0,22474.0,4871.0,98.0,1190.8333333333333,211.3333333333333,4877.5,60.51447,1.7432506666666665,0.0271385099999999,0.0243496166666666,-1.3462356666666668,58.40333333333333,0.0338072733333333,0.0357613533333333,-1.289826666666667,0.2966070166666666,1.6068623333333332,6.420405166666668,17.416666666666668,-12.333333333333334,34.583333333333336,-64.16666666666667,21.416666666666668,268.3333333333333,-1064.5,4.25,311.0,1015.6400833333332,-3.677369583333333,3258.333333333333,0.0338072733333333,-0.0030812896666666,0.0357613533333333,-0.0065038666666666,-1.289826666666667,-0.0101741526666666,58405.0,28611.5,29145.0,13.5,0.0,-24.5,0,None
2023-01-03 18:20:55.000,257.939,0.1039999999999963,67.0,1167.0,22505.0,4732.0,98.0,1169.8,213.4,4881.0,60.292006,1.7621019999999998,0.031913385,0.0243695099999999,-1.3434015,58.370000000000005,0.0388938199999999,0.035911385,-1.2874020000000002,0.33664526,1.5253864,4.8337900000000005,11.8,13.0,35.6,-19.0,6.0,261.6,-1085.8,-3.2,313.8,1015.6586,-3.6589998,3259.2,0.0388938199999999,-0.023231305,0.035911385,0.013835565,-1.2874020000000002,-0.003565497,58340.0,28621.0,29080.0,8.0,3.0,-28.0,0,None
2023-01-03 18:20:55.550,258.459,0.1039999999999963,67.0,1215.0,22517.0,4879.0,98.0,1194.8,215.0,4883.0,60.137046,1.7773181999999998,0.0284438733333333,0.0288557166666666,-1.3440796666666668,58.31999999999999,0.0354269066666666,0.0396105599999999,-1.2886266666666668,0.39502986,1.5248304,5.249324400000001,12.8,6.0,33.8,-77.4,-7.4,266.0,-1042.6,10.0,305.6,1015.6604,-3.6572344,3259.8,0.0354269066666666,-0.0004057039999999,0.0396105599999999,0.0002213713333333,-1.2886266666666668,0.0219315003333333,58300.0,28615.0,29040.0,8.0,7.0,-27.0,0,None
2023-01-03 18:20:56.100,259.0323333333333,0.103333333333334,67.0,1176.0,22450.0,4878.5,98.0,1190.1666666666667,216.8333333333333,4887.333333333333,60.000101666666666,1.7931411666666668,0.0251598099999999,0.0251971466666666,-1.344113,58.27333333333334,0.0332872633333333,0.0362872333333333,-1.2891073333333336,0.4500188666666667,1.5254525,6.524207666666666,11.833333333333334,-2.0,36.0,-29.33333333333333,4.5,267.6666666666667,-1072.3333333333333,-4.333333333333333,307.1666666666667,1015.6265,-3.691223833333333,3260.1666666666665,0.0332872633333333,0.0164920163333333,0.0362872333333333,0.0001915989999999,-1.2891073333333336,-0.0191146523333333,58260.0,28618.0,29000.0,6.0,8.0,-26.0,0,None
2023-01-03 18:20:56.650,259.583,0.0999999999999999,67.0,1151.0,22522.0,4879.0,98.0,1181.6,218.6,4883.4,59.876988,1.8086948,0.0261893549999999,0.0252029,-1.346095,58.26,0.034666835,0.03621363,-1.292173,0.5187726400000001,1.408365,8.881372,16.4,-4.0,44.2,-80.0,16.8,256.6,-1044.6,-0.8,310.2,1015.6368,-3.6808278,3261.0,0.034666835,0.02428305,0.03621363,-0.0102605005,-1.292173,0.0138329719999999,58260.0,28591.0,29000.0,5.0,5.0,-27.0,0,None
2023-01-03 18:20:57.200,260.1323333333333,0.1000000000000037,67.0,1226.0,22516.0,4883.0,98.0,1170.6666666666667,220.5,4886.333333333333,59.76555666666666,1.8244626666666663,0.0324960666666666,0.0286959866666666,-1.3462376666666664,58.24666666666667,0.0401004899999999,0.03954095,-1.293834666666667,0.56154255,1.1062965833333331,9.298612166666668,20.666666666666668,31.166666666666668,39.5,-45.5,9.0,272.0,-1094.8333333333333,-18.666666666666668,317.5,1015.6438333333332,-3.6739583333333337,3261.833333333333,0.0401004899999999,-0.0029121366666666,0.03954095,0.0225570666666666,-1.293834666666667,-0.0074628346666666,58240.0,28594.0,28980.0,1.0,3.0,-30.0,0,None
2023-01-03 18:20:57.750,260.683,0.0999999999999999,67.0,1194.0,22494.0,4883.0,98.0,1177.4,222.4,4890.4,59.67058,1.8400034,0.0325531766666666,0.0367554666666666,-1.348852333333333,58.22,0.0403519833333333,0.0480132033333333,-1.29677,0.48319164,0.88835842,8.702024,14.0,3.0,36.4,-47.0,12.0,271.4,-1105.0,19.4,308.8,1015.6396,-3.6782342,3262.8,0.0403519833333333,0.0045017966666666,0.0480132033333333,-0.0021291503333333,-1.29677,-0.011121922,58220.0,28566.0,28960.0,1.0,7.0,-28.0,0,None
2023-01-03 18:20:58.300,261.2323333333333,0.0999999999999942,67.0,1150.0,22524.0,4877.0,98.0,1170.1666666666667,223.8333333333333,4881.666666666667,59.58690166666668,1.8552613333333337,0.0326250766666666,0.0357699166666666,-1.335733333333333,58.19333333333333,0.0410587333333333,0.04625424,-1.2847456666666666,0.43433888,1.1635708,8.6017482,23.83333333333333,-7.0,38.333333333333336,-67.66666666666667,18.83333333333333,254.16666666666663,-1041.0,26.166666666666668,274.1666666666667,1015.6223333333334,-3.6953905,3263.333333333333,0.0410587333333333,0.0004434956666666,0.04625424,-0.0034869981333333,-1.2847456666666666,0.0145000749999999,58200.0,28625.0,28940.0,2.0,8.0,-26.0,0,None
2023-01-03 18:20:58.850,261.783,0.0999999999999999,67.0,1158.0,22436.0,4888.0,98.0,1149.2,225.6,4861.0,59.506238,1.8709978,0.03803724,0.036772385,-1.3333914999999998,58.2,0.04570743,0.047495795,-1.282153,0.5087389,1.4150732,10.822133,7.4,13.4,30.4,-53.8,0.6,272.0,-1063.6,-13.6,317.2,1015.588,-3.7295938,3264.0,0.04570743,-0.0063061585,0.047495795,0.0251569775,-1.282153,0.0029892399999999,58190.0,28663.0,28930.0,1.0,12.0,-31.0,0,None
2023-01-03 18:20:59.400,262.33233333333334,0.1000000000000037,67.0,1137.0,22512.0,4883.0,98.0,1115.0,227.5,4884.666666666667,59.43321,1.8879456666666667,0.0308331266666666,0.0376528033333333,-1.3380793333333332,58.23333333333334,0.03814519,0.04908018,-1.2870666666666668,0.38972175,1.7472468333333333,8.252729500000001,19.166666666666668,3.333333333333333,36.16666666666666,-68.0,-13.5,259.0,-1012.8333333333334,8.5,292.5,1015.6085000000002,-3.709323,3264.833333333333,0.03814519,-0.0241794,0.04908018,0.0226555466666666,-1.2870666666666668,-0.0037294626666666,58230.0,28632.0,28970.0,0.0,17.0,-32.0,0,None
2023-01-03 18:20:59.950,262.883,0.0999999999999999,67.0,1030.0,22524.0,4882.0,98.0,1060.4,229.2,4829.6,59.365008,1.9053332,0.01375555,0.03666658,-1.3412546666666667,58.25,0.0218313533333333,0.0474745933333333,-1.2915626666666666,0.5416565999999999,1.325617,10.2353992,37.6,2.8,45.0,-39.2,20.2,274.8,-997.6,4.4,312.8,1015.6064,-3.7113124,3265.4,0.0218313533333333,0.0193971156666666,0.0474745933333333,0.0159241136666666,-1.2915626666666666,-0.0167821765566666,58250.0,28616.0,28990.0,3.0,17.0,-29.0,0,None
2023-01-03 18:21:00.500,263.383,0.0999999999999999,67.0,1107.0,22527.0,4888.0,98.0,1110.8,230.6,4886.4,59.292468,1.9199452,0.038269215,0.046949025,-1.345429,58.25,0.0464833449999999,0.057865605,-1.296324,0.42160216,1.6878178,11.4010922,18.8,29.8,36.6,-90.8,66.6,266.6,-981.0,-9.2,285.8,1015.5988,-3.7191248,3266.2,0.0464833449999999,0.135975925,0.057865605,0.046258195,-1.296324,0.003371733,58250.0,28584.0,28990.0,7.0,8.0,-37.0,0,None
2023-01-03 18:21:01.050,263.9356666666667,0.103333333333334,67.0,1159.0,22428.0,4802.5,98.0,1177.5,232.5,4847.333333333333,59.18787,1.9367206666666668,0.0526709766666666,0.0440543033333333,-1.3482066666666668,58.22333333333333,0.0595776566666666,0.0543062533333333,-1.299143333333333,0.4261024666666666,1.7502543333333334,9.833302666666668,21.666666666666668,-17.833333333333332,26.0,-43.333333333333336,-9.833333333333334,271.5,-1085.6666666666667,-15.666666666666666,315.8333333333333,1015.6068333333334,-3.710911333333333,3266.833333333333,0.0595776566666666,-0.0164457863333333,0.0543062533333333,-0.0232259166666666,-1.299143333333333,0.00057942,58230.0,28554.5,28970.0,12.0,19.5,-34.5,0,None
2023-01-03 18:21:01.600,264.5323333333333,0.0966666666666639,67.0,1172.0,22482.0,4883.0,98.0,1149.3333333333333,234.3333333333333,4866.833333333333,59.07777333333333,1.9555843333333327,0.0310727566666666,0.0379668533333333,-1.348863,58.21333333333334,0.0384748266666666,0.0495769133333333,-1.3008406666666668,0.5540385833333333,1.0890597833333333,9.996517666666668,13.666666666666666,-0.8333333333333334,32.666666666666664,-64.66666666666667,-21.33333333333333,271.3333333333333,-1081.5,15.0,311.3333333333333,1015.621,-3.696510166666666,3267.333333333333,0.0384748266666666,-0.0134039833333333,0.0495769133333333,0.002371211,-1.3008406666666668,-0.0015278986666666,58210.0,28548.0,28950.0,10.0,27.0,-32.0,0,None
2023-01-03 18:21:02.150,265.083,0.0999999999999999,67.0,1124.0,22508.0,4883.0,98.0,1108.0,236.0,4883.4,58.97694,1.9735778,0.02297971,0.0349535166666666,-1.3437503333333334,58.18666666666667,0.0309003366666666,0.0444179933333333,-1.2957946666666669,0.4657797,1.2244452200000002,8.754372799999999,20.8,9.6,33.8,-79.4,-14.6,278.8,-1055.6,-8.4,326.6,1015.6394,-3.678453,3268.2,0.0309003366666666,0.02198665,0.0444179933333333,-0.0084942556666666,-1.2957946666666669,0.0252379833333333,58180.0,28575.0,28920.0,12.0,24.0,-28.0,0,None
2023-01-03 18:21:02.700,265.6323333333333,0.1000000000000037,67.0,1130.0,22363.0,4888.0,98.0,1150.1666666666667,237.8333333333333,4817.5,58.87717999999999,1.9907325,0.0269467733333333,0.03129846,-1.3387493333333331,58.13,0.0351000066666666,0.0410061833333333,-1.291276,0.4761874,1.22592,9.685271333333334,17.833333333333332,-6.833333333333333,40.16666666666666,-44.333333333333336,18.666666666666668,273.6666666666667,-1120.8333333333333,6.5,303.1666666666667,1015.6255,-3.692135333333333,3268.833333333333,0.0351000066666666,0.0004323699999999,0.0410061833333333,0.0017910133333333,-1.291276,0.004951039,58130.0,28605.0,28870.0,12.0,20.0,-32.0,0,None
2023-01-03 18:21:03.250,266.183,0.0999999999999999,67.0,1192.0,22478.0,4885.0,98.0,1194.4,239.6,4882.0,58.776892,2.0074408,0.031005355,0.029735855,-1.329036,58.1,0.03857993,0.040042755,-1.282473,0.44440292,1.727971,12.125531999999998,24.0,14.4,38.0,-79.0,-19.6,271.6,-1058.0,12.4,310.0,1015.594,-3.7235622,3269.4,0.03857993,0.023664155,0.040042755,0.020986818,-1.282473,0.048450845,58100.0,28641.0,28840.0,7.0,18.0,-27.0,0,None
2023-01-03 18:21:03.800,266.7323333333333,0.0999999999999942,67.0,1143.0,22479.0,4883.0,98.0,1176.0,241.5,4888.5,58.687516666666674,2.0245126666666664,0.0315158933333333,0.03836365,-1.3234743333333332,58.10333333333333,0.03890153,0.0487383633333333,-1.2772393333333334,0.5423033166666668,1.2885305166666667,12.074531,21.5,23.666666666666668,41.833333333333336,-53.333333333333336,6.333333333333333,278.5,-1055.3333333333333,-3.8333333333333335,315.3333333333333,1015.6021666666668,-3.715664,3270.1666666666665,0.03890153,-0.0038527466666666,0.0487383633333333,0.018267013,-1.2772393333333334,-0.00166513745,58100.0,28688.0,28840.0,3.0,15.0,-31.0,0,None
2023-01-03 18:21:04.350,267.283,0.0999999999999999,67.0,1183.0,22502.0,4883.0,98.0,1189.6,243.4,4886.8,58.610598,2.0415536000000003,0.02383674,0.0484504199999999,-1.3252413333333333,58.09,0.0318260233333333,0.05808788,-1.2796919999999998,0.39034134,1.6539715999999998,9.6157916,18.0,-1.6,37.6,-71.0,-16.0,292.2,-1088.4,-11.8,325.2,1015.6096,-3.7081092,3271.0,0.0318260233333333,-7.151199999999999e-05,0.05808788,-0.0055137396666666,-1.2796919999999998,0.012548974,58090.0,28661.0,28830.0,3.0,14.0,-32.0,0,None
2023-01-03 18:21:04.900,267.83233333333334,0.1000000000000037,66.0,1126.0,22520.0,4882.0,98.0,1165.0,245.16666666666663,4885.5,58.52979,2.0580585,0.02610136,0.0400301566666666,-1.325029,58.05,0.0341971133333333,0.0500080566666666,-1.2791146666666666,0.5073439,1.4108754999999995,9.743948333333334,14.166666666666666,0.6666666666666666,40.16666666666666,-40.5,15.166666666666666,274.8333333333333,-1101.8333333333333,-9.0,297.3333333333333,1015.616,-3.7017316666666673,3271.833333333333,0.0341971133333333,0.0276823199999999,0.0500080566666666,-0.0080864676666666,-1.2791146666666666,0.0034125526666666,58060.0,28677.0,28800.0,8.0,13.0,-28.0,0,None
2023-01-03 18:21:05.450,268.383,0.0999999999999999,66.0,1227.0,22317.0,4879.0,98.0,1222.0,246.8,4884.0,58.432758,2.074225,0.03584344,0.0467052649999999,-1.319248,58.010000000000005,0.04352284,0.055570935,-1.2741325,0.4027252600000001,1.31722096,8.1534618,21.2,-2.0,35.4,-60.2,48.0,262.4,-1014.8,23.8,293.2,1015.6282,-3.6894688,3272.2,0.04352284,0.087760955,0.055570935,0.0017728049999999,-1.2741325,0.0218023499999999,58030.0,28675.0,28770.0,11.0,10.0,-32.0,0,None
2023-01-03 18:21:06.000,268.883,0.0999999999999999,66.0,1230.0,22479.0,4879.0,98.0,1235.0,248.6,4885.0,58.331628,2.089619,0.0362001433333333,0.03240938,-1.30953,57.98,0.0434645333333333,0.0428747066666666,-1.2646043333333334,0.44261502,1.5947514000000005,10.605392,25.6,-20.8,36.6,-75.6,-16.0,263.2,-1088.8,29.2,300.4,1015.6182,-3.6993906,3273.0,0.0434645333333333,-0.01529705,0.0428747066666666,-0.0249805179999999,-1.2646043333333334,0.0147482166666666,57990.0,28732.0,28730.0,14.0,14.0,-27.0,0,None
2023-01-03 18:21:06.550,269.4356666666667,0.103333333333334,66.0,1229.5,22494.0,4804.0,98.0,1195.5,250.5,4815.5,58.23920833333333,2.1059171666666665,0.0305229799999999,0.0256800466666666,-1.3037466666666668,57.95666666666667,0.03765342,0.0366328033333333,-1.2594426666666667,0.4298168666666666,1.5042005000000005,7.548300666666667,24.33333333333333,13.833333333333334,43.5,-79.33333333333333,11.833333333333334,263.5,-1058.8333333333333,6.333333333333333,305.5,1015.6238333333334,-3.693645833333333,3273.5,0.03765342,-0.0053073196666666,0.0366328033333333,0.0114243996666666,-1.2594426666666667,-0.01116815,57955.0,28780.5,28695.0,7.0,16.0,-27.5,0,None
