00000_Time_epoch,00000_Time_boot_sec,00000_Span_Time_boot_sec,1_battery_remaining_avg,1_current_battery_avg,1_voltage_battery_avg,125_Vcc_avg,147_battery_remaining_avg,147_current_battery_avg,147_current_consumed_avg,165_Vcc_avg,168_direction_avg,168_speed_avg,178_pitch_avg,178_roll_avg,178_yaw_avg,182_altitude_avg,182_pitch_avg,182_roll_avg,182_yaw_avg,241_vibration_x_avg,241_vibration_y_avg,241_vibration_z_avg,27_xacc_avg,27_xgyro_avg,27_xmag_avg,27_yacc_avg,27_ygyro_avg,27_ymag_avg,27_zacc_avg,27_zgyro_avg,27_zmag_avg,29_press_abs_avg,29_press_diff_avg,29_temperature_avg,30_pitch_avg,30_pitchspeed_avg,30_roll_avg,30_rollspeed_avg,30_yaw_avg,30_yawspeed_avg,33_alt_avg,33_hdg_avg,33_relative_alt_avg,33_vx_avg,33_vy_avg,33_vz_avg,label,diagnosis
2022-12-25 08:16:40.650,500.827,-0.1750000000000113,100.0,74.0,25118.0,4861.0,99.0,75.0,106.0,4881.25,131.35545000000002,0.02644046,0.01988678,0.028031555,-1.4903205,26.61,0.02992389,0.037698195,-1.5721625,0.02595382,0.0252566199999999,0.0410759866666666,9.0,7.25,-0.25,-43.25,9.0,275.25,-1054.75,-1.5,325.75,1016.71175,-0.29597655,3211.25,0.02992389,0.008949984,0.037698195,0.0068507985,-1.5721625,-0.002091989,26620.0,26993.0,-60.0,15.0,19.0,-29.0,0,None
2022-12-25 08:16:41.200,501.327,0.1000000000000037,100.0,77.0,25094.0,4895.0,99.0,72.16666666666667,106.0,4884.666666666667,56.957906666666666,0.0862223066666666,0.0199320466666666,0.0278999733333333,-1.4904666666666666,26.566666666666663,0.0300198766666666,0.0377212066666666,-1.5721386666666668,0.0252503,0.0254684483333333,0.0366435233333333,10.0,7.0,-0.1666666666666666,-43.66666666666666,9.0,276.0,-1056.5,-1.3333333333333333,324.5,1016.7215,-0.2865104166666666,3212.1666666666665,0.0300198766666666,0.0095515216666666,0.0377212066666666,0.0079419166666666,-1.5721386666666668,-0.0020017946666666,26580.0,26993.0,-100.0,15.0,19.0,-30.0,0,None
2022-12-25 08:16:41.750,501.87700000000007,0.0999999999999999,100.0,83.0,25124.0,4883.0,99.0,79.6,106.0,4885.6,47.731416,0.1771073799999999,0.020334375,0.02834507,-1.4904745,26.535,0.0301138,0.037806305,-1.572127,0.049050454,0.034375094,0.0505391979999999,4.0,6.6,-3.0,-44.0,8.0,275.8,-1055.8,-11.8,322.8,1016.7142,-0.2935625,3213.0,0.0301138,0.009826495,0.037806305,0.0078385305,-1.572127,-0.0017715165,26540.0,26993.0,-140.0,15.0,19.0,-30.0,0,None
2022-12-25 08:16:42.300,502.4270000000001,0.1000000000000037,100.0,211.5,25036.0,4890.5,99.0,200.0,107.0,4886.333333333333,45.27849,0.2657433833333333,0.0198264,0.0279713966666666,-1.4912643333333333,26.50333333333333,0.0302655066666666,0.03789677,-1.5721683333333332,0.1696791166666666,0.2333585499999999,1.1219731833333333,11.333333333333334,8.333333333333334,-0.1666666666666666,-40.333333333333336,9.5,270.8333333333333,-1057.3333333333333,3.8333333333333335,320.3333333333333,1016.7376666666668,-0.27028645,3214.0,0.0302655066666666,0.0112871123333333,0.03789677,0.0077691696666666,-1.5721683333333332,-0.0061453233333333,26510.0,26994.0,-170.0,16.0,20.0,-30.0,0,None
2022-12-25 08:16:42.850,502.981,0.1039999999999963,100.0,116.0,25091.0,4890.0,99.0,116.6,107.0,4879.4,44.228784000000005,0.35406436,0.0200333066666666,0.0273103266666666,-1.490732666666667,26.49,0.0301491466666666,0.0379603933333333,-1.5717103333333335,0.12786492,0.29554802,1.4091479999999998,7.0,6.8,1.6,-44.0,9.6,273.6,-1042.2,-6.0,323.6,1016.7496,-0.2580781,3214.6,0.0301491466666666,0.010463761,0.0379603933333333,0.0074917833333333,-1.5717103333333335,0.0084034131333333,26500.0,26991.0,-180.0,16.0,20.0,-31.0,0,None
2022-12-25 08:16:43.400,503.52199999999993,0.1081999999999993,100.0,1341.0,24542.0,4882.0,99.0,432.8,107.2,4885.4,43.79321,0.4380823,0.0194618599999999,0.026834585,-1.490884,26.505000000000003,0.02984453,0.03744726,-1.5718450000000002,0.29356466,0.4148531999999999,1.844083,7.3,-3.5,-5.1,-52.9,8.0,269.4,-1057.3,2.6,307.7,1016.8119,-0.1959609376,3215.3,0.02984453,5.72935000000001e-05,0.03744726,0.003380575,-1.5718450000000002,-0.00192742,26510.0,26998.0,-170.0,15.0,20.0,-32.0,0,None
2022-12-25 08:16:43.950,504.042,0.1039999999999963,100.0,1636.0,24370.0,4854.0,99.0,1565.4,109.2,4879.6,43.406776,0.5321074,0.000222294,-0.0097728266666666,-1.4907963333333332,26.633333333333336,0.0104728686666666,0.0001258346666666,-1.56987,0.61886924,0.93333954,5.2129856000000006,-4.8,-81.0,-12.8,-33.2,-68.2,255.6,-1231.0,5.4,314.0,1017.0508,0.0427968751999999,3216.0,0.0104728686666666,-0.031636589,0.0001258346666666,-0.1215906433333333,-1.56987,0.0143571699999999,26550.0,26992.0,-130.0,16.0,21.0,-13.0,0,None
2022-12-25 08:16:44.500,504.58600000000007,0.108000000000004,100.0,1697.0,24306.0,4883.0,99.0,1633.8,111.2,4878.0,43.77498799999999,0.59688064,-0.030403195,-0.013306569,-1.478056,27.19,-0.01991972,-0.004457478,-1.554059,0.37735004,1.37876314,4.9301044,-8.0,54.0,2.6,-13.2,1.0,245.8,-1236.4,49.8,301.4,1016.7176,-0.2902343599999999,3217.0,-0.01991972,-0.00127334475,-0.004457478,0.1136433449999999,-1.554059,0.050272935,26950.0,27055.0,270.0,5.0,14.0,78.0,0,None
2022-12-25 08:16:45.050,505.158,0.103333333333334,100.0,1685.0,24280.0,4885.0,99.0,1748.5,114.0,4884.166666666667,44.86466666666667,0.6482825333333334,-0.0186443516666666,-0.0028749069999999,-1.466566,28.3,-0.0090588016666666,0.0045587575333333,-1.5397373333333333,0.3803611666666667,1.3955411666666668,4.499616166666667,-5.333333333333333,2.333333333333333,-7.833333333333333,-15.833333333333334,58.5,241.3333333333333,-1227.0,-20.166666666666668,292.0,1016.505,-0.5027994833333332,3218.0,-0.0090588016666666,0.0490975025666666,0.0045587575333333,-0.003573981,-1.5397373333333333,-0.0137558549999999,28590.0,27153.5,1910.0,4.5,-11.5,210.0,0,None
2022-12-25 08:16:45.600,505.7502,0.108000000000004,100.0,1610.0,24237.0,4883.0,99.0,1672.8,117.2,4884.0,46.39053199999999,0.6891444999999999,0.0269632333333333,-0.0112003636666666,-1.4912716666666668,30.176666666666662,0.0361311366666666,-0.002896635,-1.562556,0.3592305999999999,1.24948688,4.339446799999999,-8.5,13.3,-18.9,4.6,11.0,252.2,-1161.3,-7.6,320.3,1016.2966,-0.71118747,3218.8,0.0361311366666666,0.0579015266666666,-0.002896635,-0.0058675986666666,-1.562556,-0.0277113126666666,31000.0,27020.0,4320.0,9.0,-4.0,292.0,0,None
2022-12-25 08:16:46.150,506.2472,0.1001999999999952,100.0,1417.0,24351.0,4887.0,99.0,1484.4,119.2,4888.2,47.524468,0.714675,0.0145678366666666,-0.0070658076666666,-1.4912286666666663,32.26666666666667,0.02335856,0.005752093,-1.5601066666666668,0.32498156,1.6159024000000002,6.1086314,-10.0,-1.0,-14.8,-12.0,12.4,244.2,-1047.8,6.4,312.2,1016.0942,-0.91373436,3220.0,0.02335856,0.02947926,0.005752093,0.03165744,-1.5601066666666668,-0.0061407469999999,32770.0,27075.0,6090.0,12.0,0.0,306.0,0,None
2022-12-25 08:16:46.700,506.7632,0.1039999999999963,100.0,1243.0,24423.0,4883.0,99.0,1189.4,121.0,4885.4,48.56040399999999,0.73279772,0.0109942775,-0.0075985965,-1.4951535,33.96,0.0203693,0.004931323,-1.5625195,0.4932583999999999,1.19692632,4.7208372,-6.0,11.2,-5.2,15.4,-30.8,265.0,-905.0,-23.4,335.4,1015.907,-1.1007968,3220.6,0.0203693,-0.022931065,0.004931323,0.0378736,-1.5625195,-0.0203524,34380.0,27027.0,7700.0,14.0,5.0,253.0,0,None
2022-12-25 08:16:47.250,507.3568333333333,0.1069999999999992,100.0,957.0,24545.0,4883.0,99.0,950.1666666666666,122.66666666666669,4880.166666666667,49.78583,0.7490446666666667,-0.0002088629999999,0.0016773248,-1.5071656666666666,35.18666666666667,0.0101921666666666,0.0144839339999999,-1.5733983333333337,0.6979380000000001,0.8379197499999999,2.491005833333334,-7.666666666666667,32.666666666666664,-6.0,2.0,22.666666666666668,255.5,-838.5,-13.333333333333334,322.5,1015.7558333333332,-1.2520571666666669,3221.1666666666665,0.0100760866666666,0.0072823633333333,0.014273724,0.04511941,-1.573456,-0.0189548678666666,35440.0,26971.0,8760.0,19.0,4.0,143.0,0,None
2022-12-25 08:16:47.800,507.9214,0.1002000000000065,100.0,1067.0,24540.0,4862.0,99.0,1078.0,124.2,4879.2,50.925726,0.761487,0.01376568,0.0064930603333333,-1.5063313333333337,35.95,0.02358016,0.0180927533333333,-1.570093,0.55357868,0.7215199999999999,2.9653464,-5.0,-11.0,-6.8,-3.2,36.2,261.8,-931.2,24.2,320.4,1015.6614000000002,-1.3463436,3222.0,0.02358016,0.031211978,0.0180927533333333,0.0017665123333333,-1.570093,0.02678097,35990.0,27008.0,9310.0,28.0,3.0,69.0,0,None
2022-12-25 08:16:48.350,508.45400000000006,0.1120000000000004,100.0,1121.0,24456.5,4877.0,99.0,1081.6,126.0,4886.0,52.289106,0.7748334600000001,0.02324575,-0.0078419516666666,-1.502423,36.34333333333333,0.0347139599999999,0.0021660056666666,-1.564077,0.5198906400000001,0.8315221999999999,2.8213182000000003,7.4,-10.4,-12.3,-10.6,22.8,253.7,-1003.0,-11.2,334.4,1015.6036,-1.4041093,3223.2,0.0347139599999999,0.033836144,0.0021660056666666,9.11593333333331e-05,-1.564077,-0.0095236373333333,36320.0,27046.0,9640.0,32.0,5.0,30.0,0,None
2022-12-25 08:16:48.900,509.0318333333333,0.0999999999999942,100.0,1092.0,24464.0,4883.0,99.0,1118.6666666666667,127.66666666666669,4884.0,53.70192,0.7862989166666666,0.0332859866666666,-0.0065858706666666,-1.513380333333333,36.54666666666666,0.04322555,0.00415681,-1.5740823333333331,0.4333062999999999,0.9754786333333332,4.624780833333333,-12.166666666666666,13.666666666666666,-13.5,15.0,22.166666666666668,257.5,-1044.5,-3.5,325.6666666666667,1015.5796666666666,-1.4283201666666667,3224.333333333333,0.04322555,0.0224305483333333,0.00415681,0.03113442,-1.5740823333333331,-0.0481145566666666,36500.0,27012.0,9820.0,33.0,11.0,8.0,0,None
2022-12-25 08:16:49.450,509.594,0.1040000000000076,100.0,1121.0,24454.0,4888.0,99.0,1129.4,129.4,4879.0,55.369642,0.79807208,0.0306905099999999,-0.0044322375,-1.529302,36.650000000000006,0.0399973599999999,0.0061416005,-1.588523,0.65187258,0.9181973,5.9112328000000005,6.6,9.8,-21.8,-20.6,-10.8,269.2,-1030.8,-15.8,321.4,1015.5448,-1.4631092,3225.0,0.0399973599999999,-0.024046195,0.0061416005,0.0224620769999999,-1.588523,-0.019920815,36620.0,26914.0,9940.0,36.0,21.0,-5.0,0,None
2022-12-25 08:16:50.000,510.11,0.1039999999999963,100.0,1126.0,24431.0,4883.0,99.0,1131.0,131.0,4884.2,57.307082,0.8091113,0.0217797433333333,-0.0078027669999999,-1.528462,36.74,0.0322781933333333,0.0017945260666666,-1.5859483333333333,0.46673736,1.4150246000000002,4.7496266,1.2,-5.4,-17.2,29.2,2.0,247.4,-1077.0,20.4,331.8,1015.547,-1.4606874,3225.4,0.0322781933333333,0.0116127463333333,0.0017945260666666,-0.0033623606666666,-1.5859483333333333,0.0260914066666666,36720.0,26900.0,10040.0,40.0,29.0,-14.0,0,None
2022-12-25 08:16:50.550,510.626,0.0999999999999999,100.0,1103.0,24439.0,4890.0,99.0,1125.2,132.6,4878.8,59.227434,0.8165940200000001,0.0187157599999999,-0.007852386,-1.518211,36.79,0.028490115,0.0015537699999999,-1.5740875,0.3893446,1.2766104000000005,4.8526202,2.0,10.8,-18.0,-19.2,0.4,251.2,-1044.6,32.0,336.0,1015.5282,-1.4795468,3226.6,0.028490115,0.003973185,0.0015537699999999,0.001673716,-1.5740875,0.001356506,36780.0,26961.0,10100.0,41.0,33.0,-18.0,0,None
2022-12-25 08:16:51.100,511.184,0.1005000000000014,100.0,1129.0,24387.0,4883.0,99.0,1118.3333333333333,134.33333333333334,4882.666666666667,61.61596166666667,0.8238524666666666,0.0184545533333333,-0.0097326729999999,-1.5130793333333334,36.836666666666666,0.0285352933333333,-0.0003881387333333,-1.5671413333333335,0.4678982,0.8479523999999999,4.28303,16.166666666666668,4.5,-10.166666666666666,-11.833333333333334,17.333333333333332,251.16666666666663,-1032.5,-2.333333333333333,324.8333333333333,1015.5226666666669,-1.485169,3227.333333333333,0.0285352933333333,0.004383458,-0.0003881387333333,-0.003714836,-1.5671413333333335,-0.0115884266666666,36830.0,27014.0,10150.0,42.0,32.0,-21.0,0,None
2022-12-25 08:16:51.650,511.7446,0.104200000000003,100.0,1117.0,24484.0,4882.0,99.0,1123.0,136.2,4886.6,63.86576600000001,0.82877464,0.0172887033333333,-0.0126363266666666,-1.513395,36.86666666666667,0.0266400666666666,-0.0038577763333333,-1.5663256666666667,0.5151005,0.8609445399999999,4.3381714,11.8,1.1,-12.2,-18.5,4.1,253.7,-1029.7,-6.5,333.1,1015.5314,-1.4765156999999998,3228.5,0.0266400666666666,0.010673426,-0.0038577763333333,-0.000314493,-1.5663256666666667,-0.0060121443,36850.0,27023.0,10170.0,41.0,34.0,-27.0,0,None
2022-12-25 08:16:52.200,512.3021666666667,0.103333333333334,100.0,1179.0,24408.0,4867.0,99.0,1144.5,138.0,4885.833333333333,66.20782000000001,0.8342957666666666,0.0080196166666666,-0.0169195366666666,-1.508328,36.89333333333334,0.0177403966666666,-0.0070703109999999,-1.5596950000000005,0.4573084999999999,0.8516605166666665,3.956474666666667,8.166666666666666,16.666666666666668,-4.333333333333333,-12.833333333333334,6.833333333333333,254.5,-1038.1666666666667,10.833333333333334,336.0,1015.5195,-1.4886065000000002,3229.5,0.0177760666666666,-0.0031158566666666,-0.0070500556666666,0.0076280433333333,-1.5598660000000002,0.0109921,36885.0,27060.5,10205.0,37.0,33.5,-25.5,0,None
2022-12-25 08:16:52.750,512.8693999999999,0.0999999999999999,100.0,1124.0,24420.0,4883.0,99.0,1125.4,139.6,4885.8,68.36282,0.8395254600000002,0.0099353035,-0.0080548104999999,-1.509408,36.915,0.019525575,-0.0002498026,-1.560018,0.43176896,0.8875587599999999,3.7911198,-0.2,27.4,-8.8,11.8,12.8,257.0,-1066.2,-12.6,333.0,1015.518,-1.4899688,3230.2,0.019525575,0.0098855798,-0.0002498026,0.017200813,-1.560018,-0.011829939,36920.0,27042.0,10240.0,34.0,28.0,-27.0,0,None
2022-12-25 08:16:53.300,513.4226666666667,0.103333333333334,100.0,1144.0,24378.0,4883.5,99.0,1140.3333333333333,141.5,4883.166666666667,70.47302833333335,0.8438297,0.0097871723333333,-0.0017660137333333,-1.520206333333333,36.93,0.0196501066666666,0.0064338733333333,-1.5693656666666669,0.5187987833333333,0.6486462166666667,3.5030408333333334,-8.166666666666666,-7.666666666666667,-10.666666666666666,7.0,3.5,261.5,-1058.8333333333333,-6.5,326.1666666666667,1015.516,-1.4919011666666666,3231.333333333333,0.0196501066666666,0.0047539735,0.0064338733333333,-0.0104096773333333,-1.5693656666666669,-0.0161145553333333,36930.0,26996.0,10250.0,38.0,28.0,-31.0,0,None
2022-12-25 08:16:53.850,513.986,0.0999999999999999,100.0,1116.0,24351.0,4888.0,99.0,1142.0,143.4,4886.8,72.60233399999998,0.84756614,0.0060504386666666,-0.0133423406666666,-1.5294223333333334,36.93333333333333,0.0155944533333333,-0.0048644303333333,-1.576726,0.3127706,1.1971766,3.885224,-7.0,-14.2,-12.8,-10.6,-4.4,255.0,-1061.8,-5.6,328.4,1015.5146,-1.4932188,3232.2,0.0155944533333333,7.264000000000113e-05,-0.0048644303333333,-0.0265828933333333,-1.576726,-0.0020161543333333,36930.0,26965.0,10250.0,41.0,27.0,-27.0,0,None
2022-12-25 08:16:54.400,514.494,0.1039999999999963,100.0,1108.0,24378.0,4883.0,99.0,1144.2,144.6,4877.2,74.68438,0.8506612,-9.86810000000002e-05,-0.031167675,-1.529212,36.94,0.0095611604999999,-0.02315523,-1.575154,0.5068352599999999,1.3483643399999998,5.5901814000000005,9.8,-61.0,-6.2,-17.6,-8.8,260.0,-1044.8,-4.6,335.0,1015.5234,-1.4844373999999998,3233.2,0.0095611604999999,-0.03180118,-0.02315523,-0.0959723399999999,-1.575154,-0.0028629425,36940.0,26982.0,10260.0,38.0,24.0,-29.0,0,None
2022-12-25 08:16:54.950,515.0559999999999,0.1000000000000037,100.0,1135.0,24370.0,4887.0,99.0,1132.6666666666667,146.5,4881.666666666667,76.73606166666667,0.85395645,-0.004191137,-0.0434608566666666,-1.5227473333333332,36.94,0.0060909586666666,-0.0330676466666666,-1.567905,0.492954,0.8892113166666666,3.214081,4.166666666666667,66.16666666666667,-2.833333333333333,-10.333333333333334,39.5,249.3333333333333,-1056.1666666666667,-12.666666666666666,330.6666666666667,1015.5193333333336,-1.4883985,3234.1666666666665,0.0060909586666666,0.028647987,-0.0330676466666666,0.0526605766666666,-1.567905,-0.0094797776666666,36940.0,27022.0,10260.0,21.0,15.0,-29.0,0,None
2022-12-25 08:16:55.500,515.6388,0.1081999999999879,100.0,1077.0,24403.0,4877.0,99.0,1125.6,148.4,4883.4,79.087698,0.8560023600000001,-0.0581604176666666,-0.0129053079999999,-1.5287863333333334,36.94,-0.0479542566666666,-0.0029747463333333,-1.5737043333333334,0.5219058000000001,1.07237332,6.9666078,-5.6,-1.0,13.2,6.1,-281.9,254.8,-1037.0,-21.5,322.4,1015.5096,-1.4983905,3235.2,-0.0479542566666666,-0.2945298366666666,-0.0029747463333333,-0.0055497933333333,-1.5737043333333334,-0.022498167,36940.0,26995.0,10260.0,17.0,9.0,-31.0,0,None
2022-12-25 08:16:56.050,516.1503999999999,0.0999999999999999,100.0,1235.0,24328.0,4882.0,99.0,1178.2,150.4,4879.6,81.28460199999999,0.8589779199999998,-0.2057769,-0.0413308733333333,-1.5304483333333334,36.95666666666667,-0.1925021,-0.0322222066666666,-1.574077333333333,0.43774252,1.14791458,7.515579799999999,-23.8,-33.6,58.2,23.8,41.0,252.2,-1040.6,24.0,320.6,1015.5032,-1.5045156,3235.8,-0.1925021,0.0601886899999999,-0.0322222066666666,-0.0310091776666666,-1.574077333333333,0.0232381599999999,36950.0,26957.0,10270.0,17.0,-53.0,-28.0,0,None
2022-12-25 08:16:56.600,516.703,0.1030000000000086,100.0,1085.0,24362.0,4856.0,99.0,1117.5,151.83333333333334,4878.5,83.86258,0.8654012333333333,0.0529906199999999,-0.0247156666666666,-1.5249426666666668,36.97333333333333,0.0632090833333333,-0.016174614,-1.5655086666666669,0.4298266499999999,1.0717359666666668,8.173149166666667,-18.83333333333333,71.16666666666667,1.0,-3.333333333333333,549.3333333333334,248.3333333333333,-1034.8333333333333,6.833333333333333,325.8333333333333,1015.5001666666666,-1.5078386666666663,3237.0,0.0632090833333333,0.4984836066666667,-0.016174614,0.0634801966666666,-1.5655086666666669,0.0064393893333333,36970.0,27018.0,10290.0,5.0,-149.0,-26.0,0,None
2022-12-25 08:16:57.150,517.2662,0.1003999999999905,100.0,1118.0,24398.0,4882.0,99.0,1130.8,153.6,4880.6,86.329052,0.86666464,0.11019693,-0.047206335,-1.5406325,36.975,0.1144387749999999,-0.037072959,-1.5795305000000002,0.5162381,1.151872,10.8480724,-15.4,-195.4,-47.0,-7.8,-184.4,240.8,-1053.0,-35.2,345.0,1015.508,-1.4999374,3237.6,0.1144387749999999,-0.1921316,-0.037072959,-0.23537595,-1.5795305000000002,-0.0320961115,36970.0,27004.0,10290.0,4.0,-123.0,-28.0,0,None
2022-12-25 08:16:57.700,517.837,0.103333333333334,100.0,1156.0,24365.0,4877.0,99.0,1183.6666666666667,155.5,4879.0,88.44602833333335,0.8674034,-0.0097859566666666,-0.1783378,-1.5420266666666669,36.97333333333333,-0.001986629,-0.1659920333333333,-1.5787773333333333,0.5306375333333332,1.1797849000000002,8.707117333333334,-30.5,-92.16666666666669,-4.0,28.33333333333333,-123.5,197.16666666666663,-1055.8333333333333,-6.333333333333333,354.3333333333333,1015.5056666666666,-1.5020965000000002,3238.833333333333,-0.001986629,-0.13708793,-0.1659920333333333,-0.1275373966666666,-1.5787773333333333,-0.0338999966666666,36970.0,26958.5,10290.0,-49.5,-63.5,-29.0,0,None
2022-12-25 08:16:58.250,518.4076000000001,0.1041999999999915,100.0,1064.0,24414.0,4877.0,99.0,1057.8,157.2,4877.6,90.41613800000002,0.8733447199999999,-0.001854774,-0.02846646,-1.5412806666666663,36.98,0.0095958333333333,-0.0154297366666666,-1.5787483333333334,0.53364532,1.3661612,9.022796,-21.6,565.4,0.0,36.8,83.8,245.6,-1126.6,-33.2,353.0,1015.482,-1.526031,3239.4,0.0095958333333333,0.1319184733333333,-0.0154297366666666,0.5811475666666667,-1.5787483333333334,-0.0229899366666666,36990.0,26948.0,10310.0,-116.0,-67.0,-27.0,0,None
2022-12-25 08:16:58.800,518.908,0.0999999999999999,100.0,1092.0,24383.0,4875.0,99.0,1209.0,158.6,4875.4,92.466192,0.87933454,0.034762235,0.24758,-1.5429665,37.0,0.0438477,0.2535919,-1.581344,0.4866287999999999,1.5932158,11.919389,-10.8,348.2,-25.2,-17.8,36.8,308.4,-1071.2,-35.0,248.4,1015.4422,-1.5657814,3240.2,0.0438477,0.061665525,0.2535919,0.3261906499999999,-1.581344,-0.0230735935,37000.0,26927.0,10320.0,-8.0,-56.0,-33.0,0,None
2022-12-25 08:16:59.350,519.478,0.103333333333334,100.0,1219.5,24322.5,4874.5,99.0,1231.0,160.5,4878.333333333333,94.648295,0.8820325499999999,0.0019904336666666,0.2524636,-1.5474673333333335,37.01666666666667,0.007919266,0.2579528333333333,-1.5853866666666667,0.4739388833333333,1.5739103333333333,9.853983333333334,-11.5,-210.3333333333333,-14.333333333333334,-6.833333333333333,-70.16666666666667,331.3333333333333,-1083.0,54.16666666666666,243.5,1015.5088333333332,-1.499179833333333,3241.1666666666665,0.007919266,-0.0978292733333333,0.2579528333333333,-0.1930345633333333,-1.5853866666666667,0.0416696266666666,37020.0,26927.0,10340.0,137.0,-52.0,-35.0,0,None
2022-12-25 08:16:59.900,520.028,0.0999999999999999,100.0,1263.0,24283.0,4858.0,98.2,1185.0,162.4,4874.4,96.712034,0.88431168,0.0499632183333333,-0.00261523,-1.53739,37.00333333333334,0.0540959013333333,0.0092162189999999,-1.5723893333333334,0.47411642,0.92733614,4.611107800000001,-17.8,-473.4,-6.2,-12.8,307.6,258.0,-1075.4,12.2,303.4,1015.5408,-1.4669844,3242.2,0.0540959013333333,0.3344694333333333,0.0092162189999999,-0.4487026,-1.5723893333333334,0.0132064490999999,37000.0,26997.0,10320.0,192.0,-48.0,-33.0,0,None
2022-12-25 08:17:00.450,520.578,0.1000000000000037,100.0,1313.0,24262.0,4882.0,98.0,1309.6666666666667,164.33333333333334,4876.0,98.55786666666664,0.8846505666666666,0.2291766,-0.1123133,-1.536754,36.95,0.2331790333333333,-0.0937139799999999,-1.564752333333333,0.4319822333333332,1.0425740666666667,5.8240680000000005,9.166666666666666,1.0,-72.83333333333333,-31.166666666666668,172.0,210.5,-1091.3333333333333,12.5,344.5,1015.5228333333334,-1.4848958333333335,3243.0,0.2331790333333333,0.1115591866666666,-0.0937139799999999,0.02369551,-1.564752333333333,0.04244569,36950.0,27019.0,10270.0,149.0,33.0,-31.0,0,None
2022-12-25 08:17:01.000,521.128,0.0999999999999999,100.0,1107.0,24376.0,4882.0,98.0,1223.8,166.4,4878.2,100.153764,0.88770252,0.0923966,-0.07602304,-1.5229045,36.94,0.09885978,-0.056813345,-1.5489465,0.39182954,1.1638798,6.5615358,18.6,110.0,-40.6,-23.6,-591.6,226.2,-1035.0,-36.8,340.8,1015.5316,-1.4760626,3243.8,0.09885978,-0.6824618499999999,-0.056813345,0.088793765,-1.5489465,-0.02572466,36930.0,27129.0,10250.0,93.0,140.0,-26.0,0,None
2022-12-25 08:17:01.550,521.678,0.1000000000000037,100.0,1133.0,24342.0,4880.0,98.0,1104.6666666666667,168.16666666666666,4879.5,101.63333333333333,0.8960210333333333,-0.19036039,-0.0009893153333333,-1.532989,36.96,-0.1753227433333333,0.0125908799999999,-1.5586536666666666,0.3496552333333333,0.9846419333333332,5.556296333333333,4.0,126.5,54.66666666666666,-4.666666666666667,-325.6666666666667,258.5,-1043.3333333333333,-18.166666666666668,304.8333333333333,1015.5076666666668,-1.5000001666666665,3244.6666666666665,-0.1753227433333333,-0.3857492666666666,0.0125908799999999,0.12468379,-1.5586536666666666,-0.0239749133333333,36960.0,27081.0,10280.0,66.0,119.0,-29.0,0,None
2022-12-25 08:17:02.100,522.228,0.0999999999999999,100.0,1164.0,24327.0,4887.0,98.0,1190.2,169.6,4879.2,103.03032,0.90740864,-0.2336088666666666,-0.01954351,-1.545486666666667,36.96666666666667,-0.2162659,-0.0106226096666666,-1.565605666666667,0.4778117,0.96776614,6.574991800000001,-13.8,-212.8,72.2,9.8,196.4,260.0,-1056.2,-12.6,310.6,1015.526,-1.4817186,3245.6,-0.2162659,0.1808497033333333,-0.0106226096666666,-0.21553174,-1.565605666666667,-0.0309226366666666,36960.0,27031.0,10280.0,74.0,-13.0,-28.0,0,None
2022-12-25 08:17:02.650,522.7779999999999,0.1000000000000037,100.0,1249.0,24293.0,4883.0,98.0,1235.3333333333333,171.83333333333334,4884.333333333333,104.7592,0.9193512333333336,-0.1441523,-0.1348232666666666,-1.5522806666666664,36.94,-0.1311174333333333,-0.1269466666666666,-1.5675226666666668,0.5072576333333333,1.01651945,7.098139499999999,-19.33333333333333,-112.5,41.16666666666666,-8.0,106.0,212.3333333333333,-1068.5,-1.8333333333333333,351.0,1015.522,-1.4858855000000002,3246.5,-0.1311174333333333,0.0725364433333333,-0.1269466666666666,-0.0959573936666666,-1.5675226666666668,0.0037574773333333,36945.0,27018.0,10265.0,27.0,-162.0,-27.0,0,None
2022-12-25 08:17:03.200,523.3282,0.1001999999999952,100.0,1045.0,24347.0,4885.0,98.0,1098.2,173.4,4887.0,106.55908,0.93223924,-0.1384658,-0.1165202,-1.562527,36.94,-0.12738135,-0.108625175,-1.5767855,0.5125968999999999,0.9223878,9.1035254,-28.4,152.6,32.2,0.8,-49.6,220.6,-1082.2,-39.6,377.6,1015.5078,-1.4999376,3247.4,-0.12738135,-0.10366721,-0.108625175,0.15520475,-1.5767855,-0.027885245,36950.0,26911.0,10270.0,-51.0,-263.0,-25.0,0,None
2022-12-25 08:17:03.750,523.8642,0.1077999999999974,100.0,1075.0,24368.0,4895.0,98.0,1046.0,175.2,4888.0,108.49816,0.94852422,-0.1837832,-0.022721223,-1.5843360000000002,36.973333333333336,-0.1727641333333333,-0.01840531,-1.5970213333333334,0.55781028,1.2070168,13.67747,-39.0,85.3,50.4,21.8,-60.9,254.7,-1066.6,-31.7,329.2,1015.4429,-1.5649687,3248.5,-0.1727641333333333,-0.0702852466666666,-0.01840531,0.1095662533333333,-1.5970213333333334,-0.0353413666666666,37000.0,26807.0,10320.0,-51.0,-345.0,-23.0,0,None
2022-12-25 08:17:04.300,524.3716000000001,0.0999999999999999,100.0,996.0,24373.0,4890.0,98.0,1125.0,176.6,4887.6,110.02356,0.96112646,-0.2168921999999999,-0.011536906,-1.5965075,37.03,-0.20706215,-0.0084605435,-1.60493,0.5631339000000001,1.3778502,14.736238,-40.8,-36.8,51.0,17.6,-21.6,246.8,-1149.2,-19.4,312.8,1015.4722,-1.5356716,3249.2,-0.20706215,-0.04055458,-0.0084605435,-0.03355217,-1.60493,0.00166719415,37070.0,26799.0,10390.0,-39.0,-438.0,-13.0,0,None
2022-12-25 08:17:04.850,524.9240000000001,0.1120000000000117,100.0,1346.0,24238.0,4887.0,98.0,1343.5,178.5,4887.8,111.58434,0.9733742,-0.1976423,-0.04166212,-1.5992213333333332,37.21,-0.1888455333333333,-0.03759985,-1.6015160000000002,0.59081558,1.6180610000000002,13.21029,-72.2,-86.0,43.6,1.4,157.4,241.8,-1238.2,-23.2,322.2,1015.384,-1.6237032,3250.0,-0.1888455333333333,0.1186677833333333,-0.03759985,-0.0610710333333333,-1.6015160000000002,0.0211146186666666,37390.0,26842.0,10710.0,-34.0,-530.0,52.0,0,None
2022-12-25 08:17:05.400,525.5086666666666,0.106833333333327,100.0,1077.0,24340.0,4882.5,98.0,1035.8333333333333,180.5,4885.666666666667,113.55326666666666,0.9867583333333332,0.0289152833333333,-0.0904202,-1.5897283333333334,37.836666666666666,0.0343377599999999,-0.08336082,-1.5862606666666668,0.5614622833333334,1.3535996666666668,12.829573333333334,-71.58333333333333,-6.0,-19.25,20.5,350.3333333333333,224.8333333333333,-1054.25,15.416666666666666,358.8333333333333,1015.3833333333332,-1.6244595833333333,3250.9166666666665,0.0326360933333333,0.4079254,-0.0836855233333333,-0.0322157066666666,-1.5862586666666667,0.0370829666666666,38000.0,26932.0,11320.0,-47.0,-514.0,66.0,0,None
2022-12-25 08:17:05.950,526.0690000000001,0.0999999999999999,100.0,1111.0,24296.0,4887.0,98.0,1064.0,182.2,4880.0,115.3826,0.9981018,0.1370363,-0.0758370033333333,-1.601357666666667,38.48,0.1390534666666666,-0.0650293233333333,-1.595849,0.59282844,1.276409,14.590071999999996,-63.0,84.2,-59.2,29.8,26.8,220.0,-1047.4,-27.2,349.6,1015.3254,-1.6825778,3252.0,0.1390534666666666,0.0622046566666666,-0.0650293233333333,0.0847363666666666,-1.595849,-0.0278576,38520.0,26845.0,11840.0,-63.0,-428.0,68.0,0,None
2022-12-25 08:17:06.500,526.629,0.103333333333334,100.0,1166.0,24326.0,4890.0,98.0,1066.6666666666667,183.8333333333333,4887.0,117.12645000000002,1.0092158333333334,0.1046108166666666,-0.0316122466666666,-1.6109803333333332,39.07666666666668,0.1089149666666666,-0.017793254,-1.6055323333333331,0.5796007166666666,1.3837845,14.338888333333337,-49.16666666666666,94.83333333333331,-58.333333333333336,17.833333333333332,-58.5,231.3333333333333,-1092.6666666666667,-8.5,329.5,1015.2521666666668,-1.7555466666666666,3253.0,0.1089149666666666,-0.03039227,-0.017793254,0.1147333,-1.6055323333333331,0.0101871664,39020.0,26790.0,12340.0,-69.0,-342.0,63.0,0,None
2022-12-25 08:17:07.050,527.189,0.0999999999999999,100.0,1177.0,24268.0,4885.0,98.0,1131.4,185.4,4883.4,118.73086,1.0195404,0.095067845,0.00380634465,-1.6017055,39.575,0.10152185,0.01830012,-1.5954155,0.52770488,1.428779,13.527342,-33.0,37.8,-42.8,7.8,27.8,259.2,-1040.4,23.8,318.0,1015.169,-1.838906,3253.8,0.10152185,0.043867545,0.01830012,0.062802555,-1.5954155,-0.0080269915,39510.0,26852.0,12830.0,-55.0,-276.0,71.0,0,None
2022-12-25 08:17:07.600,527.7389999999999,0.1000000000000037,100.0,1116.0,24289.0,4891.0,98.0,1136.5,187.16666666666663,4877.166666666667,120.1837,1.0272789999999998,0.10078712,0.0133399833333333,-1.595082,40.126666666666665,0.1074563,0.0274589366666666,-1.5869153333333337,0.5200523833333333,1.4510986666666668,12.272830166666669,-37.333333333333336,15.333333333333334,-50.333333333333336,54.833333333333336,5.0,259.8333333333333,-1053.3333333333333,10.0,318.1666666666667,1015.133,-1.874973833333333,3254.5,0.1074563,0.0331183596666666,0.0274589366666666,0.0337977666666666,-1.5869153333333337,0.0340979866666666,40060.0,26893.0,13380.0,-34.0,-213.0,76.0,0,None
2022-12-25 08:17:08.150,528.309,0.1079999999999926,100.0,1209.0,24240.0,4880.0,98.0,1206.0,189.0,4883.6,121.48306,1.0321874000000002,0.1121157,0.0139124666666666,-1.5907256666666667,40.77333333333333,0.1189803999999999,0.0304370566666666,-1.576544,0.49346508,1.6630356,12.60813,-22.6,6.8,-54.6,35.6,52.4,251.0,-1068.4,27.0,307.2,1015.0968,-1.9109534,3255.2,0.1189803999999999,0.031972479,0.0304370566666666,0.016098379,-1.576544,0.0353121766666666,40590.0,26946.0,13910.0,-9.0,-154.0,72.0,0,None
2022-12-25 08:17:08.700,528.8682,0.1115999999999985,100.0,1205.0,24239.0,4883.0,98.0,1233.6,190.8,4877.8,122.70746,1.0353716,0.1214816,0.01627591,-1.5905193333333336,41.41333333333333,0.1284072,0.0340946933333333,-1.568596333333333,0.42442182,1.2789542,8.9056206,-9.6,23.9,-60.0,-9.8,-36.1,246.1,-1075.5,-12.4,304.0,1015.0442,-1.9634141,3256.0,0.1284072,-0.0264048133333333,0.0340946933333333,0.0560624633333333,-1.568596333333333,-0.0020812076666666,41130.0,27005.0,14450.0,8.0,-87.0,80.0,0,None
2022-12-25 08:17:09.250,529.3964,0.1004000000000132,100.0,1176.0,24245.0,4859.0,98.0,1172.6,192.6,4881.6,123.77192,1.0378502,0.06607574,0.01586044,-1.593107,41.975,0.074636485,0.0329634,-1.5666145,0.49053672,1.376162,8.0492938,-14.0,-26.6,-36.0,28.2,-112.4,257.0,-1089.8,2.8,316.6,1014.9746,-2.033125,3256.4,0.074636485,-0.1200958,0.0329634,-0.0145398085,-1.5666145,-0.0277853585,41670.0,27023.0,14990.0,23.0,-21.0,84.0,0,None
2022-12-25 08:17:09.800,529.9094,0.1041999999999915,100.0,1209.0,24241.0,4877.0,98.0,1219.4,194.4,4885.4,124.74698,1.0410774,0.0173576066666666,0.0066203696666666,-1.5964136666666668,42.53333333333333,0.0278472003333333,0.0225241166666666,-1.5664593333333332,0.41894744,1.19867294,7.536356599999999,3.6,4.0,-32.8,-7.8,-104.4,267.4,-1050.8,5.8,326.0,1014.931,-2.0769532,3257.6,0.0278472003333333,-0.1650635366666666,0.0225241166666666,0.0089434966666666,-1.5664593333333332,0.004638137,42240.0,27023.0,15560.0,37.0,12.0,86.0,0,None
2022-12-25 08:17:10.350,530.4294,0.1039999999999963,100.0,1102.0,24297.0,4867.0,98.0,1092.0,196.0,4886.4,125.52966,1.0448622,-0.1378488,0.0036875385,-1.60132,43.055,-0.1263804,0.020305915,-1.5696365,0.45557518,1.1485934800000002,6.0994648,-7.6,13.8,18.8,-26.0,-290.2,261.8,-1007.4,-7.0,321.0,1014.8547999999998,-2.1530626,3258.0,-0.1263804,-0.24914775,0.020305915,0.005205365,-1.5696365,-0.021296425,42780.0,27024.0,16100.0,44.0,19.0,80.0,0,None
2022-12-25 08:17:10.900,530.9854,0.1157999999999901,100.0,993.0,24322.5,4890.5,98.0,936.8,197.6,4879.0,126.3465,1.0518508,-0.1712365333333333,0.0022515326666666,-1.6043753333333337,43.42666666666667,-0.1578281,0.013620405,-1.5711056666666667,0.57536426,0.8677557199999999,3.9751128,-9.1,-20.0,40.6,9.9,36.9,265.5,-949.0,-7.7,323.5,1014.7986,-2.2093282,3259.0,-0.1578281,0.008845819,0.013620405,-0.0350784633333333,-1.5711056666666667,0.0007034079999999,43380.0,26995.0,16700.0,52.0,-84.0,27.0,0,None
2022-12-25 08:17:11.450,531.552,0.1196000000000139,100.0,1083.0,24284.0,4891.0,98.0,1081.0,199.0,4882.0,127.26966,1.0595679999999998,-0.0678704266666666,-0.010643266,-1.60727,43.49,-0.0582890333333333,-0.0021198833333333,-1.5743973333333334,0.5248392999999999,1.030452,9.0803172,-27.6,-15.5,21.4,-2794.0093333333325,303.3,254.9,-1070.0,0.2,336.1,1014.7617,-2.246242,3259.8,-0.0582890333333333,0.3558012666666667,-0.0021198833333333,-0.0141515505666666,-1.5743973333333334,0.0123260169333333,43480.0,26980.0,16800.0,56.0,-172.0,-25.0,1,27_yacc_avg_drift_-50.06980952380951
2022-12-25 08:17:12.000,532.0971999999999,0.1005999999999857,100.0,1170.0,24251.0,4887.0,98.0,1146.8,201.0,4887.8,128.36166,1.0656924,0.13369035,-0.0135109399999999,-1.60761,43.485,0.13866615,-0.005344051,-1.575894,0.5051663,1.111587,12.601234000000002,-12.6,-0.8,-55.6,-2844.079142857142,223.2,250.4,-1071.0,-18.2,343.6,1014.726,-2.2817654000000003,3261.0,0.13866615,0.175545625,-0.005344051,-0.0249334599999999,-1.575894,-0.001689375,43490.0,26951.0,16810.0,58.0,-117.0,-25.0,1,27_yacc_avg_drift_-50.06980952380951
2022-12-25 08:17:12.550,532.6246000000001,0.1114000000000032,100.0,1064.0,24299.0,4890.0,98.0,1117.0,202.6,4881.6,129.41773999999998,1.0683168,0.1321885333333333,-0.0329052433333333,-1.6184469999999995,43.52,0.1352526333333333,-0.02331479,-1.586509333333333,0.50359442,1.14540992,10.366271800000002,-24.2,-28.7,-63.5,-2894.1489523809514,-88.3,250.5,-1048.5,-9.0,324.3,1014.7427,-2.265117,3261.2,0.1352526333333333,-0.09361802,-0.02331479,-0.0285626876666666,-1.586509333333333,-0.03082498,43530.0,26906.0,16850.0,54.0,-40.0,-28.0,1,27_yacc_avg_drift_-50.06980952380951
2022-12-25 08:17:13.100,533.2096666666666,0.1005000000000108,100.0,1199.0,24213.0,4890.0,98.0,1163.5,204.5,4886.0,130.56629999999998,1.06997,0.038392239,-0.0334133966666666,-1.6036506666666668,43.54333333333333,0.04495504,-0.0213311633333333,-1.5724956666666667,0.5210213166666666,1.1326273166666667,8.545227833333334,-7.166666666666667,45.333333333333336,-29.166666666666668,-2944.218761904761,-139.16666666666666,247.66666666666663,-1057.8333333333333,17.333333333333332,331.3333333333333,1014.7546666666666,-2.2533331666666667,3262.333333333333,0.04495504,-0.1478391666666666,-0.0213311633333333,0.0296498840666666,-1.5724956666666667,0.05052033,43540.0,27000.0,16860.0,43.0,1.0,-26.0,1,27_yacc_avg_drift_-50.06980952380951
2022-12-25 08:17:13.650,533.778,0.1039999999999963,100.0,1305.0,24218.0,4862.0,98.0,1347.4,206.4,4875.0,131.48118,1.0728042,-0.013839385,-0.017600245,-1.5867215,43.595,-0.0038788515,-0.006466106,-1.554878,0.44905284,1.41708678,8.4931212,-8.2,5.4,-11.8,-2994.288571428571,-10.2,258.4,-1149.6,14.0,342.6,1014.7356,-2.2725624,3263.0,-0.0038788515,-0.00370676,-0.006466106,0.0153934244999999,-1.554878,0.03218621,43600.0,27101.0,16920.0,41.0,0.0,4.0,1,27_yacc_avg_drift_-50.06980952380951
2022-12-25 08:17:14.200,534.34,0.1000000000000037,100.0,1238.0,24191.0,4888.0,98.0,1131.5,208.5,4882.666666666667,132.38076666666666,1.0771516666666667,-0.004526817,-0.0305243533333333,-1.5793609999999998,43.89333333333334,0.005197321,-0.0192998433333333,-1.5474123333333332,0.47512465,1.619577666666667,8.551903,-1.5,-38.16666666666666,-2.6666666666666665,-3044.3583809523802,-101.0,250.0,-1044.0,-12.666666666666666,332.1666666666667,1014.7056666666668,-2.3023436666666663,3263.6666666666665,0.005197321,0.0037397866666666,-0.0192998433333333,-0.028255223,-1.5474123333333332,0.0298509266666666,43920.0,27133.0,17240.0,40.0,-7.0,57.0,1,27_yacc_avg_drift_-50.06980952380951
2022-12-25 08:17:14.750,534.89,0.0999999999999999,100.0,942.0,24362.0,4883.0,98.0,999.6,210.0,4874.0,133.21926000000002,1.0834514,-0.1441030133333333,-0.0438584,-1.5821313333333336,44.25,-0.1320409866666666,-0.03314048,-1.5518103333333333,0.6290974,0.92375934,4.073524600000001,-12.4,23.4,37.8,-3094.4281904761897,-188.2,243.0,-964.2,-17.0,341.0,1014.662,-2.3460468,3264.4,-0.1320409866666666,-0.2447415833333333,-0.03314048,0.027942811,-1.5518103333333333,-0.0253791636666666,44250.0,27116.0,17570.0,30.0,-37.0,6.0,1,27_yacc_avg_drift_-50.06980952380951
2022-12-25 08:17:15.300,535.4399999999999,0.1000000000000037,100.0,1069.0,24311.5,4889.0,98.0,1128.0,211.5,4882.166666666667,134.01011666666665,1.0919858333333332,-0.1497646333333333,-0.0267113833333333,-1.5950476666666666,44.28333333333333,-0.1382946133333333,-0.0185775833333333,-1.5645870000000002,0.5225998333333334,1.0810616666666666,8.896694666666667,-32.833333333333336,14.333333333333334,40.16666666666666,-3144.497999999999,174.33333333333334,252.8333333333333,-1021.6666666666666,-26.666666666666668,322.0,1014.6393333333332,-2.3685938333333336,3265.0,-0.1382946133333333,0.1869309433333333,-0.0185775833333333,0.00605427,-1.5645870000000002,-0.027071917,44290.0,27052.0,17610.0,22.0,-116.0,-28.0,1,27_yacc_avg_drift_-50.06980952380951
2022-12-25 08:17:15.850,535.99,0.0999999999999999,100.0,1108.0,24255.0,4877.0,98.0,1061.6,213.4,4884.4,134.88792,1.1009544,0.068792685,-0.0295635749999999,-1.609649,44.28,0.076801205,-0.02353951,-1.5774415,0.5501904799999999,1.1521992,14.146567999999998,-25.0,-24.6,-32.2,-3194.5678095238086,489.0,245.8,-1072.4,-31.0,343.8,1014.6052,-2.402625,3266.0,0.076801205,0.55004915,-0.02353951,-0.031155475,-1.5774415,-0.0254806135,44280.0,26992.0,17600.0,21.0,-172.0,-28.0,1,27_yacc_avg_drift_-50.06980952380951
2022-12-25 08:17:16.400,536.54,0.0999999999999847,100.0,1181.0,24227.0,4883.0,98.0,1152.1666666666667,215.0,4881.666666666667,135.91646666666665,1.107699,0.1681636333333333,-0.0407265233333333,-1.6281363333333332,44.29,0.1713922333333333,-0.0324050733333333,-1.5948703333333334,0.5050538499999999,1.356853,12.932486166666664,-25.666666666666668,12.333333333333334,-78.5,-3244.637619047618,-54.66666666666666,239.8333333333333,-1063.0,-20.0,335.3333333333333,1014.6003333333332,-2.4077085,3266.833333333333,0.1713922333333333,-0.0067501433333333,-0.0324050733333333,0.0183898003333333,-1.5948703333333334,-0.023469069,44295.0,26852.5,17615.0,16.0,-74.5,-29.0,1,27_yacc_avg_drift_-50.06980952380951
2022-12-25 08:17:16.950,537.09,0.0999999999999999,100.0,1187.0,24254.0,4875.0,98.0,1149.0,216.6,4878.0,136.93382000000005,1.1124584,0.0734888833333333,-0.0355549833333333,-1.6342309999999998,44.31333333333333,0.0789118766666666,-0.0236039333333333,-1.6019703333333333,0.5742625199999999,1.4628722,11.2108304,-16.2,31.4,-43.4,-3294.7074285714275,-222.0,244.6,-1087.6,25.2,337.8,1014.633,-2.3750936,3267.8,0.0789118766666666,-0.1912283333333333,-0.0236039333333333,0.03914508,-1.6019703333333333,0.0270667333333333,44320.0,26842.0,17640.0,9.0,10.0,-27.0,1,27_yacc_avg_drift_-50.06980952380951
2022-12-25 08:17:17.500,537.59,0.0999999999999999,100.0,1090.0,24212.0,4875.0,98.0,1111.4,218.4,4881.2,137.73246,1.1169395999999998,-0.01424104,-0.0267637,-1.6213435,44.31,-0.0048871025,-0.015244145,-1.589634,0.49397314,2.2656428,15.560166,-7.4,20.2,-18.4,-3344.777238095237,-40.0,233.2,-1043.2,32.8,325.2,1014.643,-2.36475,3268.2,-0.0048871025,-0.0544626825,-0.015244145,0.018568025,-1.589634,-0.002756655,44310.0,26962.0,17630.0,5.0,7.0,-32.0,1,27_yacc_avg_drift_-50.06980952380951
2022-12-25 08:17:18.050,538.16,0.103333333333334,100.0,1148.0,24259.0,4854.0,98.0,1133.5,220.16666666666663,4882.0,138.56593333333333,1.123291,-0.0295194966666666,-0.01816204,-1.6001773333333331,44.29666666666666,-0.01807114,-0.006979913,-1.568579333333333,0.4626526499999999,1.4837005,10.646374666666668,-4.166666666666667,2.0,-3.6666666666666665,-3394.8470476190464,-76.5,253.66666666666663,-1078.1666666666667,-2.5,319.3333333333333,1014.6415,-2.3665885,3268.833333333333,-0.0171924666666666,0.0052147633333333,-0.007147069,0.0031967399999999,-1.5685653333333331,0.0216491033333333,44290.0,27043.0,17610.0,7.0,-10.0,-33.0,1,27_yacc_avg_drift_-50.06980952380951
2022-12-25 08:17:18.600,538.7180000000001,0.1080000000000154,100.0,1190.0,24227.0,4880.0,98.0,1212.2,222.0,4876.0,139.29825999999997,1.129688,-0.1449926433333333,-0.0166121133333333,-1.5875086666666665,44.27333333333333,-0.1334723666666666,-0.0063804863333333,-1.5567793333333333,0.5004399,1.3791169999999997,8.0891382,-14.6,31.0,31.6,-3444.9168571428563,-198.6,252.1,-1049.7,-7.5,323.7,1014.6523,-2.3554218,3270.1,-0.1334723666666666,-0.2444439766666666,-0.0063804863333333,0.0346232066666666,-1.5567793333333333,-0.0115071873333333,44270.0,27093.0,17590.0,10.0,-69.0,-31.0,1,27_yacc_avg_drift_-50.06980952380951
2022-12-25 08:17:19.150,539.262,0.1039999999999963,100.0,1169.0,24238.0,4858.0,98.0,1159.0,223.8,4877.0,139.9584,1.136925,-0.1704865666666667,-0.0194935966666666,-1.590331,44.24,-0.1581057,-0.011159239,-1.5594243333333333,0.43681152,1.1888608,9.8366334,-22.8,-4.8,45.0,-3494.9866666666658,92.0,263.4,-1083.8,-20.0,336.6,1014.6436,-2.364078,3270.2,-0.1581057,0.08227616,-0.011159239,-0.0151299966666666,-1.5594243333333333,-0.0294619553333333,44230.0,27066.0,17550.0,16.0,-162.0,-27.0,1,27_yacc_avg_drift_-50.06980952380951
2022-12-25 08:17:19.700,539.8333333333334,0.103333333333334,100.0,1124.0,24237.0,4882.0,98.0,1117.1666666666667,225.5,4878.333333333333,140.56508333333332,1.1432161666666667,-0.1382152333333333,-0.0290862,-1.607553,44.22333333333333,-0.1292982666666666,-0.0221821866666666,-1.5778973333333333,0.5153892666666666,1.1658561666666667,12.653331666666666,-33.0,-21.666666666666668,33.833333333333336,-3545.056476190475,48.333333333333336,247.8333333333333,-1031.0,-31.0,314.0,1014.6155,-2.3923568333333334,3271.1666666666665,-0.1292982666666666,0.0791668553,-0.0221821866666666,-0.0246087193333333,-1.5778973333333333,-0.018342187,44220.0,26973.0,17540.0,15.0,-231.0,-26.0,1,27_yacc_avg_drift_-50.06980952380951
2022-12-25 08:17:20.250,540.41,0.1039999999999963,100.0,1023.0,24268.0,4888.0,98.0,1062.0,227.2,4882.0,141.23574,1.1491680000000002,-0.0120785299999999,-0.0395491,-1.6237935,44.225,-0.004886715,-0.03253996,-1.5938175,0.51071994,1.07836994,12.373488,-48.4,11.4,-1.0,-3595.1262857142847,412.2,243.8,-1035.4,-13.0,337.6,1014.6206,-2.3870626,3272.0,-0.004886715,0.47622175,-0.03253996,0.03357218,-1.5938175,0.0115741424999999,44220.0,26861.0,17540.0,12.0,-276.0,-27.0,1,27_yacc_avg_drift_-50.06980952380951
2022-12-25 08:17:20.800,540.9219999999999,0.1039999999999963,100.0,1214.0,24217.0,4891.0,98.0,1297.0,228.8,4883.0,141.97075999999998,1.1543290000000002,0.1225576,-0.0266897333333333,-1.6198240000000002,44.21666666666667,0.1269720666666666,-0.0197375066666666,-1.5900526666666666,0.4906943399999999,1.3353511999999998,12.6213874,-29.8,21.2,-61.4,-3645.196095238094,124.6,241.0,-1129.6,2.0,332.2,1014.5768,-2.4311092,3272.8,0.1269720666666666,0.1113035336666666,-0.0197375066666666,0.02072052,-1.5900526666666666,-0.000476153,44200.0,26888.0,17520.0,12.0,-232.0,-26.0,1,27_yacc_avg_drift_-50.06980952380951
2022-12-25 08:17:21.350,541.43,0.0999999999999999,100.0,1456.0,24117.0,4883.0,98.0,1401.6,230.8,4883.8,142.69388000000004,1.1579317999999998,0.1074759999999999,-0.0281191999999999,-1.6097245,44.395,0.111758425,-0.01797873,-1.5790825000000002,0.4344738,1.4477324,8.669522,-31.8,7.8,-61.2,-3695.2659047619036,-108.4,244.2,-1122.6,26.6,337.6,1014.6042,-2.4037812,3273.4,0.111758425,-0.13306855,-0.01797873,0.03383917,-1.5790825000000002,0.018867075,44350.0,26941.0,17670.0,13.0,-149.0,16.0,1,27_yacc_avg_drift_-50.06980952380951
2022-12-25 08:17:21.900,542.0201666666667,0.1099999999999946,100.0,1261.5,24166.0,4878.0,98.0,1291.3333333333333,233.16666666666663,4889.666666666667,143.66366666666667,1.1608618333333334,0.07398851,-0.017087835,-1.5894925,44.8125,0.0813986325,-0.0050924592,-1.5588405,0.4481526,1.2449311666666667,8.133359333333333,-25.166666666666668,23.916666666666668,-40.333333333333336,-3745.335714285713,-1.0833333333333333,255.0,-1100.4166666666667,36.083333333333336,337.5,1014.5820833333332,-2.425650833333333,3274.1666666666665,0.0816567675,0.0088709799999999,-0.0051296342,0.0248819414749999,-1.5589447500000002,0.0267113825,44690.0,27044.0,18010.0,15.0,-92.0,41.0,1,27_yacc_avg_drift_-50.06980952380951
2022-12-25 08:17:22.450,542.59,0.0999999999999999,100.0,971.0,24281.0,4869.0,98.0,1071.8,235.0,4881.6,144.41254,1.1618818,0.04532276,-0.012513085,-1.589377,45.18,0.0536101249999999,-0.00174803165,-1.5590834999999998,0.53541358,0.95877358,5.585058,-20.2,0.8,-25.8,-3795.405523809523,-79.4,258.6,-958.6,-17.8,336.8,1014.557,-2.4509062,3275.0,0.0536101249999999,-0.076838475,-0.00174803165,0.002902339,-1.5590834999999998,-0.006506223,45050.0,27091.0,18370.0,17.0,-44.0,44.0,1,27_yacc_avg_drift_-50.06980952380951
2022-12-25 08:17:23.000,543.1020000000001,0.1039999999999963,100.0,1166.0,24166.0,4879.0,98.0,1090.4,236.4,4882.4,145.07968,1.161764,0.0217125733333333,-0.0091144393333333,-1.5892213333333334,45.23,0.03170927,0.0026623983333333,-1.557798,0.5111608999999999,0.89147564,6.0087112000000005,-16.4,25.6,-18.8,-3845.4753333333324,0.6,251.6,-975.6,8.6,332.6,1014.539,-2.4686092,3275.4,0.03170927,-0.0070055683333333,0.0026623983333333,0.0288690366666666,-1.557798,0.0040097333333333,45260.0,27064.0,18580.0,20.0,-18.0,-3.0,1,27_yacc_avg_drift_-50.06980952380951
2022-12-25 08:17:23.550,543.618,0.104000000000019,100.0,1211.0,24195.0,4879.0,98.0,1224.2,238.0,4882.6,145.63156,1.1609964,0.0140368649999999,-0.0068692525,-1.5904250000000002,45.16,0.025420645,0.0053655885,-1.558256,0.52688584,1.06989094,7.6492328,-20.8,3.2,-17.0,-3895.545142857142,19.2,255.2,-1035.0,-13.8,324.2,1014.5322,-2.4759064,3276.2,0.025420645,-0.0213721929999999,0.0053655885,-0.0129355225,-1.558256,-0.0085757194999999,45200.0,27085.0,18520.0,24.0,-3.0,-27.0,1,27_yacc_avg_drift_-50.06980952380951
2022-12-25 08:17:24.100,544.1866666666666,0.103333333333334,100.0,1235.0,24157.0,4877.0,98.0,1221.6666666666667,240.0,4885.0,146.24783333333335,1.1592589999999998,0.0155594766666666,-0.0096938083333333,-1.5896396666666668,45.120000000000005,0.0264860233333333,0.0005899476666666,-1.5570540000000002,0.5178794000000001,1.2565812,6.570604166666666,-5.833333333333333,-0.1666666666666666,-16.666666666666668,-3945.6149523809513,22.166666666666668,251.5,-1059.8333333333333,-16.833333333333332,321.3333333333333,1014.5183333333332,-2.489557166666667,3276.6666666666665,0.0264860233333333,-0.0157682073333333,0.0005899476666666,-0.0181316385333333,-1.5570540000000002,-0.0173365306666666,45125.0,27076.5,18445.0,31.5,10.5,-25.5,1,27_yacc_avg_drift_-50.06980952380951
2022-12-25 08:17:24.650,544.734,0.0999999999999999,100.0,1160.0,24189.0,4877.0,98.0,1194.2,241.6,4880.6,146.74316,1.1572398,0.010678584,-0.0218107766666666,-1.5884596666666668,45.10999999999999,0.0208820966666666,-0.0113186846666666,-1.5563593333333332,0.50055932,1.3270513999999998,7.4539304,-6.6,-11.2,-15.7,-3995.6847619047608,-8.1,251.7,-1023.2,-4.3,327.5,1014.5194,-2.4885783,3277.6,0.0214762533333333,-0.0036176403333333,-0.0111052513333333,-0.004718554,-1.556374,-0.0197662233333333,45120.0,27083.0,18440.0,34.0,23.0,-25.0,1,27_yacc_avg_drift_-50.06980952380951
2022-12-25 08:17:25.200,545.3066666666667,0.0999999999999848,100.0,1164.0,24190.0,4891.0,98.0,1186.6666666666667,243.8333333333333,4878.333333333333,147.28816666666663,1.1547546666666666,0.0101102193333333,-0.02088,-1.5952793333333333,45.1,0.02115309,-0.0107502666666666,-1.5633799999999998,0.4788000166666666,1.2384153833333331,6.6744415,-23.0,9.666666666666666,-16.833333333333332,-4045.75457142857,24.166666666666668,249.66666666666663,-1074.5,3.6666666666666665,331.0,1014.5056666666666,-2.502343833333333,3278.1666666666665,0.02115309,0.0270403666666666,-0.0107502666666666,0.0151207616666666,-1.5633799999999998,-0.0037854959999999,45100.0,27041.0,18420.0,33.0,25.0,-24.0,1,27_yacc_avg_drift_-50.06980952380951
2022-12-25 08:17:25.750,545.8542,0.104000000000019,100.0,1162.0,24222.0,4895.0,98.0,1167.6,245.6,4885.8,147.70764,1.1534327999999998,0.010177727,-0.016634135,-1.5979785,45.095,0.01984251,-0.007776355,-1.566654,0.5120518,1.10584802,7.8513398,-18.4,7.2,-18.8,-4095.8243809523797,-1.0,253.0,-1090.8,21.2,329.6,1014.4892,-2.5187186,3279.0,0.01984251,-0.0064996849999999,-0.007776355,0.00194416,-1.566654,0.0168353295,45090.0,27029.0,18410.0,34.0,30.0,-27.0,1,27_yacc_avg_drift_-50.06980952380951
2022-12-25 08:17:26.300,546.4066666666666,0.0999999999999848,100.0,1175.0,24170.0,4882.0,98.0,1154.3333333333333,247.5,4891.666666666667,148.05204999999998,1.152956,0.006575167,-0.0227743033333333,-1.5934593333333331,45.11666666666667,0.01639304,-0.0141561566666666,-1.5625676666666666,0.4974023166666666,1.2551908333333337,8.080070666666666,-14.333333333333334,-13.833333333333334,-15.666666666666666,-4145.89419047619,-7.0,243.5,-1088.5,29.166666666666668,327.0,1014.4888333333332,-2.5188671666666664,3279.833333333333,0.01639304,0.0032346726666666,-0.0141561566666666,-0.0078443219999999,-1.5625676666666666,0.0132518373333333,45120.0,27053.0,18440.0,36.0,31.0,-28.0,1,27_yacc_avg_drift_-50.06980952380951
2022-12-25 08:17:26.850,546.954,0.0960000000000036,100.0,1142.0,24179.0,4895.0,98.0,1155.2,249.4,4885.6,148.35626,1.1531272,0.0016240319999999,-0.0331343033333333,-1.5892166666666665,45.12,0.0111073866666666,-0.0243074933333333,-1.5595116666666666,0.50032506,1.365775,8.3878618,-6.4,-11.8,-10.4,15.8,4.4,250.8,-1062.4,21.4,338.2,1014.4797999999998,-2.528078,3280.6,0.0111073866666666,-0.003625828,-0.0243074933333333,-0.0098424733333333,-1.5595116666666666,-0.0024510659999999,45120.0,27070.0,18440.0,36.0,29.0,-28.0,0,None
2022-12-25 08:17:27.400,547.5233333333333,0.1066666666666643,100.0,1321.5,24115.0,4877.0,98.0,1319.3333333333333,251.16666666666663,4877.5,148.66710000000003,1.1541926666666666,0.0120000059999999,-0.03907849,-1.5896033333333337,45.18333333333334,0.0213600066666666,-0.0308183966666666,-1.5609143333333335,0.4609822333333333,1.5326565,10.994786166666666,-5.666666666666667,3.1666666666666665,-16.5,10.0,45.333333333333336,247.16666666666663,-1094.5,-0.1666666666666666,342.1666666666667,1014.4678333333331,-2.540025833333333,3281.1666666666665,0.0213600066666666,0.0377950433333333,-0.0308183966666666,-0.0223467943333333,-1.5609143333333335,-0.0081208386666666,45140.0,27066.0,18460.0,31.0,26.0,-24.0,0,None
2022-12-25 08:17:27.950,548.106,0.1039999999999963,100.0,1424.0,24078.0,4882.0,98.0,1492.8,253.4,4881.4,149.00382,1.1564336000000002,0.013735256,-0.040224605,-1.5896815,45.445,0.022786075,-0.03155879,-1.561461,0.41786038,1.7146656,11.0863446,-5.6,20.4,-25.0,-1.0,-17.0,230.6,-1124.0,0.0,342.6,1014.4526,-2.555375,3282.0,0.022786075,-0.05625437,-0.03155879,0.012935308,-1.561461,0.005184868,45320.0,27055.0,18640.0,24.0,31.0,23.0,0,None
2022-12-25 08:17:28.500,548.61,0.0999999999999999,100.0,996.0,24257.0,4885.0,98.0,1216.8,255.4,4883.6,149.30278,1.1596464000000002,-0.006103324,-0.0344153566666666,-1.593141666666667,45.95333333333334,0.0035337928999999,-0.02685429,-1.5658686666666668,0.4903107400000001,1.5265604,8.4544628,-16.8,-1.8,-11.4,36.6,-19.8,238.8,-1065.0,-6.2,342.2,1014.3908,-2.6170936,3282.6,0.0035337928999999,-0.0074946706666666,-0.02685429,0.0145321166666666,-1.5658686666666668,-0.0259786776666666,45780.0,27035.0,19100.0,15.0,33.0,68.0,0,None
2022-12-25 08:17:29.050,549.16,0.1000000000000037,100.0,954.0,24238.0,4879.0,98.0,966.5,256.6666666666667,4884.666666666667,149.67936666666665,1.1643973333333335,-0.006656025,-0.0307597033333333,-1.5929146666666665,46.43000000000001,0.0034487243333333,-0.0235347233333333,-1.5680353333333334,0.5027954666666666,0.9241948166666668,6.3016828333333335,-2.1666666666666665,19.33333333333333,-5.833333333333333,20.5,24.33333333333333,248.66666666666663,-925.1666666666666,-2.1666666666666665,336.3333333333333,1014.35,-2.6577345,3283.1666666666665,0.0034487243333333,0.0179243366666666,-0.0235347233333333,0.0163304789666666,-1.5680353333333334,-0.0113468936666666,46400.0,27015.5,19720.0,13.0,27.5,17.5,0,None
2022-12-25 08:17:29.600,549.7299999999999,0.1039999999999963,100.0,1181.0,24171.0,4882.0,98.0,1140.2,258.4,4880.6,150.09206,1.1696782,-0.0015475885,-0.025599435,-1.5942615,46.475,0.0075418935,-0.01859472,-1.5708265,0.58354536,1.0806982,7.744280599999999,-17.4,20.0,-13.8,26.0,31.4,242.6,-1000.4,6.2,328.6,1014.3176,-2.6902656,3284.0,0.0075418935,0.0278167169999999,-0.01859472,0.0130213965,-1.5708265,-0.020967195,46440.0,26996.0,19760.0,15.0,25.0,-35.0,0,None
2022-12-25 08:17:30.150,550.2833333333333,0.1000000000000037,100.0,1172.0,24177.0,4882.0,98.0,1204.1666666666667,260.3333333333333,4886.833333333333,150.49868333333333,1.1749861666666666,-0.0020355293333333,-0.02481392,-1.592104,46.43666666666667,0.0067290926666666,-0.0169944,-1.5696133333333335,0.5264882833333334,1.3773588333333333,10.844834333333331,-14.833333333333334,-1.6666666666666667,-14.666666666666666,17.833333333333332,-24.5,248.0,-1095.1666666666667,19.5,336.6666666666667,1014.323,-2.684908833333333,3284.5,0.0067290926666666,-0.012979426,-0.0169944,-0.0144427836666666,-1.5696133333333335,-0.007311218,46430.0,27017.0,19750.0,17.0,26.0,-33.0,0,None
2022-12-25 08:17:30.700,550.8299999999999,0.0999999999999999,100.0,1159.0,24160.0,4888.0,98.0,1174.0,262.0,4889.4,150.88988,1.1802628,-0.012681513,-0.03023236,-1.5865493333333334,46.44,-0.003670719,-0.0231090999999999,-1.5649876666666669,0.51527604,1.3345465600000002,8.194529399999999,-19.4,-10.6,-12.8,5.4,-5.6,249.4,-1065.6,25.4,331.8,1014.3398,-2.6678906,3285.2,-0.003670719,-0.0147763,-0.0231090999999999,-0.002084187,-1.5649876666666669,-0.0038254927,46440.0,27038.0,19760.0,18.0,22.0,-34.0,0,None
2022-12-25 08:17:31.250,551.38,0.1000000000000037,100.0,1229.0,24175.0,4879.0,98.0,1191.8333333333333,263.8333333333333,4885.0,151.2978666666667,1.185582666666667,-0.0141725799999999,-0.03461006,-1.5830543333333331,46.43,-0.0053756986666666,-0.0272769033333333,-1.563003,0.4269756,1.0232048666666664,6.424170166666666,-23.166666666666668,4.5,-4.333333333333333,27.33333333333333,9.833333333333334,238.66666666666663,-1059.1666666666667,13.833333333333334,332.1666666666667,1014.3273333333336,-2.680494833333333,3285.833333333333,-0.0053756986666666,0.00336810863,-0.0272769033333333,0.0091731843333333,-1.563003,-0.0242044503333333,46430.0,27048.0,19750.0,14.0,16.0,-30.0,0,None
2022-12-25 08:17:31.800,551.946,0.1079999999999926,100.0,1179.0,24169.0,4890.0,98.0,1189.4,265.8,4889.8,151.78876,1.1911802,-0.0105773574999999,-0.02974726,-1.5873525000000002,46.44,-0.0018709784999999,-0.021723,-1.568547,0.4602733600000001,1.19122038,9.273305400000002,-25.6,22.3,-10.7,34.2,39.0,247.6,-1010.2,-1.6,340.9,1014.3316,-2.6763048,3286.6,-0.0018709784999999,0.02933177,-0.021723,0.021393268,-1.568547,-0.021306925,46440.0,27013.0,19760.0,13.0,12.0,-30.0,0,None
2022-12-25 08:17:32.350,552.47,0.0999999999999999,100.0,1301.0,24112.0,4885.0,98.0,1366.4,267.8,4889.8,152.28268,1.196406,-0.0040679193333333,-0.02271684,-1.5908306666666665,46.48333333333333,0.0048104666666666,-0.0160389366666666,-1.573011333333333,0.4394158,1.5314496,12.729288,-14.6,7.4,-18.2,15.0,11.4,250.0,-1143.4,-3.2,325.0,1014.323,-2.6846876,3287.4,0.0048104666666666,0.0169081986666666,-0.0160389366666666,0.00706701,-1.573011333333333,-0.0157985603333333,46480.0,26983.0,19800.0,13.0,11.0,-13.0,0,None
2022-12-25 08:17:32.900,553.03,0.103333333333334,100.0,1146.0,24181.5,4885.0,98.0,1345.6666666666667,270.0,4884.666666666667,152.76108333333332,1.2012051666666668,-0.008524133,-0.0286224666666666,-1.590665666666667,46.870000000000005,0.0008046869999999,-0.02070691,-1.5735469999999998,0.3592472333333333,1.3316232,9.692144,-16.166666666666668,-21.166666666666668,-13.333333333333334,25.5,-12.333333333333334,244.5,-1104.3333333333333,11.833333333333334,320.0,1014.2898333333331,-2.7180858333333333,3288.0,0.0008046869999999,-0.0084267786666666,-0.02070691,-0.0205236966666666,-1.5735469999999998,0.0085842666666666,46790.0,26977.0,20110.0,16.0,12.0,58.0,0,None
2022-12-25 08:17:33.450,553.59,0.0999999999999999,100.0,933.0,24234.0,4896.0,98.0,932.8,271.6,4884.6,153.22925999999998,1.2057370000000005,-0.01571985,-0.0417159349999999,-1.5862415,47.315,-0.0061291225,-0.034366885,-1.570531,0.53932108,0.74857628,4.87511,-14.2,18.6,-7.4,16.2,23.4,236.8,-916.2,4.4,339.4,1014.2496,-2.7581718000000004,3288.2,-0.0061291225,0.04582649,-0.034366885,0.0083823664999999,-1.570531,0.0097915685,47280.0,26998.0,20600.0,13.0,8.0,36.0,0,None
2022-12-25 08:17:34.000,554.14,0.1000000000000037,100.0,1205.0,24149.0,4850.0,98.0,1162.5,273.1666666666667,4887.333333333333,153.72886666666668,1.210598,0.000873649,-0.0230070366666666,-1.5807623333333334,47.406666666666666,0.0098619666666666,-0.0141016276666666,-1.5663273333333334,0.5186376,0.9970329833333332,6.194270666666667,-14.5,45.0,-12.166666666666666,-2.5,39.333333333333336,252.3333333333333,-959.5,3.0,334.0,1014.2266666666666,-2.781197666666667,3289.1666666666665,0.0098619666666666,0.04079654,-0.0141016276666666,0.06685034,-1.5663273333333334,0.0041769546666666,47420.0,27023.0,20740.0,8.0,5.0,-23.0,0,None
2022-12-25 08:17:34.550,554.7066000000001,0.1041999999999915,100.0,1157.0,24176.0,4887.0,98.0,1198.8,275.0,4883.6,154.24102,1.2153132,0.0025999302333333,-0.0116899666666666,-1.5766563333333332,47.35333333333333,0.010920041,-0.0042558863333333,-1.563212,0.4669943399999999,1.3555096,8.959525,-7.0,-4.4,-8.8,-11.8,-15.6,260.2,-1031.0,-8.8,336.8,1014.2216,-2.7862029999999995,3290.0,0.010920041,-0.0114360066666666,-0.0042558863333333,-0.0144062076666666,-1.563212,-0.0149261503333333,47360.0,27044.0,20680.0,13.0,10.0,-35.0,0,None
2022-12-25 08:17:35.100,555.2103999999999,0.0998000000000046,100.0,1161.0,24165.0,4882.0,98.0,1178.2,276.6,4887.8,154.64494,1.218486,-0.002747547,-0.02311572,-1.577821,47.36,0.0052668985,-0.01432838,-1.5651205,0.4578761799999999,0.96624754,6.58168,-25.2,-1.0,-7.8,10.8,15.2,243.2,-1052.0,9.8,324.0,1014.2362,-2.7718126,3290.4,0.0052668985,-0.019663551,-0.01432838,0.0059576105,-1.5651205,-0.0159429545,47360.0,27042.0,20680.0,21.0,12.0,-28.0,0,None
2022-12-25 08:17:35.650,555.7603333333333,0.1000000000000037,100.0,1171.0,24145.0,4893.0,98.0,1187.0,278.5,4886.666666666667,155.07216666666667,1.221369666666667,-0.0047160406666666,-0.0275178799999999,-1.574165,47.35999999999999,0.0039684817666666,-0.0192965633333333,-1.562614,0.4469204333333333,0.98808345,7.203054999999999,-15.333333333333334,-11.666666666666666,-7.333333333333333,29.0,-14.333333333333334,251.0,-1068.0,13.5,343.3333333333333,1014.2128333333334,-2.7949869999999994,3291.1666666666665,0.0039684817666666,-0.00802692,-0.0192965633333333,-0.0053182783333333,-1.562614,0.0151428936666666,47365.0,27044.0,20685.0,24.5,13.0,-28.0,0,None
2022-12-25 08:17:36.200,556.331,0.1082000000000106,100.0,1212.0,24159.0,4877.0,98.0,1174.4,280.4,4887.2,155.5188,1.2241824,-0.0077642046666666,-0.0311070833333333,-1.5771266666666666,47.36666666666667,0.0014794123333333,-0.0220048433333333,-1.5663406666666668,0.52109244,1.4072758,8.088386199999999,-14.2,18.2,-8.2,23.2,33.2,250.8,-1066.6,-38.8,337.8,1014.2128,-2.795172,3291.8,0.0014794123333333,0.0507964366666666,-0.0220048433333333,0.0177863133333333,-1.5663406666666668,-0.0056251866666666,47360.0,26995.0,20680.0,21.0,9.0,-30.0,0,None
2022-12-25 08:17:36.750,556.8548,0.1039999999999963,100.0,1191.0,24147.0,4895.0,98.0,1181.4,282.4,4892.0,155.9475,1.2269756,0.0058802906666666,-0.0256946633333333,-1.581186,47.34,0.01466225,-0.0171030966666666,-1.571454,0.52770148,1.369822,10.382865,-13.7,4.6,-15.6,42.7,2.6,248.2,-1010.1,-14.6,342.2,1014.2079,-2.7997967,3292.4,0.01466225,0.0083510606666666,-0.0171030966666666,0.0142532616666666,-1.571454,-0.0059833036666666,47340.0,27003.0,20660.0,21.0,13.0,-33.0,0,None
2022-12-25 08:17:37.300,557.4209999999999,0.1000000000000037,100.0,1167.0,24139.0,4883.0,98.0,1140.6666666666667,284.1666666666667,4891.166666666667,156.34903333333332,1.2299116666666663,-0.002109175,-0.0289507,-1.5800156666666665,47.330000000000005,0.0067144766666666,-0.0207569366666666,-1.571155,0.5109796333333333,1.4343671666666669,9.751584833333334,-13.833333333333334,-0.8333333333333334,-15.0,42.333333333333336,-7.666666666666667,246.5,-1031.6666666666667,-14.833333333333334,333.6666666666667,1014.1955,-2.8123566666666666,3293.0,0.0067144766666666,-0.0078894366666666,-0.0207569366666666,0.0026101566666666,-1.571155,-0.017180573,47320.0,26994.0,20640.0,22.0,13.0,-27.0,0,None
2022-12-25 08:17:37.850,557.9789999999999,0.1039999999999963,100.0,1098.0,24211.0,4895.0,98.0,1128.4,285.6,4884.2,156.73566,1.2330408,0.002379248,-0.03458651,-1.5809875,47.315,0.011417945,-0.02660821,-1.5728205000000002,0.5262806,1.4776778,9.6634624,-16.8,-4.4,-15.8,35.8,24.4,241.6,-1025.8,-4.8,331.2,1014.2204,-2.7875310000000004,3293.8,0.011417945,0.04396228,-0.02660821,-0.0037043249999999,-1.5728205000000002,0.0053982805,47310.0,26985.0,20630.0,20.0,13.0,-31.0,0,None
