00000_Time_epoch,00000_Time_boot_sec,00000_Span_Time_boot_sec,1_battery_remaining_avg,1_current_battery_avg,1_voltage_battery_avg,125_Vcc_avg,147_battery_remaining_avg,147_current_battery_avg,147_current_consumed_avg,165_Vcc_avg,168_direction_avg,168_speed_avg,178_pitch_avg,178_roll_avg,178_yaw_avg,182_altitude_avg,182_pitch_avg,182_roll_avg,182_yaw_avg,241_vibration_x_avg,241_vibration_y_avg,241_vibration_z_avg,27_xacc_avg,27_xgyro_avg,27_xmag_avg,27_yacc_avg,27_ygyro_avg,27_ymag_avg,27_zacc_avg,27_zgyro_avg,27_zmag_avg,29_press_abs_avg,29_press_diff_avg,29_temperature_avg,30_pitch_avg,30_pitchspeed_avg,30_roll_avg,30_rollspeed_avg,30_yaw_avg,30_yawspeed_avg,33_alt_avg,33_hdg_avg,33_relative_alt_avg,33_vx_avg,33_vy_avg,33_vz_avg,label,diagnosis
2023-01-04 08:52:37.750,119.623,0.5200000000000102,100.0,84.0,25033.0,4864.0,99.0,77.0,23.0,4854.0,-134.2341,0.239766,-0.005328282,-0.0177687233333333,-1.0177053333333337,33.17666666666667,-0.008546472,-0.01764764,-1.0196396666666665,0.01978384,0.02756194,0.121483,-13.0,0.0,130.0,4.0,-1.0,238.0,-1064.0,-1.0,336.0,1018.82,-0.2686719,2750.0,-0.008546472,-0.001815266,-0.01764764,0.0012988252,-1.0196396666666665,0.0008717682333333,33180.0,30158.0,20.0,7.0,-2.0,-1.0,0,None
2023-01-04 08:52:38.300,120.383,0.509999999999998,100.0,77.0,25031.5,4864.0,99.0,74.0,23.5,4865.5,-136.42525,0.22244045,-0.0048371778333333,-0.0175082183333332,-1.0184617500000002,33.204166666666666,-0.0085451406666666,-0.0175945333333333,-1.0202678333333337,0.022706495,0.02455943,0.037359555,-16.0,1.0,129.0,4.0,-1.0,237.0,-1066.0,0.0,338.5,1018.834,-0.25535155,2753.0,-0.0085451406666666,-0.0016633688333333,-0.0175945333333333,0.0014913223833333,-1.0202678333333337,-0.0006407934616666,33205.0,30154.0,45.0,7.0,-1.5,0.0,0,None
2023-01-04 08:52:38.850,121.143,0.5,100.0,82.0,25026.0,4871.0,99.0,69.0,24.0,4871.0,-137.0107,0.2410745,-0.0054758415,-0.01818375,-1.019392,33.22,-0.008410723,-0.017485415,-1.020925,0.02392847,0.02290131,0.03983444,-16.0,1.0,130.0,3.0,-2.0,236.0,-1067.0,-1.0,338.0,1018.842,-0.2472656,2756.0,-0.008410723,-0.0013892655,-0.017485415,0.0015326285,-1.020925,-0.00088886225,33220.0,30150.0,60.0,7.0,0.0,-1.0,0,None
2023-01-04 08:52:39.400,121.663,0.519999999999996,100.0,137.0,24980.0,4864.0,99.0,223.0,24.0,4871.0,-136.4632,0.2729946,-0.005228255,-0.01851198,-1.02027,33.22333333333333,-0.0085332846666666,-0.0175957999999999,-1.0215273333333332,0.1473192,0.5485426,2.416448,-8.0,0.0,128.0,0.0,-2.0,235.0,-1073.0,4.0,336.0,1018.854,-0.2346875,2758.0,-0.0085332846666666,-0.0012552433333333,-0.0175957999999999,0.0002556069,-1.0215273333333332,-0.016405146,33230.0,30150.0,70.0,7.0,-1.0,-1.0,0,None
2023-01-04 08:52:39.950,122.183,0.5200000000000102,100.0,121.0,24994.0,4869.0,99.0,117.0,24.0,4864.0,-136.1243,0.2985506,-0.0052163575,-0.017774115,-1.02111,33.245000000000005,-0.0084543444999999,-0.0175588,-1.0217075,0.05711829,0.1728264,0.3992758,-10.0,2.0,124.0,21.0,-1.0,240.0,-1065.0,14.0,338.0,1018.87,-0.2188281,2760.0,-0.0084543444999999,-0.0010338842,-0.0175588,0.00144244145,-1.0217075,-0.00090952,33250.0,30147.0,90.0,7.0,-1.0,-1.0,0,None
2023-01-04 08:52:40.500,122.704,0.5209999999999866,100.0,122.0,25015.0,4875.0,99.0,110.0,24.0,4877.0,-135.6873,0.3401281,-0.0055585726666666,-0.0183243633333333,-1.021836,33.26,-0.0084218633333333,-0.0174992833333333,-1.022381,0.06742215,0.2189218,0.7465258,-10.0,1.0,128.0,23.0,0.0,237.0,-1061.0,23.0,331.0,1018.868,-0.2210937,2762.0,-0.0084218633333333,-0.0008376795666666,-0.0174992833333333,-0.0012972464,-1.022381,-0.00976095,33260.0,30142.0,100.0,7.0,-1.0,-1.0,0,None
2023-01-04 08:52:41.050,123.204,0.5,100.0,1859.0,24353.0,4871.0,99.0,1192.0,25.0,4866.0,-135.5913,0.3701544,0.01780242745,-0.01592491,-1.021949,33.3,0.0137202085,-0.014841495,-1.0234455,0.4637069,0.6575682,1.907108,9.0,-47.0,101.0,19.0,327.0,207.0,-1251.0,17.0,317.0,1019.196,0.1066406,2764.0,0.0137202085,0.0652869604999999,-0.014841495,0.0543869239999999,-1.0234455,0.0022286135,33330.0,30140.0,170.0,-1.0,0.0,44.0,0,None
2023-01-04 08:52:41.600,123.704,0.5,100.0,1721.0,24423.0,4871.0,99.0,1349.0,27.0,4869.0,-137.485,0.4215766,0.0208135899999999,-0.0029486343333333,-1.0185656666666667,33.73666666666667,0.0169200796666666,-0.0019055515666666,-1.019397,0.3011335,1.34307,4.170114,-14.0,84.0,93.0,19.0,-120.0,212.0,-1321.0,4.0,262.0,1019.048,-0.04109375,2766.0,0.0169200796666666,-0.0737986066666666,-0.0019055515666666,0.0398370420666666,-1.019397,-0.0137630076666666,33860.0,30171.0,700.0,-16.0,13.0,138.0,0,None
2023-01-04 08:52:42.150,124.204,0.5,100.0,1827.0,24356.0,4875.0,99.0,1785.0,29.0,4864.0,-140.0054,0.4569761,-0.0185689375,0.0068267,-1.0222215,34.620000000000005,-0.0223020749999999,0.007313838,-1.0226435,0.3581422,0.91017,1.964288,-9.0,33.0,117.0,4.0,-106.0,215.0,-1307.0,-63.0,331.0,1018.741,-0.3479687,2769.0,-0.0223020749999999,-0.073664225,0.007313838,0.01676831,-1.0226435,-0.005310695,34850.0,30121.0,1690.0,-10.0,12.0,240.0,0,None
2023-01-04 08:52:42.700,124.704,0.5,100.0,1695.0,24388.0,4871.0,99.0,1664.0,32.0,4877.0,-141.9461,0.4923597,-0.0292604433333333,-0.0062799904666666,-1.027656,35.99,-0.0306897333333333,-0.0054405479666666,-1.0343856666666669,0.2452155,1.081227,2.622649,-8.0,-30.0,121.0,-34.0,-1.0,190.0,-1101.0,39.0,268.0,1018.59,-0.4989844,2771.0,-0.0306897333333333,-0.0012068303333333,-0.0054405479666666,-0.0400149266666666,-1.0343856666666669,0.0029733866666666,36290.0,30109.0,3130.0,0.0,0.0,301.0,0,None
2023-01-04 08:52:43.250,125.225,0.5210000000000008,100.0,1389.0,24447.0,4869.0,99.0,1791.0,34.0,4874.0,-141.7494,0.5175902,-0.02580601,-0.019019175,-1.021359,37.615,-0.02771728,-0.01768304,-1.0394565,0.262105,1.165658,3.840733,0.0,8.0,138.0,-2.0,29.0,216.0,-1116.0,13.0,268.0,1018.402,-0.6875781,2773.0,-0.02771728,-0.0014868099999999,-0.01768304,-0.0108513725,-1.0394565,-0.008496691,37980.0,30049.0,4820.0,4.0,-19.0,332.0,0,None
2023-01-04 08:52:43.800,125.745,0.5200000000000102,100.0,1304.0,24507.0,4867.0,99.0,1509.0,36.0,4875.0,-141.2068,0.5378181,-0.0150879899999999,0.0054839716666666,-1.0230193333333333,39.29333333333333,-0.0173846366666666,0.0067874273333333,-1.0415276666666669,0.4568503,1.363625,4.104399,4.0,93.0,122.0,-38.0,-102.0,220.0,-1052.0,-7.0,299.0,1018.217,-0.8717187,2775.0,-0.0173846366666666,0.01900004,0.0067874273333333,0.0510813933333333,-1.0415276666666669,0.0007980929999999,39620.0,30027.0,6460.0,10.0,-30.0,320.0,0,None
2023-01-04 08:52:44.350,126.245,0.5,100.0,952.0,24629.0,4869.0,99.0,1002.0,38.0,4877.0,-140.3672,0.5689081,0.005528599,0.011914614,-1.0227495,40.73,0.0028242125,0.0131876099999999,-1.040864,0.4315057,1.206082,3.400826,18.0,-34.0,117.0,-40.0,-17.0,223.0,-889.0,-10.0,346.0,1018.013,-1.076172,2777.0,0.0028242125,0.0093220015,0.0131876099999999,-0.0030026799999999,-1.040864,-0.01110328225,40970.0,30025.0,7810.0,20.0,-30.0,234.0,0,None
2023-01-04 08:52:44.900,126.995,0.5,100.0,853.5,24644.0,4877.0,99.0,931.5,39.5,4877.0,-139.6827,0.59316775,0.0230398251666666,-0.0061386671666667,-1.0269039166666667,41.88416666666667,0.0196338871666666,-0.0037918501666667,-1.0438295,0.53628455,1.1547645,2.061978,-6.0,-40.5,109.5,-2.0,15.0,238.0,-934.5,-0.5,318.0,1017.8455,-1.2435545,2780.0,0.0196338871666666,0.0252693833333332,-0.0037918501666667,-0.0153242391666666,-1.0438295,0.0066862879166665,41990.0,30021.5,8830.0,24.0,-26.5,94.5,0,None
2023-01-04 08:52:45.450,127.746,0.5009999999999906,100.0,1047.0,24585.0,4877.0,99.0,1030.0,42.0,4875.0,-139.6606,0.6091437,0.0475045933333333,-0.0061205393333333,-1.022749,42.29666666666667,0.0429502766666666,-0.004693332,-1.0389670000000002,0.2508671,1.17203,2.652526,12.0,9.0,103.0,-35.0,-19.0,228.0,-1047.0,4.0,330.0,1017.766,-1.323672,2783.0,0.0429502766666666,0.0144269070999999,-0.004693332,0.0068115583333333,-1.0389670000000002,0.0068781156666666,42320.0,30048.0,9160.0,13.0,-10.0,28.0,0,None
2023-01-04 08:52:46.000,128.266,0.519999999999996,100.0,1087.0,24548.0,4875.0,99.0,1027.0,43.0,4874.0,-140.7029,0.613922,0.03593704,-0.008042691,-1.0148255,42.400000000000006,0.03290513,-0.006440574,-1.030872,0.6693712,0.7626434,1.946972,19.0,-12.0,107.0,-26.0,-34.0,228.0,-1042.0,46.0,350.0,1017.752,-1.337266,2785.0,0.03290513,-0.050697145,-0.006440574,-0.021915755,-1.030872,0.02594962,42420.0,30113.0,9260.0,5.0,0.0,14.0,0,None
2023-01-04 08:52:46.550,128.786,0.5200000000000102,100.0,1073.0,24547.0,4871.0,99.0,1062.0,45.0,4848.0,-142.0215,0.6165829,0.0276369033333333,-0.0103044086666666,-1.0097783333333332,42.49,0.0250846133333333,-0.0077726013333333,-1.0252573333333332,0.2706033,1.145165,5.055207,30.0,4.0,111.0,-17.0,0.0,205.0,-1055.0,10.0,313.0,1017.733,-1.356016,2787.0,0.0250846133333333,0.001603797,-0.0077726013333333,0.0263028086666666,-1.0252573333333332,0.0052730731666666,42500.0,30124.0,9340.0,-2.0,2.0,9.0,0,None
2023-01-04 08:52:47.100,129.307,0.5209999999999866,100.0,1080.0,24458.0,4871.0,99.0,1067.0,47.0,4875.0,-144.6227,0.6220137,0.021321935,-0.0004475509999999,-1.0159280000000002,42.56,0.018872455,0.0008193495,-1.031197,0.2970243,1.189608,3.673599,15.0,26.0,105.0,-36.0,-19.0,216.0,-1039.0,-21.0,332.0,1017.723,-1.366172,2790.0,0.018872455,-0.01749296,0.0008193495,0.0179758699999999,-1.031197,-0.02106475,42570.0,30083.0,9410.0,-5.0,6.0,2.0,0,None
2023-01-04 08:52:47.650,129.827,0.5200000000000102,100.0,1126.0,24508.0,4853.0,99.0,1115.0,48.0,4862.0,-147.5567,0.6269444,0.01391412,0.0062550496666666,-1.0221716666666667,42.6,0.0123017266666666,0.006826997,-1.036571,0.3472975,0.6986095,6.13197,19.0,19.0,105.0,-33.0,0.0,211.0,-1032.0,8.0,338.0,1017.717,-1.371797,2792.0,0.0123017266666666,-0.0225059566666666,0.006826997,0.0049641998333333,-1.036571,-0.0019711433333333,42600.0,30057.0,9440.0,-1.0,10.0,0.0,0,None
2023-01-04 08:52:48.200,130.347,0.5200000000000102,100.0,1118.0,24527.0,4861.0,99.0,1118.0,50.0,4872.0,-149.596,0.6302304,0.0163322399999999,-0.0089780903333333,-1.0173463333333332,42.63,0.0145279966666666,-0.0081694432666666,-1.031356333333333,0.4797264,1.059608,3.480646,-1.0,-36.0,104.0,-24.0,2.0,222.0,-1052.0,-3.0,329.0,1017.716,-1.372813,2794.0,0.0145089333333333,0.0033742716666666,-0.0078776336666666,-0.0246934433333333,-1.0313883333333334,-0.0121031689999999,42630.0,30100.0,9470.0,1.0,12.0,-2.0,0,None
2023-01-04 08:52:48.750,130.868,0.5209999999999866,100.0,1136.0,24526.0,4867.0,99.0,1093.0,51.0,4864.0,-152.6758,0.6366699,0.01549115,-0.0126976149999999,-1.02302,42.645,0.013569965,-0.0109898225,-1.036308,0.3838576,0.7416706,3.026836,-13.0,9.0,113.0,15.0,-34.0,227.0,-1094.0,-30.0,340.0,1017.718,-1.37125,2796.0,0.013569965,-0.0218860585,-0.0109898225,0.023071605,-1.036308,-0.022890035,42650.0,30065.0,9490.0,-2.0,13.0,-2.0,0,None
2023-01-04 08:52:49.300,131.387,0.5190000000000055,100.0,1152.0,24515.0,4871.0,99.0,1152.0,53.0,4861.0,-154.6981,0.6427789,0.0016867476,-0.002780116,-1.0305996666666666,42.64,4.755000000000008e-05,-0.0004629332333333,-1.043511,0.5348812,0.5111182,5.048542,15.0,24.0,112.0,-9.0,-52.0,223.0,-1082.0,5.0,332.0,1017.714,-1.375391,2798.0,4.755000000000008e-05,-0.027087052,-0.0004629332333333,0.0124349333333333,-1.043511,0.0014018233333333,42640.0,30019.0,9480.0,-1.0,12.0,-3.0,0,None
2023-01-04 08:52:49.850,131.927,0.539999999999992,100.0,1117.0,24511.0,4867.0,99.0,1117.0,55.0,4871.0,-157.4042,0.6509643,-4.634665000000001e-05,-0.0019086425,-1.0279980000000002,42.64,-0.0012612161,-0.0003191251,-1.0406995,0.2977493,0.9546351,1.333195,-8.0,-7.0,122.0,9.0,25.0,231.0,-1032.0,12.0,341.0,1017.709,-1.380391,2800.0,-0.0012612161,0.019578285,-0.0003191251,0.0106173205,-1.0406995,0.01598339,42640.0,30036.0,9480.0,2.0,7.0,-1.0,0,None
2023-01-04 08:52:50.400,132.468,0.5409999999999968,100.0,1116.0,24516.0,4873.5,99.0,1122.0,56.0,4875.0,-159.6668,0.6570447,0.0011988785666666,-0.0099774376666666,-1.022925,42.64666666666667,-0.0006106485333333,-0.00808481,-1.0348483333333334,0.1685252,1.092393,4.788501,-6.5,-4.0,115.0,-17.5,8.5,220.5,-1071.5,-2.0,317.0,1017.713,-1.3758985,2803.5,-0.0006106485333333,-0.0169066903333333,-0.00808481,-0.0191180933333333,-1.0348483333333334,0.0159579519999999,42650.0,30075.0,9490.0,6.0,4.0,0.0,0,None
2023-01-04 08:52:50.950,132.987,0.5190000000000055,100.0,1079.0,24502.0,4874.0,99.0,1092.0,58.0,4864.0,-160.9663,0.6608737,0.001310404,-0.010461241,-1.01798,42.65,-0.0004891225,-0.0087113605,-1.029979,0.3291012,0.6201618,1.848916,14.0,-23.0,112.0,25.0,5.0,228.0,-1110.0,43.0,330.0,1017.712,-1.377187,2806.0,-0.0004891225,0.0145161215,-0.0087113605,-0.005319456,-1.029979,0.0141889185,42640.0,30097.0,9480.0,6.0,-2.0,0.0,0,None
2023-01-04 08:52:51.500,133.527,0.539999999999992,100.0,1129.0,24514.0,4877.0,99.0,1112.0,60.0,4874.0,-162.6501,0.667182,0.008010994,-0.011292178,-1.012374,42.64666666666667,0.0063649489999999,-0.010093257,-1.0239106666666666,0.5369146,1.178868,2.670727,5.0,30.0,123.0,20.0,10.0,220.0,-1033.0,-17.0,324.0,1017.693,-1.395937,2808.0,0.0063649489999999,-0.0048955763333333,-0.010093257,0.0027765266666666,-1.0239106666666666,-0.0146521053333333,42650.0,30142.0,9490.0,5.0,-7.0,-1.0,0,None
2023-01-04 08:52:52.050,134.068,0.5410000000000252,100.0,1110.0,24498.0,4879.0,99.0,1130.0,61.0,4871.0,-164.1629,0.6746839,0.0145734549999999,-0.0061326665,-1.018321,42.64,0.0122469045,-0.00517023,-1.0301654999999998,0.4567522,1.210784,5.336661,-1.0,17.0,116.0,-29.0,9.0,229.0,-1055.0,6.0,326.0,1017.701,-1.388359,2810.0,0.0122469045,0.005260785,-0.00517023,-0.01454311,-1.0301654999999998,-0.011743265,42640.0,30096.0,9480.0,5.0,-9.0,-1.0,0,None
2023-01-04 08:52:52.600,134.587,0.518999999999977,100.0,1099.0,24493.0,4877.0,99.0,1094.0,63.0,4864.0,-165.1678,0.6804934,0.0174532133333333,-0.0103274433333333,-1.019081,42.64,0.0145200666666666,-0.008081551,-1.0308663333333332,0.3204766,1.019595,5.328329,21.0,26.0,107.0,-24.0,-24.0,217.0,-1028.0,25.0,330.0,1017.712,-1.377578,2813.0,0.0145200666666666,-0.006365,-0.008081551,-0.00041945,-1.0308663333333332,-0.0057474583333333,42640.0,30099.0,9480.0,4.0,-6.0,0.0,0,None
2023-01-04 08:52:53.150,135.128,0.5409999999999968,100.0,1305.0,24434.0,4874.0,99.0,1165.0,64.0,4877.0,-166.6893,0.6908718,-0.1019907033333333,-0.0056727586666666,-1.0226256666666669,42.68666666666667,-0.1039097966666666,-0.0038855723333333,-1.0336363333333332,0.3875426,1.298128,4.159667,3.0,5.0,133.0,-28.0,-379.0,242.0,-1108.0,43.0,314.0,1017.732,-1.3575,2814.0,-0.1009623299999999,-0.3573502333333333,-0.003920145,-0.0002781136666666,-1.0336109999999998,-0.026909421,42650.0,30081.0,9490.0,6.0,-12.0,9.0,0,None
2023-01-04 08:52:53.700,135.648,0.5200000000000102,100.0,1644.0,24279.0,4874.0,99.0,1421.0,66.0,4874.0,-168.909,0.7030528,-0.20982245,-0.00897048,-1.0253315,43.0,-0.20791935,-0.006234176,-1.0362665,0.3237584,1.799529,6.885639,-16.0,-14.0,183.0,-25.0,12.0,234.0,-1164.0,14.0,297.0,1017.664,-1.425313,2817.0,-0.20791935,-0.0122055849999999,-0.006234176,-0.008665355,-1.0362665,0.0163295789999999,42880.0,30070.0,9720.0,53.0,-93.0,74.0,0,None
2023-01-04 08:52:54.250,136.188,0.539999999999992,100.0,1421.0,24381.0,4875.0,99.0,1584.0,69.0,4864.0,-170.5934,0.7118041,-0.1797516666666666,-0.0182716233333333,-1.0249083333333333,43.78,-0.1801756,-0.0164745689999999,-1.036065,0.2858992,1.245171,6.406381,-22.0,-26.0,188.0,31.0,57.0,199.0,-1322.0,-5.0,286.0,1017.605,-1.484297,2818.0,-0.1801756,0.0568378766666666,-0.0164745689999999,-0.0285134766666666,-1.036065,-0.0082046076666666,43580.0,30061.0,10420.0,117.0,-202.0,157.0,0,None
2023-01-04 08:52:54.800,136.688,0.5,100.0,1256.0,24417.0,4872.0,99.0,1334.0,71.0,4867.0,-172.9571,0.7261483,-0.1616913,-0.03197683,-1.019272,44.75,-0.1646304,-0.030597705,-1.0285925,0.3143025,0.9040104,5.969714,-34.0,10.0,166.0,-39.0,-24.0,218.0,-1004.0,11.0,293.0,1017.497,-1.592188,2820.0,-0.1646304,-0.0041516899999999,-0.030597705,-0.020556814,-1.0285925,0.016457785,44560.0,30100.0,11400.0,158.0,-284.0,187.0,0,None
2023-01-04 08:52:55.350,137.4685,0.5200000000000102,100.0,1327.5,24347.0,4862.5,99.0,1341.5,74.0,4874.0,-175.04485,0.7441713999999999,-0.18275555,-0.0376361499999999,-1.0212976666666664,46.153333333333336,-0.1880236,-0.0358332108333332,-1.0296170833333336,0.3351018999999999,1.229388,7.007472,-52.5,10.5,179.5,-38.5,-30.5,207.5,-1046.0,-20.5,303.5,1017.3205,-1.768672,2823.5,-0.1880236,-0.0322593458333332,-0.0358332108333332,0.0004403116666666,-1.0296170833333336,-0.0050493307499999,45950.0,30102.0,12790.0,205.0,-388.0,183.0,0,None
2023-01-04 08:52:55.900,138.248,0.5199999999999818,100.0,1426.0,24337.0,4879.0,99.0,1439.0,77.0,4874.0,-176.9957,0.7663981,-0.2008167666666666,-0.0367827233333333,-1.0254226666666666,47.59666666666666,-0.2070938333333333,-0.0338909333333333,-1.033742333333333,0.4979604,1.105721,7.959947,-58.0,14.0,181.0,-22.0,-55.0,205.0,-1036.0,-15.0,307.0,1017.118,-1.97125,2826.0,-0.2070938333333333,-0.0095350926666666,-0.0338909333333333,0.0091846813333333,-1.033742333333333,-0.0153376813333333,47390.0,30078.0,14230.0,255.0,-498.0,185.0,0,None
2023-01-04 08:52:56.450,138.769,0.521000000000015,100.0,1374.0,24360.0,4871.0,99.0,1426.0,78.0,4871.0,-177.5571,0.7767354,-0.1916872,-0.0290312449999999,-1.0285125000000002,48.535,-0.1978952,-0.02737686,-1.036528,0.3744494,1.199907,8.369485,-73.0,21.0,186.0,-4.0,35.0,230.0,-966.0,-17.0,286.0,1017.037,-2.052187,2829.0,-0.1978952,0.0252190614999999,-0.02737686,-0.00636018,-1.036528,-0.019858021,48340.0,30061.0,15180.0,290.0,-567.0,183.0,0,None
2023-01-04 08:52:57.000,139.288,0.5190000000000055,100.0,1191.0,24407.0,4874.0,99.0,1320.0,81.0,4869.0,-178.1212,0.7921993,-0.1777919999999999,-0.0339138933333333,-1.024811,49.50666666666667,-0.1848283,-0.0315171066666666,-1.0335716666666668,0.5400507,1.422171,8.960725,-60.0,10.0,171.0,2.0,60.0,209.0,-1090.0,21.0,300.0,1016.922,-2.167344,2831.0,-0.1848283,-0.0204027733333333,-0.0315171066666666,-0.0091534966666666,-1.0335716666666668,0.001051759,49300.0,30073.0,16140.0,321.0,-622.0,185.0,0,None
2023-01-04 08:52:57.550,139.808,0.5199999999999818,100.0,1233.0,24372.0,4861.0,99.0,1306.0,83.0,4862.0,-178.4045,0.8022646,-0.1802987,-0.0385516966666666,-1.029719,50.63,-0.1873927666666666,-0.0346309566666666,-1.0388463333333335,0.493845,1.399787,9.844343,-69.0,-44.0,177.0,7.0,-62.0,213.0,-1041.0,17.0,297.0,1016.798,-2.291016,2832.0,-0.1873927666666666,0.00858726,-0.0346309566666666,0.039991343,-1.0388463333333335,-0.0084852173333333,50260.0,30066.0,17100.0,342.0,-669.0,186.0,0,None
2023-01-04 08:52:58.100,140.309,0.5010000000000048,100.0,1306.0,24360.0,4864.0,99.0,1301.0,84.0,4871.0,-178.7015,0.8162316,-0.17594775,-0.01931871,-1.0312715,51.58,-0.1831966,-0.015711751,-1.0405965,0.5068133,1.582855,7.099154,-94.0,21.0,189.0,-18.0,-10.0,227.0,-978.0,19.0,294.0,1016.705,-2.384297,2835.0,-0.1831966,-0.01868558883,-0.015711751,0.06477332,-1.0405965,0.0264983035,51190.0,30012.0,18030.0,356.0,-715.0,180.0,0,None
2023-01-04 08:52:58.650,140.809,0.5,100.0,1334.0,24366.0,4866.0,99.0,1235.0,86.0,4864.0,-178.7653,0.8239629,-0.1751596,-0.01225891,-1.026252666666667,52.51,-0.1844751999999999,-0.0080317356666666,-1.0365243333333332,0.533132,1.331648,7.144165,-109.0,-16.0,179.0,-21.0,89.0,230.0,-984.0,7.0,282.0,1016.535,-2.55375,2836.0,-0.1844751999999999,-0.0159108516666666,-0.0080317356666666,0.0215572503333333,-1.0365243333333332,0.0043117833333333,52130.0,30076.0,18970.0,379.0,-749.0,179.0,0,None
2023-01-04 08:52:59.200,141.328,0.5190000000000055,100.0,1441.0,24276.0,4874.0,99.0,1306.0,88.0,4880.0,-178.8056,0.8341117,-0.18161045,-0.012976011,-1.02864,53.425,-0.18964565,-0.00960099,-1.0389385,0.6359423,1.322353,8.524078,-98.0,-41.0,183.0,18.0,26.0,216.0,-1227.0,28.0,283.0,1016.421,-2.668359,2838.0,-0.18964565,0.0199421325,-0.00960099,-0.0522511099999999,-1.0389385,-0.0283823049999999,53060.0,30051.0,19900.0,402.0,-778.0,179.0,0,None
2023-01-04 08:52:59.750,141.829,0.5010000000000048,100.0,1312.0,24336.0,4867.0,99.0,1415.0,90.0,4874.0,-179.045,0.8435987,-0.1709889,-0.0178966633333333,-1.029307,54.29999999999999,-0.1776971333333333,-0.0136175833333333,-1.03953,0.739836,1.45101,10.12942,-145.0,-64.0,192.0,-44.0,-16.0,198.0,-1054.0,-6.0,259.0,1016.336,-2.753594,2840.0,-0.1776971333333333,0.0506382266666666,-0.0136175833333333,0.0254624786666666,-1.03953,-0.0112574036666666,53930.0,30038.0,20770.0,423.0,-810.0,180.0,0,None
2023-01-04 08:53:00.300,142.329,0.5,100.0,1221.0,24369.0,4845.0,99.0,1344.0,92.0,4874.0,-179.3042,0.84979,-0.1637463499999999,-0.0087654325,-1.0216455,55.23,-0.16968535,-0.0051132615,-1.0319349999999998,0.580838,1.393415,7.555744,-126.0,77.0,178.0,27.0,-116.0,205.0,-1161.0,-17.0,269.0,1016.252,-2.837109,2842.0,-0.16968535,0.02142248,-0.0051132615,0.0309404475,-1.0319349999999998,0.01882543,54860.0,30072.0,21700.0,436.0,-842.0,182.0,0,None
2023-01-04 08:53:00.850,142.849,0.5199999999999818,100.0,1372.0,24310.0,4875.0,99.0,1347.0,93.0,4875.0,-179.8218,0.8581461,-0.1464161,-0.009883533,-1.0232096666666666,56.17666666666667,-0.1543215,-0.005774528,-1.034687666666667,0.5476837,1.401547,9.053758,-128.0,-6.0,175.0,-1.0,-2.0,197.0,-1121.0,-46.0,294.0,1016.125,-2.964062,2844.0,-0.1543215,-0.0161879375,-0.005774528,-0.029059231,-1.034687666666667,-0.0278842053333333,55780.0,30096.0,22620.0,451.0,-861.0,180.0,0,None
2023-01-04 08:53:01.400,143.349,0.5,100.0,1330.0,24335.0,4874.0,99.0,1272.0,95.0,4879.0,179.7025,0.8631802,-0.1415153,-0.0038882985999999,-1.0295115,57.115,-0.1493693999999999,0.0002157754999999,-1.04141,0.5400708,1.204562,6.069635,-107.0,34.0,173.0,36.0,51.0,211.0,-1100.0,-7.0,273.0,1016.01,-3.079219,2846.0,-0.1493693999999999,-0.023700785,0.0002157754999999,0.022571965,-1.04141,-0.0137689965,56740.0,30048.0,23580.0,458.0,-876.0,181.0,0,None
2023-01-04 08:53:01.950,143.849,0.5,100.0,1414.0,24313.0,4874.0,99.0,1381.0,97.0,4871.0,178.7229,0.8701578,-0.143644,0.005223173,-1.0334443333333334,58.04,-0.1509224,0.0101393673333333,-1.0458626666666666,0.636299,1.792945,9.575292,-125.0,-66.0,174.0,-27.0,15.0,218.0,-1074.0,6.0,291.0,1015.908,-3.181484,2848.0,-0.1509224,-0.03286732,0.0101393673333333,0.0210890266666666,-1.0458626666666666,-0.0042531906666666,57670.0,30022.0,24510.0,465.0,-890.0,173.0,0,None
2023-01-04 08:53:02.500,144.37,0.521000000000015,100.0,1235.0,24323.0,4869.0,99.0,1184.0,99.0,4875.0,177.9229,0.874938,-0.1267166,0.021213605,-1.0323375,58.99,-0.1347588,0.02568025,-1.045275,0.6353278,1.487919,7.75581,-121.0,13.0,170.0,-12.0,79.0,224.0,-1050.0,-20.0,290.0,1015.8,-3.289063,2850.0,-0.1347588,0.0561474685,0.02568025,0.063958935,-1.045275,0.014721607,58590.0,30007.0,25430.0,474.0,-905.0,182.0,0,None
2023-01-04 08:53:03.050,145.149,0.5194999999999936,100.0,932.5,24452.5,4871.5,99.0,1031.0,101.5,4877.0,175.9869,0.88628635,0.0029026474999999,0.0224027616666666,-1.0319137500000002,60.3,-0.0073929699999999,0.0267668191666666,-1.0453133333333335,0.7817953,1.188264,7.722306,-135.0,-32.5,145.5,-32.5,235.0,239.5,-1015.0,-4.5,318.5,1015.7815,-3.3080075,2853.0,-0.0073929699999999,0.2128092999999999,0.0267668191666666,-0.0288511643333332,-1.0453133333333335,0.0003746138333333,59935.0,30012.5,26775.0,485.0,-889.5,189.5,0,None
2023-01-04 08:53:03.600,145.909,0.5,100.0,832.0,24483.0,4877.0,99.0,780.0,104.0,4880.0,173.1183,0.9071215,0.1153340666666666,0.0117929899999999,-1.0310633333333332,61.5,0.1028865566666666,0.0161336533333333,-1.0434979999999998,0.8307462,1.302262,10.26994,-134.0,27.0,82.0,-104.0,76.0,212.0,-1065.0,-10.0,295.0,1015.635,-3.453906,2856.0,0.1028865566666666,-0.0211861733333333,0.0161336533333333,-0.0021571833333333,-1.0434979999999998,-0.0019009386666666,61230.0,30017.0,28070.0,442.0,-793.0,185.0,0,None
2023-01-04 08:53:04.150,146.43,0.521000000000015,100.0,671.0,24546.0,4879.0,99.0,727.0,105.0,4838.0,170.5625,0.9271514,0.09517042,0.02105464,-1.028977,61.95,0.0851600399999999,0.026145135,-1.0399425,0.8150972,2.123209,13.25868,-63.0,22.0,90.0,-45.0,-94.0,250.0,-1100.0,-1.0,349.0,1015.572,-3.517031,2858.0,0.0851600399999999,-0.03014849,0.026145135,0.049540455,-1.0399425,-0.0011629402,61830.0,30018.0,28670.0,391.0,-714.0,128.0,0,None
2023-01-04 08:53:04.700,146.909,0.478999999999985,100.0,721.0,24523.0,4862.0,99.0,796.0,106.0,4861.0,168.8649,0.941128,0.1289119666666666,0.0337056733333333,-1.0233483333333333,62.01666666666667,0.1209803,0.0374422833333333,-1.032567,1.002403,1.728791,12.57476,-93.0,21.0,94.0,-52.0,63.0,228.0,-776.0,19.0,317.0,1015.496,-3.593281,2859.0,0.1209803,0.0377556666666666,0.0374422833333333,0.0088938683666666,-1.032567,0.0146455433333333,62030.0,30082.0,28870.0,356.0,-648.0,50.0,0,None
2023-01-04 08:53:05.250,147.41,0.5010000000000048,100.0,1085.0,24380.0,4871.0,99.0,897.0,107.0,4854.0,167.2386,0.9547247,0.1368595,0.02765024,-1.0175545,61.965,0.12894295,0.03167187,-1.0258295,0.9231536,1.50702,16.81561,-49.0,-36.0,89.0,-53.0,67.0,234.0,-1075.0,31.0,342.0,1015.445,-3.643672,2861.0,0.12894295,-0.084857675,0.03167187,-0.0098477565,-1.0258295,0.0032730445,61980.0,30101.0,28820.0,319.0,-567.0,14.0,0,None
2023-01-04 08:53:05.800,147.909,0.4989999999999952,100.0,1040.0,24422.0,4866.0,99.0,1095.0,108.0,4871.0,164.9029,0.9742459,0.09666824,0.0248102666666666,-1.0062049999999998,61.99333333333334,0.09057957,0.02893756,-1.014382,0.6268221,1.472913,8.575567,-29.0,10.0,98.0,-15.0,-143.0,228.0,-1074.0,36.0,324.0,1015.466,-3.623437,2864.0,0.09057957,-0.0640851933333333,0.02893756,-0.0141587396666666,-1.014382,0.0278410035666666,61960.0,30174.0,28800.0,278.0,-485.0,18.0,0,None
2023-01-04 08:53:06.350,148.41,0.5010000000000048,100.0,1181.0,24349.0,4867.0,99.0,1112.0,110.0,4848.0,163.4248,0.9864585,0.08465965,0.04091157,-1.00070035,62.155,0.080657865,0.04580046,-1.0079765,0.5801371,1.189159,10.21983,-63.0,74.0,91.0,-42.0,22.0,250.0,-1076.0,-15.0,326.0,1015.379,-3.710156,2866.0,0.080657865,0.0009199099999999,0.04580046,0.087375235,-1.0079765,0.018041149,62060.0,30203.0,28900.0,245.0,-423.0,26.0,0,None
2023-01-04 08:53:06.900,148.909,0.4989999999999952,100.0,1236.0,24330.0,4875.0,99.0,1354.0,112.0,4871.0,161.4043,1.002835,0.0681398133333333,0.0339274533333333,-1.0099573666666668,62.61333333333334,0.0640684033333333,0.0365508133333333,-1.0168883333333334,0.4633183,1.152236,7.746182,-60.0,-52.0,101.0,-56.0,-53.0,261.0,-1121.0,-65.0,310.0,1015.277,-3.811953,2867.0,0.0640684033333333,-0.0325430066666666,0.0365508133333333,-0.0539919466666666,-1.0168883333333334,-0.0482581633333333,62380.0,30232.0,29220.0,226.0,-361.0,81.0,0,None
2023-01-04 08:53:07.450,149.41,0.5010000000000048,100.0,1023.0,24401.0,4874.0,99.0,1004.0,113.0,4867.0,160.1456,1.012588,0.0706759949999999,0.0005901305,-1.040518,63.225,0.06634976,0.004803269,-1.0471695,0.3996559,1.281337,7.496906,-28.0,-61.0,94.0,-28.0,39.0,218.0,-1047.0,-50.0,322.0,1015.172,-3.917266,2869.0,0.06634976,0.078992095,0.004803269,-0.039094665,-1.0471695,-0.04571652,62990.0,30068.0,29830.0,207.0,-318.0,95.0,0,None
2023-01-04 08:53:08.000,149.909,0.4989999999999952,100.0,1092.0,24401.0,4864.0,99.0,1194.0,115.0,4867.0,158.3656,1.026189,0.11529481,0.0007517896666666,-1.0403700000000002,63.73666666666666,0.1109225833333333,0.0043644303333333,-1.0477023333333333,0.4825361,1.147057,6.340724,-32.0,-30.0,88.0,-44.0,116.0,223.0,-1075.0,-3.0,334.0,1015.141,-3.947734,2871.0,0.1109225833333333,0.0878639733333333,0.0043644303333333,0.02707893,-1.0477023333333333,0.0100813113333333,63550.0,29972.0,30390.0,180.0,-285.0,79.0,0,None
2023-01-04 08:53:08.550,150.65949999999998,0.5,100.0,1039.5,24388.0,4868.0,99.0,1090.5,117.0,4870.5,156.3902,1.0409335,0.1669021833333333,0.0206974191666666,-1.027895,64.11083333333335,0.1613681833333333,0.0232678724999999,-1.036707,0.46122465,1.0830679,5.9855445,-13.5,20.5,71.0,-309.6499999999999,47.5,241.0,-1025.0,-7.0,335.0,1015.107,-3.982578,2874.0,0.1613681833333333,0.0508612266666666,0.0232678724999999,0.0056755846666666,-1.036707,0.0146637691666666,64070.0,30050.0,30910.0,127.0,-209.0,25.0,1,27_yacc_avg_abrupt_-297.6499999999999
2023-01-04 08:53:09.100,151.409,0.5,100.0,1204.0,24348.0,4882.0,99.0,1254.0,119.0,4864.0,154.4812,1.055152,0.18848585,0.02257088,-1.0280665,64.08500000000001,0.1818751,0.023246705,-1.038412,0.5080943,1.37888,8.845876,13.0,12.0,59.0,-275.6499999999999,12.0,205.0,-995.0,-3.0,321.0,1015.113,-3.975703,2877.0,0.1818751,-0.02941589,0.023246705,0.0130841055,-1.038412,0.0108662105,64090.0,30064.0,30930.0,70.0,-103.0,-13.0,1,27_yacc_avg_abrupt_-297.6499999999999
2023-01-04 08:53:09.650,151.909,0.5,100.0,1256.0,24318.0,4875.0,99.0,1235.0,121.0,4862.0,152.8497,1.068165,0.1411321,0.0133296616666666,-1.032711333333333,64.06333333333333,0.1356605333333333,0.0145501413333333,-1.043434,0.2662328,1.377125,7.309554,6.0,-52.0,50.0,-293.6499999999999,-88.0,237.0,-1106.0,0.0,363.0,1015.102,-3.987422,2878.0,0.1356605333333333,-0.1488784166666666,0.0145501413333333,-0.0309188866666666,-1.043434,-0.0001847336666666,64070.0,30035.0,30910.0,31.0,-27.0,-15.0,1,27_yacc_avg_abrupt_-297.6499999999999
2023-01-04 08:53:10.200,152.41,0.5010000000000048,100.0,1039.0,24381.0,4875.0,99.0,1116.0,123.0,4875.0,151.7121,1.078322,0.061974395,0.0003068924999999,-1.0325275,64.065,0.05944952,0.0026430357,-1.044744,0.3410276,1.011565,7.188265,2.0,-17.0,83.0,-333.6499999999999,-179.0,224.0,-1058.0,-16.0,345.0,1015.074,-4.01539,2880.0,0.05944952,-0.093229145,0.0026430357,-0.0014518549999999,-1.044744,0.0019634606,64060.0,30003.0,30900.0,3.0,20.0,-6.0,1,27_yacc_avg_abrupt_-297.6499999999999
2023-01-04 08:53:10.750,152.93,0.5200000000000102,100.0,1031.0,24386.0,4874.0,99.0,1005.0,124.0,4877.0,149.9824,1.097027,0.0358265466666666,-0.0016835895666666,-1.0276643333333333,64.07,0.0341048566666666,-0.00014519039,-1.0412546666666664,0.4711367,0.8800336,4.186585,3.0,25.0,98.0,-279.6499999999999,-61.0,211.0,-1075.0,-3.0,328.0,1015.104,-3.984766,2882.0,0.0341048566666666,-0.00832992,-0.00014519039,-0.0084136266666666,-1.0412546666666664,0.0169402003333333,64080.0,30035.0,30920.0,-9.0,29.0,-10.0,1,27_yacc_avg_abrupt_-297.6499999999999
2023-01-04 08:53:11.300,153.49,0.5600000000000023,100.0,1019.5,24403.0,4880.0,99.0,1049.0,126.0,4877.0,148.3297,1.118248,0.0376941566666666,0.0131422803333333,-1.0366946666666668,64.02,0.0350395666666666,0.01450035,-1.0514523333333334,0.5147308,1.04983,5.148519,6.0,39.0,106.0,-322.6499999999999,20.0,223.5,-1061.0,-22.5,323.5,1015.124,-3.9652735,2885.0,0.0350395666666666,-0.0072492153333333,0.01450035,0.0320767966666666,-1.0514523333333334,-0.0312878783333333,64030.0,29987.0,30870.0,-19.0,25.5,-12.5,1,27_yacc_avg_abrupt_-297.6499999999999
2023-01-04 08:53:11.850,153.99,0.5,100.0,1065.0,24398.0,4879.0,99.0,1013.0,127.0,4879.0,147.2655,1.133393,0.04496189,0.018232125,-1.0485894999999998,63.97,0.04075123,0.01991993,-1.0642495,0.5822484,1.291613,7.703386,16.0,-3.0,103.0,-326.6499999999999,-2.0,227.0,-1160.0,2.0,307.0,1015.163,-3.926328,2888.0,0.04075123,-0.001066225,0.01991993,0.020853945,-1.0642495,-0.0254837549999999,63940.0,29881.0,30780.0,-20.0,28.0,-8.0,1,27_yacc_avg_abrupt_-297.6499999999999
2023-01-04 08:53:12.400,154.511,0.5209999999999866,100.0,1019.0,24404.0,4850.0,99.0,1065.0,129.0,4875.0,145.6923,1.157342,0.0464074533333333,0.02161949,-1.055864666666667,63.91333333333333,0.0414064333333333,0.0231672133333333,-1.0730726666666668,0.4811728,1.289883,8.146342,35.0,46.0,87.0,-338.6499999999999,4.0,231.0,-1095.0,27.0,324.0,1015.123,-3.966016,2889.0,0.0414064333333333,0.0191066389999999,0.0231672133333333,0.0306624166666666,-1.0730726666666668,0.0076359636666666,63900.0,29837.0,30740.0,-19.0,33.0,-5.0,1,27_yacc_avg_abrupt_-297.6499999999999
2023-01-04 08:53:12.950,155.011,0.5,100.0,1045.0,24370.0,4882.0,99.0,1019.0,130.0,4864.0,144.7061,1.173482,0.03971527,0.030445745,-1.057564,63.88,0.03513953,0.03231421,-1.07569,0.4668441,1.693238,9.741649,25.0,-98.0,95.0,-281.6499999999999,-19.0,239.0,-1082.0,10.0,323.0,1015.15,-3.938906,2891.0,0.03513953,-0.0002474999999999,0.03231421,0.003715862,-1.07569,0.0254493849999999,63860.0,29841.0,30700.0,-11.0,38.0,-9.0,1,27_yacc_avg_abrupt_-297.6499999999999
2023-01-04 08:53:13.500,155.571,0.5600000000000023,100.0,1095.0,24349.0,4874.0,99.0,1045.0,132.0,4880.0,143.4505,1.192116,0.0387124566666666,0.0151592156666666,-1.051259333333333,63.830000000000005,0.0327763,0.0162277986666666,-1.0696176666666666,0.3690721,1.499178,9.139145,40.0,-46.0,95.0,-322.6499999999999,-5.0,227.0,-1017.0,28.0,318.0,1015.116,-3.973125,2893.0,0.0327763,-0.03143675,0.0162277986666666,-0.02977612,-1.0696176666666666,0.008879504,63820.0,29898.0,30660.0,-9.0,38.0,-5.0,1,27_yacc_avg_abrupt_-297.6499999999999
2023-01-04 08:53:14.050,156.071,0.5,100.0,1130.0,24350.0,4880.0,99.0,1070.0,133.0,4875.0,142.209,1.206163,0.0282741733333333,0.00714838,-1.0434013333333334,63.77666666666666,0.02356397,0.0096728553333333,-1.0635853333333334,0.5003958,0.9109911,5.004995,39.0,-25.0,110.0,-308.6499999999999,-56.0,224.0,-1121.0,-17.0,339.0,1015.176,-3.912812,2895.0,0.02356397,-0.0261459129999999,0.0096728553333333,0.0023761666666666,-1.0635853333333334,0.0040416572666666,63770.0,29913.0,30610.0,-12.0,33.0,-6.0,1,27_yacc_avg_abrupt_-297.6499999999999
2023-01-04 08:53:14.600,156.591,0.5200000000000102,100.0,1005.0,24409.0,4880.0,99.0,1078.0,135.0,4864.0,141.3937,1.214092,0.020554305,0.012697371,-1.0440095,63.74,0.015638025,0.01559086,-1.064882,0.516969,1.301347,10.85302,18.0,73.0,103.0,-281.6499999999999,-25.0,228.0,-1094.0,-6.0,311.0,1015.169,-3.920156,2897.0,0.015638025,-0.003460155,0.01559086,0.0526791,-1.064882,0.006899074,63740.0,29900.0,30580.0,-12.0,27.0,0.0,1,27_yacc_avg_abrupt_-297.6499999999999
2023-01-04 08:53:15.150,157.26100000000002,0.2049999999999983,100.0,1042.0,24347.0,4880.0,99.0,1040.5,137.5,4866.25,140.03075,1.2248725,0.0003210399166666,0.0147577343333333,-1.0409436666666667,63.71333333333334,-0.004910384,0.0171076233333333,-1.0627138333333337,0.5119423750000001,1.193113225,6.9339815,19.375,-25.125,118.125,-330.0249999999999,-18.5,240.375,-1092.5,20.625,320.625,1015.154125,-3.935126875,2899.5,-0.004910384,-0.037278005,0.0171076233333333,-0.0084745833333333,-1.0627138333333337,0.0081574683333333,63720.0,29913.0,30560.0,-4.0,19.0,0.0,1,27_yacc_avg_abrupt_-297.6499999999999
2023-01-04 08:53:15.700,157.80766666666668,0.1099999999999994,100.0,1048.5,24376.5,4872.5,99.0,1037.1666666666667,139.33333333333334,4878.0,138.93364999999997,1.230032,-0.0041276486666666,0.0084722853333333,-1.036390666666667,63.68333333333334,-0.0097134529999999,0.0117949286666666,-1.0591823333333332,0.43341045,1.420991,7.985902333333333,24.08333333333333,12.0,113.58333333333331,-295.5666666666666,-28.75,224.8333333333333,-1078.3333333333333,36.833333333333336,312.5,1015.1268333333333,-3.962493416666667,2901.333333333333,-0.0097134529999999,-0.0013527766666666,0.0117949286666666,0.0130840619999999,-1.0591823333333332,0.014322326,63690.0,29942.0,30530.0,3.0,-0.5,-3.5,1,27_yacc_avg_abrupt_-297.6499999999999
2023-01-04 08:53:16.250,158.35500000000002,0.0999999999999999,100.0,1069.0,24361.0,4880.0,99.0,1009.6,141.0,4883.2,137.99204,1.2329364,-0.0026051856666666,0.0167754333333333,-1.017633,63.68,-0.0071496335666666,0.02029178,-1.0415636666666666,0.4987223799999999,1.3227508,6.174481800000001,12.4,14.0,122.0,-304.24999999999994,16.4,235.4,-1067.8,38.0,312.8,1015.1394,-3.9498434,2903.6,-0.007559315,0.0311070213333333,0.0200066766666666,0.020362619,-1.0414933333333332,0.02028255,63690.0,30067.0,30530.0,12.0,-16.0,-5.0,1,27_yacc_avg_abrupt_-297.6499999999999
2023-01-04 08:53:16.800,158.92433333333335,0.099999999999999,100.0,1059.0,24378.0,4877.0,99.0,1057.5,142.83333333333334,4879.166666666667,137.06023333333334,1.2336726666666664,0.006783033,0.02114822,-1.013626666666667,63.63999999999999,0.001975253,0.0238116866666666,-1.038312,0.5205822166666667,1.0382671,4.414711666666666,17.0,-32.833333333333336,116.5,-341.8166666666666,0.0,230.5,-1056.6666666666667,7.666666666666667,307.5,1015.158,-3.931262833333333,2905.333333333333,0.001975253,-0.0008845143333333,0.0238116866666666,-0.0337062066666666,-1.038312,0.0202836843333333,63640.0,30042.0,30480.0,22.0,-19.0,-6.0,1,27_yacc_avg_abrupt_-297.6499999999999
2023-01-04 08:53:17.350,159.483,0.104000000000002,100.0,1097.0,24366.0,4880.0,99.0,1069.8,144.4,4875.2,136.15916,1.2315502,0.0170628099999999,0.007060397,-1.0153806666666665,63.580000000000005,0.0120994933333333,0.010899387,-1.0406003333333336,0.48998368,1.11082588,5.161531800000001,17.4,28.4,116.4,-337.8499999999999,35.2,233.2,-1084.0,-26.8,335.2,1015.1696,-3.9195936,2907.4,0.0120994933333333,0.0239108733333333,0.010899387,0.0286716533333333,-1.0406003333333336,-0.0261907533333333,63590.0,30041.0,30430.0,23.0,-26.0,-2.0,1,27_yacc_avg_abrupt_-297.6499999999999
2023-01-04 08:53:17.900,159.991,0.0999999999999999,100.0,1159.0,24335.0,4871.0,99.0,1088.2,146.0,4866.6,135.41696,1.2282585999999998,0.02707819,0.015756775,-1.0236825,63.535,0.02243584,0.01964016,-1.0493385,0.4215622,1.214889,5.913994799999999,22.8,-9.2,110.2,-327.8499999999999,16.6,236.8,-1101.4,-25.8,316.2,1015.1586,-3.9305468,2909.2,0.02243584,0.053637315,0.01964016,-0.020109189,-1.0493385,-0.025984075,63540.0,29991.0,30380.0,24.0,-28.0,-2.0,1,27_yacc_avg_abrupt_-297.6499999999999
2023-01-04 08:53:18.450,160.54416666666668,0.099999999999999,100.0,1097.0,24336.0,4875.0,99.0,1093.4,147.4,4872.5,134.5698,1.2242543333333331,0.0356407533333333,0.01149991,-1.023956,63.51333333333333,0.0312637233333333,0.01558448,-1.0507976666666667,0.4913211833333333,1.0890278999999998,6.482181166666667,17.666666666666668,8.666666666666666,111.16666666666669,-304.1499999999999,13.5,229.0,-1052.8333333333333,-8.0,330.8333333333333,1015.1435,-3.945794166666667,2911.1666666666665,0.0312637233333333,-0.0151658496666666,0.01558448,0.007200035,-1.0507976666666667,-0.0236776666666666,63520.0,29978.0,30360.0,22.0,-26.0,0.0,1,27_yacc_avg_abrupt_-297.6499999999999
2023-01-04 08:53:19.000,161.09099999999998,0.0999999999999999,100.0,1110.0,24350.0,4874.0,99.0,1107.2,149.4,4868.4,133.71632,1.2218402,0.0323895566666666,0.0090431019999999,-1.019033,63.50333333333333,0.0273385099999999,0.0128700033333333,-1.0460733333333332,0.38444876,1.28328082,4.2591828,20.8,-14.6,103.2,-317.44999999999993,-38.4,235.4,-1089.6,-7.6,318.4,1015.1356,-3.9532968,2913.2,0.0273385099999999,-0.0188084063333333,0.0128700033333333,-0.0086500233333333,-1.0460733333333332,-0.012361756,63510.0,30005.0,30350.0,19.0,-21.0,-2.0,1,27_yacc_avg_abrupt_-297.6499999999999
2023-01-04 08:53:19.550,161.65766666666664,0.103333333333334,100.0,1049.0,24351.0,4875.0,99.0,1053.1666666666667,151.0,4868.0,132.89103333333333,1.2215088333333333,0.0239604533333333,0.0099523859999999,-1.0253290000000002,63.5,0.02071642,0.0128610499999999,-1.052676333333333,0.4782247,1.1577868,5.3738848333333324,25.0,-3.6666666666666665,107.83333333333331,-298.3166666666666,-5.666666666666667,232.5,-1037.3333333333333,-14.666666666666666,328.6666666666667,1015.1466666666666,-3.9424736666666655,2914.833333333333,0.02071642,-0.01436209,0.0128610499999999,0.0065805371333333,-1.052676333333333,-0.0319321783333333,63510.0,29992.0,30350.0,16.0,-22.0,-2.0,1,27_yacc_avg_abrupt_-297.6499999999999
2023-01-04 08:53:20.100,162.211,0.0999999999999999,100.0,1069.0,24359.0,4875.0,99.0,1038.6,152.6,4875.4,132.0826,1.2220943999999998,0.02472974,0.010859572,-1.0242725,63.48,0.021178985,0.01541384,-1.0526505,0.4187677199999999,1.1368848,7.0864898,16.6,17.0,113.0,-348.8499999999999,-3.0,224.6,-1061.2,-8.6,325.6,1015.155,-3.9341716,2916.6,0.021178985,0.0210456275,0.01541384,0.0060679936,-1.0526505,0.0112740915,63490.0,29963.0,30330.0,17.0,-23.0,-3.0,1,27_yacc_avg_abrupt_-297.6499999999999
2023-01-04 08:53:20.650,162.761,0.099999999999999,100.0,1021.5,24360.5,4880.5,99.0,1019.5,154.16666666666666,4868.333333333333,131.2655333333333,1.2233353333333332,0.0314169,0.0147146833333333,-1.0207646666666668,63.45,0.0282918766666666,0.0193293566666666,-1.0497306666666668,0.4753095,1.23395255,6.383643833333333,26.5,10.166666666666666,109.5,-348.6499999999999,-6.0,233.0,-1121.1666666666667,3.6666666666666665,317.1666666666667,1015.1673333333334,-3.9218231666666665,2918.5,0.0282918766666666,0.04163836,0.0193293566666666,0.0062425676666666,-1.0497306666666668,0.02803712,63455.0,29982.5,30295.0,16.0,-25.5,-3.0,1,27_yacc_avg_abrupt_-297.6499999999999
2023-01-04 08:53:21.200,163.315,0.104000000000002,100.0,1031.0,24384.0,4883.0,99.0,1046.6,155.6,4879.0,130.4599,1.2253454,0.0429952266666666,0.01759184,-1.0183893333333334,63.39333333333334,0.0395894366666666,0.02123648,-1.0480053333333337,0.47976652,1.10922454,7.2002658,27.8,-4.6,106.8,-309.8499999999999,-7.4,230.2,-1086.8,4.4,316.0,1015.1424,-3.9468438,2920.2,0.0395894366666666,0.03009384,0.02123648,0.00801076,-1.0480053333333337,0.0044161583333333,63390.0,30010.0,30230.0,14.0,-18.0,0.0,1,27_yacc_avg_abrupt_-297.6499999999999
2023-01-04 08:53:21.750,163.831,0.0999999999999999,100.0,1122.0,24330.0,4883.0,99.0,1055.0,157.2,4881.0,129.58978000000002,1.2292336,0.045825335,0.01369375,-1.0130765,63.375,0.043315925,0.0180092499999999,-1.042637,0.38802184,1.2475738,5.254976399999999,28.6,4.0,102.2,-306.8499999999999,6.8,233.0,-1070.0,7.4,322.2,1015.1482,-3.940953,2922.4,0.043315925,-0.002595192,0.0180092499999999,0.00349019345,-1.042637,-0.0041817435,63370.0,30041.0,30210.0,8.0,-12.0,-2.0,1,27_yacc_avg_abrupt_-297.6499999999999
2023-01-04 08:53:22.300,164.41100000000003,0.1066666666666643,100.0,1163.0,24313.0,4880.0,99.0,1150.1666666666667,159.16666666666666,4880.5,128.79538333333332,1.2351911666666666,0.0446156233333333,0.0193928599999999,-1.0042193333333331,63.336666666666666,0.04183884,0.0230809833333333,-1.0347526666666669,0.40742185,1.1240172166666669,4.705038666666666,20.58333333333333,15.75,107.25,-331.8999999999999,-13.333333333333334,224.25,-1079.4166666666667,24.416666666666668,319.3333333333333,1015.1560833333332,-3.933138166666667,2924.4166666666665,0.04183884,-0.0104264833333333,0.0230809833333333,0.00390367,-1.0347526666666669,0.0104269426666666,63330.0,30089.0,30170.0,3.0,-6.0,-4.0,1,27_yacc_avg_abrupt_-297.6499999999999
2023-01-04 08:53:22.850,164.975,0.0999999999999999,100.0,1126.0,24342.0,4880.0,99.0,1133.8,161.0,4877.2,127.99776,1.2429798,0.03181816,0.024034065,-0.99642505,63.295,0.029439305,0.02787407,-1.027172,0.474474175,1.1412445,4.799807,27.75,-5.5,109.0,-316.1499999999999,-42.0,227.5,-1088.5,11.0,315.0,1015.1512,-3.9382188,2926.8,0.029439305,-0.036027785,0.02787407,0.00392265,-1.027172,-0.007749595,63300.0,30118.0,30140.0,4.0,3.0,-2.0,1,27_yacc_avg_abrupt_-297.6499999999999
2023-01-04 08:53:23.400,165.521,0.099999999999999,100.0,1140.0,24281.0,4885.0,98.16666666666669,1135.8333333333333,162.5,4883.0,127.1635,1.2521786666666668,0.0264302666666666,0.0183551733333333,-0.9988481,63.28,0.0244932799999999,0.0213135166666666,-1.029113,0.4880688666666666,0.9569886833333332,3.9711125,9.0,-23.33333333333333,113.5,-336.8166666666666,-13.0,230.5,-1072.8333333333333,3.5,323.0,1015.1465,-3.942669166666667,2928.1666666666665,0.0244932799999999,-0.0078770682333333,0.0213135166666666,-0.0248100621333333,-1.029113,-0.0102962206666666,63290.0,30101.0,30130.0,8.0,7.0,0.0,1,27_yacc_avg_abrupt_-297.6499999999999
2023-01-04 08:53:23.950,166.087,0.104000000000002,100.0,1145.0,24328.0,4879.0,98.0,1154.6,164.4,4869.2,126.3327,1.2612968000000002,0.01900708,0.0032685303,-0.99701685,63.255,0.01680704,0.006687956,-1.0272395,0.4046053199999999,1.04223174,4.1427736,16.0,-3.0,115.4,-15.2,-21.8,222.8,-1076.6,-3.4,319.6,1015.1562,-3.9329844,2930.2,0.01680704,-0.014977222,0.006687956,-0.0081482035,-1.0272395,0.00739865,63260.0,30117.0,30100.0,8.0,7.0,-1.0,0,None
2023-01-04 08:53:24.500,166.59099999999998,0.0999999999999999,100.0,1113.0,24346.0,4880.0,98.0,1137.8,166.0,4876.0,125.65026,1.2686499999999998,0.008332814,0.0074954736666666,-1.001072,63.23333333333333,0.0060228849999999,0.010879633,-1.0319953333333334,0.3874076999999999,1.0702073,2.5559952,18.6,5.2,120.2,-27.2,-13.2,221.4,-1077.2,12.6,315.8,1015.145,-3.9440778,2931.6,0.0060228849999999,-0.0036104703333333,0.010879633,0.0128235823333333,-1.0319953333333334,-0.0133223566666666,63240.0,30083.0,30080.0,7.0,2.0,0.0,0,None
2023-01-04 08:53:25.050,167.15416666666667,0.103333333333334,100.0,1140.0,24340.0,4883.0,98.0,1141.6666666666667,167.83333333333334,4869.166666666667,124.90903333333333,1.276047,0.010107049,0.009759456,-1.0021204333333331,63.21666666666667,0.0085802373333333,0.0136010633333333,-1.033033,0.4519135999999999,1.0298759,4.1321245,4.666666666666667,12.166666666666666,119.0,-33.0,24.33333333333333,233.0,-1054.1666666666667,-17.666666666666668,319.8333333333333,1015.1548333333336,-3.934322833333333,2933.6666666666665,0.0085802373333333,0.0082849356666666,0.0136010633333333,0.0114218593333333,-1.033033,-0.0209059416666666,63220.0,30097.0,30060.0,9.0,-5.0,-2.0,0,None
2023-01-04 08:53:25.600,167.733,0.1043999999999982,100.0,1158.0,24309.0,4871.0,98.0,1141.0,169.4,4871.8,124.12189999999998,1.2820975999999995,0.02002609,0.009319496,-1.0043616666666668,63.18666666666667,0.0180695133333333,0.0126905833333333,-1.0352653333333333,0.38778998,0.91107812,2.9373842,16.4,-6.2,111.8,-45.6,6.8,224.6,-1058.6,-4.0,312.6,1015.155,-3.9344376,2935.6,0.0180695133333333,-0.0028117000999999,0.0126905833333333,-0.0141788786666666,-1.0352653333333333,0.0085749163333333,63210.0,30058.0,30050.0,12.0,-10.0,-2.0,0,None
2023-01-04 08:53:26.150,168.237,0.0999999999999999,100.0,1168.0,24282.0,4877.0,98.0,1143.0,171.0,4884.0,123.51768,1.2856078,0.017961575,0.0059875994999999,-0.99755515,63.155,0.016504165,0.009230393,-1.0286305,0.50436922,0.94395134,4.0862318,12.4,-8.4,114.2,-5.4,-16.2,226.8,-1116.2,9.2,331.0,1015.1564,-3.9327032,2937.0,0.016504165,0.00070413,0.009230393,-0.0234952849999999,-1.0286305,0.030028175,63170.0,30083.0,30010.0,13.0,-13.0,-3.0,0,None
2023-01-04 08:53:26.700,168.783,0.099999999999999,100.0,1093.0,24331.5,4883.0,98.0,1094.1666666666667,172.83333333333334,4883.5,122.92631666666666,1.2885461666666669,0.0232928433333333,0.0048508526666666,-0.9971021,63.13666666666666,0.02141177,0.0080580066666666,-1.0284366666666669,0.4695905,0.9778242,4.025967666666667,14.666666666666666,13.5,119.83333333333331,-35.5,7.0,224.66666666666663,-1047.8333333333333,-12.833333333333334,338.1666666666667,1015.144,-3.945429666666667,2939.1666666666665,0.02141177,0.0084268450133333,0.0080580066666666,0.01752782,-1.0284366666666669,-0.0250285466666666,63140.0,30101.5,29980.0,9.0,-17.5,-1.0,0,None
2023-01-04 08:53:27.250,169.337,0.0999999999999999,100.0,1081.0,24315.0,4883.0,98.0,1106.2,174.4,4877.4,122.3735,1.291124,0.0282121633333333,0.0168740033333333,-1.0078143333333334,63.11333333333334,0.0258679,0.02078343,-1.0392006666666669,0.35850828,1.0465656,3.8347988,9.2,29.2,108.2,-43.4,-2.8,230.4,-1072.4,-31.4,324.4,1015.1604,-3.9288748,2940.8,0.0258679,-0.0039118613333333,0.02078343,0.01944711,-1.0392006666666669,-0.0303282433333333,63110.0,30033.0,29950.0,7.0,-17.0,-2.0,0,None
2023-01-04 08:53:27.800,169.88633333333334,0.103333333333334,100.0,1139.0,24321.0,4883.0,98.0,1111.0,176.16666666666666,4882.833333333333,121.82303333333331,1.2940983333333336,0.02831562,0.01985538,-1.005655,63.07,0.02572215,0.02293559,-1.0377006666666666,0.4278823333333334,1.1391332333333333,4.060856666666667,20.5,9.833333333333334,110.83333333333331,-48.333333333333336,9.166666666666666,229.66666666666663,-1052.5,-8.0,318.8333333333333,1015.1438333333334,-3.9454035,2942.833333333333,0.02572215,0.0010634766666666,0.02293559,0.0056387,-1.0377006666666666,0.0008213151666666,63070.0,30057.0,29910.0,7.0,-16.0,-1.0,0,None
2023-01-04 08:53:28.350,170.43300000000002,0.0960000000000036,100.0,1105.0,24336.0,4882.0,98.0,1106.4,177.8,4884.2,121.2702,1.2978723999999997,0.027669065,0.02275277,-1.006109,63.05,0.02595035,0.0249038649999999,-1.0381125,0.42179888,0.98031472,4.152313599999999,21.0,-8.0,109.4,-18.6,4.8,235.4,-1088.6,4.6,321.8,1015.1454,-3.943875,2944.6,0.02595035,0.0046491145,0.0249038649999999,-0.019683875,-1.0381125,0.01402409,63060.0,30053.0,29900.0,10.0,-13.0,-2.0,0,None
2023-01-04 08:53:28.900,170.98633333333336,0.099999999999999,100.0,1106.0,24295.0,4883.0,98.0,1112.5,179.5,4877.333333333333,120.72496666666667,1.3021891666666667,0.03177431,0.0165557833333333,-1.0023073333333334,63.03,0.0295177666666666,0.01939914,-1.034661,0.4617266666666667,1.1209505666666666,3.8366668333333336,17.666666666666668,-5.333333333333333,110.0,-19.5,-3.1666666666666665,223.5,-1075.8333333333333,20.0,315.0,1015.1303333333334,-3.9589061666666665,2946.5,0.0295177666666666,0.014597659,0.01939914,-0.0101078443333333,-1.034661,0.00900268,63030.0,30076.0,29870.0,11.0,-10.0,-3.0,0,None
2023-01-04 08:53:29.450,171.533,0.0999999999999999,100.0,1123.0,24341.0,4877.0,98.0,1134.0,181.4,4878.8,120.17348,1.3072518,0.0337470166666666,0.0221047933333333,-1.000492333333333,63.01333333333333,0.0312756066666666,0.0253532133333333,-1.0339916666666666,0.44308114,0.99345474,3.956043,14.2,20.4,122.2,-39.4,6.0,229.0,-1059.2,-11.6,323.8,1015.126,-3.9631716,2948.2,0.0312756066666666,-0.0039679103333333,0.0253532133333333,-0.005520927,-1.0339916666666666,0.0008710809999999,63020.0,30076.0,29860.0,10.0,-8.0,-4.0,0,None
2023-01-04 08:53:30.000,172.08633333333333,0.099999999999999,100.0,1145.0,24307.0,4880.0,98.0,1138.5,183.0,4879.5,119.59876666666666,1.3135260000000002,0.03248425,0.02189763,-1.004158,63.0,0.0298450833333333,0.02410936,-1.0376353333333332,0.4018120666666666,1.1201224166666666,3.8385435,18.83333333333333,-10.0,111.83333333333331,-23.666666666666668,2.1666666666666665,226.16666666666663,-1089.5,-0.8333333333333334,323.5,1015.1391666666664,-3.950091,2949.833333333333,0.0298450833333333,-0.0241033373333333,0.02410936,-0.0061418279999999,-1.0376353333333332,-0.0063724613333333,63010.0,30062.0,29850.0,11.0,-2.0,-4.0,0,None
2023-01-04 08:53:30.550,172.633,0.0999999999999999,100.0,1115.0,24303.0,4872.0,98.0,1140.4,184.6,4878.2,119.01868,1.3203192,0.026726155,0.013949795,-1.0027155,62.975,0.024842015,0.015294585,-1.035407,0.39748816,1.03726706,4.3159196,18.6,-13.6,106.2,-55.8,3.6,230.8,-1024.6,12.0,327.8,1015.1254,-3.9636716,2951.6,0.024842015,-0.01685678,0.015294585,-0.02347009,-1.035407,-0.003979342,62990.0,30060.0,29830.0,11.0,1.0,-4.0,0,None
2023-01-04 08:53:31.100,173.19633333333334,0.103333333333334,100.0,1150.0,24292.0,4875.0,98.0,1127.8333333333333,186.5,4877.833333333333,118.4636,1.3275956666666666,0.0272703633333333,0.0132988799999999,-1.0011736666666666,62.95,0.0249120233333333,0.01671466,-1.0334736666666666,0.3711005333333333,1.16435845,3.965670166666667,18.166666666666668,15.0,109.58333333333331,-15.416666666666666,-13.083333333333334,227.75,-1101.9166666666667,-16.583333333333332,321.5833333333333,1015.1454166666666,-3.943730333333333,2953.9166666666665,0.0249120233333333,-0.0011724446666666,0.01671466,0.0131778549999999,-1.0334736666666666,0.0099761366666666,62950.0,30073.5,29790.0,9.5,1.5,-5.0,0,None
2023-01-04 08:53:31.650,173.753,0.0999999999999999,100.0,1122.0,24304.0,4883.0,98.0,1123.6,188.4,4883.0,117.9268,1.334806,0.0177642233333333,0.0185720066666666,-1.0019510333333332,62.906666666666666,0.0154972566666666,0.02025145,-1.034853,0.53818774,0.8840726,3.7675382,28.0,-16.4,113.6,-11.6,-19.0,230.0,-1079.4,30.8,323.8,1015.1504,-3.938656,2955.8,0.0154972566666666,-0.0158320333333333,0.02025145,-0.0037042666666666,-1.034853,0.0172506526666666,62890.0,30086.0,29730.0,13.0,3.0,-3.0,0,None
2023-01-04 08:53:32.200,174.30300000000005,0.099999999999999,100.0,1106.0,24313.5,4881.5,98.0,1087.1666666666667,189.8333333333333,4884.166666666667,117.38326666666666,1.3416923333333337,0.0081797366666666,0.0077510433333333,-1.003768,62.85999999999999,0.0057082176666666,0.0103914193333333,-1.036199,0.3769373,1.1294578833333333,3.608952500000001,10.166666666666666,-12.333333333333334,115.0,-18.0,-2.6666666666666665,225.66666666666663,-1040.3333333333333,2.6666666666666665,314.1666666666667,1015.1488333333332,-3.940442666666667,2957.6666666666665,0.0057082176666666,0.0144375303333333,0.0103914193333333,-0.0135452583333333,-1.036199,-0.0208264466666666,62860.0,30057.0,29700.0,17.0,0.0,-3.0,0,None
2023-01-04 08:53:32.750,174.853,0.0999999999999999,100.0,1160.0,24282.0,4882.0,98.0,1130.2,191.6,4881.0,116.85688,1.3474499999999998,0.018624655,0.000669275,-1.0081625,62.835,0.016404795,0.00349854195,-1.0402375,0.4323418799999999,1.00537716,3.0049884,18.2,-8.0,112.4,-37.2,17.8,227.6,-1036.0,17.8,328.0,1015.1536,-3.9355938,2959.6,0.016404795,0.02884713,0.00349854195,-0.0124370175,-1.0402375,-0.0156042599999999,62830.0,30045.0,29670.0,16.0,-3.0,-3.0,0,None
2023-01-04 08:53:33.300,175.403,0.099999999999999,100.0,1166.0,24291.0,4880.0,98.0,1161.5,193.3333333333333,4881.333333333333,116.38718333333333,1.3518433333333333,0.06924944,-0.0168091256173333,-1.0121233333333337,62.79,0.0665862466666666,-0.0138497023333333,-1.043803,0.330581,1.06920285,3.843252,2.0,-100.0,99.33333333333331,-22.5,306.3333333333333,219.3333333333333,-1068.0,6.0,332.3333333333333,1015.1601666666668,-3.929088333333333,2961.1666666666665,0.0665862466666666,0.260424543,-0.0138497023333333,-0.0800098633333333,-1.043803,-0.0185953866666666,62780.0,30012.0,29620.0,6.0,3.0,-2.0,0,None
2023-01-04 08:53:33.850,175.953,0.0999999999999999,100.0,1279.0,24242.0,4854.0,98.0,1261.8,195.2,4882.2,115.96178,1.35525,0.2675036,-0.087235145,-1.0031745,62.74,0.25983335,-0.08315538,-1.034481,0.5328009,1.12223265,5.2569615,17.0,-32.5,32.5,-52.0,78.25,188.25,-1080.0,8.5,366.25,1015.1696,-3.9197498,2963.0,0.25983335,0.062302075,-0.08315538,-0.0315213788,-1.034481,-0.0044831845,62750.0,30060.0,29590.0,-64.0,63.0,0.0,0,None
2023-01-04 08:53:34.400,176.503,0.099999999999999,100.0,1278.0,24235.0,4883.0,98.0,1239.0,197.16666666666663,4883.166666666667,115.54503333333332,1.3579963333333334,0.2588224666666667,-0.0788572366666666,-0.9933409666666666,62.73666666666667,0.2523133,-0.0758891466666666,-1.0242313333333335,0.4164786166666667,1.3216266666666667,7.024728499999999,44.833333333333336,16.833333333333332,26.33333333333333,-9.0,-59.833333333333336,192.66666666666663,-1085.3333333333333,15.166666666666666,357.0,1015.1466666666666,-3.9428384999999992,2964.6666666666665,0.2523133,-0.0296956036666666,-0.0758891466666666,0.0329663433333333,-1.0242313333333335,0.0110068566666666,62730.0,30129.0,29570.0,-161.0,142.0,-2.0,0,None
2023-01-04 08:53:34.950,177.05300000000005,0.0999999999999999,100.0,1192.0,24258.0,4888.0,98.0,1189.6,199.0,4871.0,115.17172,1.3616878,0.22481425,-0.07009808,-0.9903444,62.755,0.2211909,-0.069019215,-1.021809,0.5292910200000001,1.5055717999999998,7.6409614,60.4,14.0,39.4,17.8,-34.6,190.0,-1049.4,-17.8,362.8,1015.1438,-3.9454843999999993,2966.6,0.2211909,-0.070900825,-0.069019215,0.0084973004999999,-1.021809,-0.00177446065,62750.0,30147.0,29590.0,-244.0,211.0,2.0,0,None
2023-01-04 08:53:35.500,177.60300000000004,0.1000000000000037,100.0,1151.0,24272.0,4874.0,98.0,1144.5,200.8333333333333,4874.166666666667,114.88115,1.3670165,0.2181722333333333,-0.06784865,-0.9914022666666668,62.76666666666667,0.2176707666666666,-0.0691863333333333,-1.0233360000000002,0.5903805333333333,1.3620763333333334,8.331137,73.83333333333333,-8.5,52.0,12.833333333333334,15.5,191.5,-1070.3333333333333,22.166666666666668,349.6666666666667,1015.1383333333332,-3.950794,2968.6666666666665,0.2176707666666666,0.0142008833333333,-0.0691863333333333,0.0151336966666666,-1.0233360000000002,0.010294203,62760.0,30138.0,29600.0,-306.0,262.0,-4.0,0,None
2023-01-04 08:53:36.050,178.15300000000002,0.0999999999999999,100.0,1163.0,24283.0,4887.0,98.0,1136.6,202.4,4881.8,114.65422,1.3733904,0.2235891,-0.0707136566666666,-0.9860845,62.79,0.2231068666666666,-0.07201361,-1.0186433333333331,0.6965435199999999,1.4832762000000002,9.161856,86.6,22.6,40.4,-19.6,-79.6,191.0,-1069.8,-16.4,360.2,1015.1404,-3.9487812,2970.2,0.2231068666666666,-0.03897376,-0.07201361,0.0267853599999999,-1.0186433333333331,0.0003739408333333,62780.0,30160.0,29620.0,-366.0,307.0,-3.0,0,None
2023-01-04 08:53:36.600,178.703,0.099999999999999,100.0,1001.0,24291.0,4877.0,98.0,928.3333333333334,204.0,4873.666666666667,114.4785,1.3813693333333334,0.0332906033333333,0.0014627623333333,-0.9892176,62.81999999999999,0.0357952033333333,-0.0003127287,-1.0218266666666669,0.7340316333333335,1.2157958333333334,7.935215,70.83333333333333,167.33333333333334,90.83333333333331,-16.666666666666668,-410.1666666666667,212.66666666666663,-1051.0,-18.33333333333333,346.5,1015.1533333333332,-3.935651,2971.833333333333,0.0357952033333333,-0.4245882666666666,-0.0003127287,0.1942933333333333,-1.0218266666666669,-0.0114623533333333,62815.0,30154.5,29655.0,-414.5,335.0,-4.5,0,None
2023-01-04 08:53:37.150,179.253,0.0999999999999999,100.0,901.0,24383.0,4877.0,98.0,892.2,205.4,4876.8,114.35786,1.3892314,-0.09402748,0.057440055,-0.99161515,62.82,-0.08802261,0.0528185199999999,-1.0235975000000002,0.8187992599999999,1.430529,11.519958,-1.0,9.6,144.6,-8.8,-128.0,233.8,-1029.6,-2.4,305.0,1015.1956,-3.8935468,2974.0,-0.08802261,-0.03984766,0.0528185199999999,0.031513935,-1.0235975000000002,0.0025477265,62800.0,30129.0,29640.0,-343.0,278.0,-2.0,0,None
2023-01-04 08:53:37.700,179.80300000000005,0.099999999999999,100.0,820.0,24359.5,4872.0,98.0,937.3333333333334,206.66666666666663,4873.166666666667,114.25598333333336,1.3937148333333331,-0.1098516666666666,0.0517779499999999,-0.9961425,62.75333333333333,-0.1046095566666666,0.0486213633333333,-1.0282646666666666,1.1650955833333334,1.560130166666667,13.172975,45.333333333333336,31.666666666666668,156.33333333333334,-43.833333333333336,65.5,258.8333333333333,-1105.1666666666667,-38.66666666666666,301.5,1015.2395,-3.8497133333333338,2975.333333333333,-0.1046095566666666,0.0408535923333333,0.0486213633333333,0.057774616,-1.0282646666666666,-0.028315443,62720.0,30065.0,29560.0,-273.0,216.0,-4.0,0,None
2023-01-04 08:53:38.250,180.353,0.0999999999999999,100.0,1096.0,24305.0,4851.0,98.0,1005.8,208.4,4871.2,114.15508,1.3967236,-0.05941679,0.04775946,-0.9989731,62.66333333333333,-0.0573524233333333,0.0460078133333333,-1.0321616666666666,1.07868074,1.6146778000000002,12.180906,27.8,-58.8,142.2,-15.6,57.8,253.0,-1113.0,22.0,298.6,1015.2362,-3.8529998,2977.2,-0.0573524233333333,0.0796979733333333,0.0460078133333333,-0.0779169933333333,-1.0321616666666666,0.0126677466666666,62640.0,30116.0,29480.0,-211.0,174.0,0.0,0,None
2023-01-04 08:53:38.800,180.903,0.099999999999999,100.0,967.0,24352.0,4871.0,98.0,1025.8333333333333,209.8333333333333,4874.5,114.03999999999998,1.3988003333333332,-0.04197209,0.0252003466666666,-0.9920279333333334,62.63,-0.0433194233333333,0.0263754233333333,-1.0254263333333336,0.8078059333333333,1.5054251666666667,9.432916666666667,50.16666666666666,4.666666666666667,130.83333333333334,-5.333333333333333,-53.66666666666666,235.66666666666663,-1113.6666666666667,-12.166666666666666,308.6666666666667,1015.1906666666667,-3.898255166666667,2978.6666666666665,-0.0433194233333333,-0.07344895,0.0263754233333333,0.0219773303333333,-1.0254263333333336,-0.006518664,62630.0,30127.0,29470.0,-167.0,141.0,9.0,0,None
2023-01-04 08:53:39.350,181.453,0.0999999999999999,100.0,1061.0,24335.0,4874.0,98.0,1018.2,211.4,4869.8,113.92296000000002,1.4000592,-0.081898945,0.039492335,-1.005553,62.65,-0.08443864,0.040954515,-1.0386885,0.7991857400000001,1.4484748,9.959138200000002,32.8,4.6,141.4,-26.0,-114.0,244.6,-1031.2,-29.2,303.0,1015.1972,-3.8920468,2980.8,-0.08443864,-0.09045481,0.040954515,0.018734825,-1.0386885,-0.0144805749999999,62650.0,30046.0,29490.0,-123.0,101.0,3.0,0,None
2023-01-04 08:53:39.900,182.003,0.099999999999999,100.0,1253.0,24236.0,4877.0,98.0,1220.1666666666667,213.16666666666663,4880.0,113.82155,1.4015498333333332,-0.1362179,0.0499215566666666,-1.017062666666667,62.64333333333334,-0.1380437,0.05252518,-1.0497743333333334,0.7882149666666667,1.4735284999999998,10.544964166666666,6.5,18.666666666666668,154.0,2.0,64.0,233.5,-1110.3333333333333,-9.833333333333334,285.1666666666667,1015.1718333333334,-3.917487,2982.333333333333,-0.1380437,-0.00777665,0.05252518,0.08208768,-1.0497743333333334,-0.005564067,62640.0,29980.0,29480.0,-65.0,42.0,0.0,0,None
