00000_Time_epoch,00000_Time_boot_sec,00000_Span_Time_boot_sec,1_battery_remaining_avg,1_current_battery_avg,1_voltage_battery_avg,125_Vcc_avg,147_battery_remaining_avg,147_current_battery_avg,147_current_consumed_avg,165_Vcc_avg,168_direction_avg,168_speed_avg,178_pitch_avg,178_roll_avg,178_yaw_avg,182_altitude_avg,182_pitch_avg,182_roll_avg,182_yaw_avg,241_vibration_x_avg,241_vibration_y_avg,241_vibration_z_avg,27_xacc_avg,27_xgyro_avg,27_xmag_avg,27_yacc_avg,27_ygyro_avg,27_ymag_avg,27_zacc_avg,27_zgyro_avg,27_zmag_avg,29_press_abs_avg,29_press_diff_avg,29_temperature_avg,30_pitch_avg,30_pitchspeed_avg,30_roll_avg,30_rollspeed_avg,30_yaw_avg,30_yawspeed_avg,33_alt_avg,33_hdg_avg,33_relative_alt_avg,33_vx_avg,33_vy_avg,33_vz_avg,label,diagnosis
2022-12-21 08:32:07.400,222.634,0.104000000000002,100.0,82.0,24999.0,4882.0,99.0,74.0,47.0,4884.2,41.82547,0.6150964800000001,0.00717985,0.04152664,-1.1214385,35.7,0.016449285,0.05244915,-1.111333,0.026176708,0.025301576,0.03656298,-5.8,5.4,100.0,-57.0,6.6,266.2,-1043.6,-0.2,317.8,1013.5108,-0.1562343799999999,3125.0,0.016449285,0.0072419324999999,0.05244915,0.0051857085,-1.111333,-0.00065504895,35700.0,29633.0,-190.0,6.0,20.0,-37.0,0,None
2022-12-21 08:32:07.950,223.2075,0.103333333333334,100.0,86.0,24982.5,4883.5,99.0,82.66666666666667,47.0,4882.333333333333,41.85487833333334,0.5346548166666667,0.007512099,0.0408951366666666,-1.1216273333333333,35.61666666666667,0.0166623233333333,0.0525026033333333,-1.1111123333333337,0.0244592966666666,0.0240525466666666,0.036533865,-5.666666666666667,5.416666666666667,100.5,-57.333333333333336,6.75,266.6666666666667,-1043.5,0.0,318.5833333333333,1013.516,-0.15096355,3126.5,0.0166623233333333,0.0078074246666666,0.0525026033333333,0.0057212283333333,-1.1111123333333337,-0.0007370152666666,35620.0,29635.0,-270.0,6.0,21.0,-38.0,0,None
2022-12-21 08:32:08.500,223.758,0.0999999999999999,100.0,84.0,24983.0,4888.0,99.0,123.2,47.0,4877.8,41.087374,0.53534028,0.0071978583333333,0.0416144133333333,-1.121679,35.526666666666664,0.0168589,0.05265864,-1.1107896666666666,0.052359894,0.065010564,0.174506302,-7.8,5.4,99.8,-60.6,7.8,259.4,-1056.2,2.0,320.6,1013.5172,-0.1498125,3127.8,0.0168589,0.005784002,0.05265864,0.0064276483333333,-1.1107896666666666,0.0078827433,35540.0,29636.0,-350.0,7.0,21.0,-38.0,0,None
2022-12-21 08:32:09.050,224.308,0.1001666666666664,100.0,110.0,24955.0,4882.0,99.0,177.83333333333334,47.0,4879.0,40.26751666666666,0.5805256333333333,0.007371413,0.0410023999999999,-1.1214006666666667,35.49,0.0168195233333333,0.0527248433333333,-1.1103903333333334,0.116787325,0.23747915,1.10791675,-10.666666666666666,5.666666666666667,100.33333333333331,-57.16666666666666,5.166666666666667,265.5,-1042.5,5.333333333333333,313.6666666666667,1013.5451666666668,-0.1217317666666666,3129.5,0.0168195233333333,0.007432835,0.0527248433333333,0.0051835033333333,-1.1103903333333334,0.010090897,35500.0,29635.0,-390.0,7.0,22.0,-38.0,0,None
2022-12-21 08:32:09.600,224.859,0.0999999999999999,100.0,99.0,24934.0,4890.0,99.0,111.4,47.0,4883.2,39.953954,0.64715442,0.007873529,0.04083078,-1.1218595,35.47,0.016999205,0.0527658,-1.1101915,0.1009984519999999,0.3031842999999999,1.30393218,-5.0,4.4,98.8,-56.6,5.0,263.8,-1055.8,-1.8,315.0,1013.5474,-0.11979686,3130.6,0.016999205,0.0101900515,0.0527658,0.0050335965,-1.1101915,0.0021818455,35480.0,29640.0,-410.0,7.0,22.0,-38.0,0,None
2022-12-21 08:32:10.150,225.40833333333333,0.099999999999999,100.0,106.0,24926.0,4883.0,99.0,108.0,47.5,4880.666666666667,39.780185,0.7271575500000002,0.007145368,0.04173801,-1.122029333333333,35.46,0.01706346,0.05273193,-1.1099506666666668,0.1021337033333333,0.3861572333333333,1.571066,-6.0,5.5,99.0,-57.5,8.0,265.0,-1043.0,1.1666666666666667,318.1666666666667,1013.5541666666668,-0.1128124833333333,3132.5,0.01706346,0.0040280123333333,0.05273193,0.007562079,-1.1099506666666668,-0.0006037036666666,35470.0,29642.0,-420.0,6.0,23.0,-39.0,0,None
2022-12-21 08:32:10.700,225.971,0.104000000000002,100.0,99.0,24945.0,4888.0,99.0,106.8,48.0,4884.2,39.44287,0.8151339,0.006938343,0.04179351,-1.122308,35.43333333333334,0.0170591433333333,0.05285535,-1.109761,0.089911024,0.22691306,0.8427192800000001,-6.0,5.6,99.0,-58.8,5.6,263.8,-1048.6,-2.0,317.8,1013.5598,-0.10721874,3133.8,0.0170591433333333,0.0082956313333333,0.05285535,0.005454879,-1.109761,-0.006468259,35450.0,29643.0,-440.0,7.0,23.0,-39.0,0,None
2022-12-21 08:32:11.250,226.503,0.1120000000000004,100.0,107.0,24957.0,4882.0,99.0,378.0,48.0,4886.8,39.137226,0.89578666,0.0069075795,0.042066205,-1.1222205,35.425,0.0171407199999999,0.05285396,-1.109356,0.20254787,0.2120752999999999,1.3322816400000002,-2.6,4.4,98.8,-69.8,6.6,260.2,-1050.4,-0.6,310.8,1013.5726,-0.0945156339999999,3135.2,0.01706588,0.005845856,0.05274557,0.0030696017,-1.10939,0.0009666034999999,35440.0,29643.5,-450.0,7.5,23.0,-39.0,0,None
2022-12-21 08:32:11.800,227.043,0.1039999999999963,100.0,1901.0,24195.0,4888.0,99.0,1573.4,49.6,4885.2,38.962,0.9773702400000002,0.0272084999999999,0.0250487833333333,-1.1194936666666668,35.5,0.03653952,0.0363651866666666,-1.1060876666666666,0.5602054,0.96885606,4.472926200000001,-18.8,-73.4,85.4,-13.8,55.6,247.6,-1174.0,4.2,305.8,1013.8852,0.218124994,3136.6,0.0357250033333333,-0.00197817,0.0359850366666666,-0.0653696133333333,-1.105962,0.0039114366333333,35670.0,29691.0,-220.0,18.0,46.0,41.0,0,None
2022-12-21 08:32:12.350,227.5672,0.1042000000000029,100.0,1650.0,24247.0,4882.0,99.0,1608.0,52.0,4879.0,39.431138,1.0614746,0.00549242275,-0.0089546702,-1.10708,35.974999999999994,0.016056911,0.0025120704999999,-1.0915395,0.4939528,0.63056028,3.2009536,-11.3,-51.3,80.1,-15.1,-57.2,226.7,-1205.0,38.1,297.8,1013.6128,-0.054046875,3138.0,0.016056911,-0.08192259,0.0025120704999999,-0.0729081799999999,-1.0915395,0.04716232,36410.0,29800.0,520.0,14.0,47.0,126.0,0,None
2022-12-21 08:32:12.900,228.15166666666667,0.1064999999999969,100.0,1701.0,24202.0,4885.0,99.0,1739.1666666666667,55.0,4882.333333333333,40.307805,1.1300635,-0.0187833366666666,-0.0307322466666666,-1.0979376666666667,37.02,-0.0086372213333333,-0.0181013933333333,-1.0805266666666666,0.41873785,1.2232647166666666,3.026384833333333,-11.0,33.666666666666664,94.83333333333331,-20.33333333333333,0.8333333333333334,221.8333333333333,-1193.0,4.833333333333333,305.3333333333333,1013.3496666666666,-0.3174348666666667,3139.333333333333,-0.0086372213333333,-0.0087939933333333,-0.0181013933333333,0.0073530259999999,-1.0805266666666666,-0.0061855006666666,37640.0,29820.0,1750.0,1.0,24.0,213.0,0,None
2022-12-21 08:32:13.450,228.7232,0.1042000000000029,100.0,1626.0,24201.0,4888.0,99.0,1653.4,57.4,4882.2,40.799114,1.168234,-0.013900648,0.001527249,-1.1043956666666668,38.796666666666674,-0.0034790283333333,0.0102173866666666,-1.0887246666666666,0.2686464,1.5865599199999998,2.4638714,-17.6,57.0,96.6,-5.6,20.8,213.6,-1139.8,-28.0,272.2,1013.2072,-0.45973436,3140.8,-0.0034790283333333,0.0033897266666666,0.0102173866666666,0.06412933,-1.0887246666666666,-0.032158936,39230.0,29706.0,3340.0,2.0,14.0,268.0,0,None
2022-12-21 08:32:14.000,229.236,0.0999999999999999,100.0,1433.0,24287.0,4883.0,99.0,1609.8,59.8,4885.4,41.08889,1.1857078,-0.00366962065,0.013996715,-1.1157720000000002,40.485,0.0069780615,0.023198165,-1.104017,0.1661229,1.9093042,3.5760464,-17.2,-8.0,86.4,-21.2,15.2,224.2,-1095.2,-31.6,280.6,1013.0364,-0.6306562600000001,3142.4,0.0069780615,0.010192745,0.023198165,-0.0057579,-1.104017,-0.026800215,40960.0,29661.0,5070.0,10.0,15.0,309.0,0,None
2022-12-21 08:32:14.550,229.7412,0.1043999999999982,100.0,1262.0,24324.0,4895.0,99.0,1321.0,61.6,4876.6,41.194298,1.1949302000000002,-0.0032725768,0.0136138333333333,-1.1264216666666669,42.223333333333336,0.0067917653333333,0.0231075133333333,-1.113348,0.45591592,1.11951586,4.8732546,-19.3,17.6,87.8,-2.1,6.7,243.1,-978.4,-4.6,310.8,1012.8059,-0.86113281,3143.6,0.006458141,0.0325691373333333,0.0231536433333333,0.023111454,-1.1136256666666666,0.0002245676666666,42680.0,29629.0,6790.0,20.0,22.0,296.0,0,None
2022-12-21 08:32:15.100,230.32933333333327,0.1036666666666689,100.0,886.0,24497.0,4879.0,99.0,857.3333333333334,63.5,4887.5,41.38246333333334,1.198059,-0.016076159,-0.0159608273333333,-1.1238003333333333,43.97,-0.0048507856666666,-0.0064237736666666,-1.109322666666667,0.9782912833333332,1.1389943666666666,4.0815755,-23.0,-73.5,97.83333333333331,18.0,-27.33333333333333,239.3333333333333,-806.5,5.5,322.5,1012.5715,-1.0954818333333334,3145.833333333333,-0.0048507856666666,-0.0463768286666666,-0.0064237736666666,-0.1170533166666666,-1.109322666666667,0.0075225590666666,44100.0,29636.0,8210.0,28.0,30.0,193.0,0,None
2022-12-21 08:32:15.650,230.89140000000003,0.1037999999999953,100.0,1096.0,24433.0,4888.0,99.0,1049.2,65.0,4884.0,41.462122,1.1886004,-0.0200120633333333,-0.0315771933333333,-1.120939,44.96,-0.0084168003333333,-0.0198497233333333,-1.104942,0.93930284,0.8248284,3.9306598,-11.6,12.8,102.0,12.6,37.2,229.0,-910.4,-4.0,327.8,1012.4346000000002,-1.2324532,3147.2,-0.0084168003333333,0.0121937666666666,-0.0198497233333333,-0.0047413006666666,-1.104942,-0.0117893366666666,44900.0,29678.0,9010.0,28.0,26.0,90.0,0,None
2022-12-21 08:32:16.200,231.44900000000004,0.1000000000000037,100.0,1075.0,24434.0,4875.0,99.0,1094.0,66.5,4883.5,41.35535333333333,1.1679566666666668,-0.0036984673333333,-0.0334343966666666,-1.1321633333333334,45.44,0.0081894053333333,-0.0217299233333333,-1.1144026666666669,0.6808397500000001,0.7113136833333334,5.29426,-26.33333333333333,0.8333333333333334,90.83333333333331,0.5,26.5,228.8333333333333,-997.5,-14.0,326.5,1012.3716666666666,-1.2953126666666668,3148.6666666666665,0.0081894053333333,0.0405705066666666,-0.0217299233333333,-0.0058344189999999,-1.1144026666666669,-0.0215432843333333,45350.0,29622.0,9460.0,25.0,25.0,35.0,0,None
2022-12-21 08:32:16.750,232.019,0.1039999999999963,100.0,1110.0,24409.0,4890.0,99.0,1128.8,68.4,4880.2,41.154772,1.1398677999999998,-0.0042649055,-0.030901275,-1.1395784999999998,45.685,0.00676587,-0.01905256,-1.119878,0.6000781999999999,0.8284672399999999,6.1756066,-22.8,23.6,90.8,0.0,-28.8,243.2,-1003.6,-15.4,338.0,1012.3096,-1.3572968,3150.0,0.00676587,-0.034051295,-0.01905256,0.0105738964999999,-1.119878,0.00539198,45610.0,29594.0,9720.0,15.0,29.0,6.0,0,None
2022-12-21 08:32:17.300,232.535,0.104000000000002,100.0,1138.0,24404.0,4875.0,99.0,1182.6,70.0,4882.0,40.982568,1.111619,-0.0221438433333333,-0.0171409733333333,-1.139452666666667,45.84333333333333,-0.010390716,-0.0054888206666666,-1.1186463333333334,0.5450157600000001,0.78822594,6.4590774,-26.6,39.0,97.8,12.6,-19.0,232.6,-1026.8,5.0,322.8,1012.3084,-1.3585938,3151.4,-0.010390716,-0.0083040666666666,-0.0054888206666666,0.02512324,-1.1186463333333334,0.0188962966666666,45800.0,29584.0,9910.0,9.0,30.0,-11.0,0,None
2022-12-21 08:32:17.850,233.0893333333333,0.1001666666666664,100.0,1164.0,24353.0,4891.0,99.0,1185.0,71.83333333333333,4880.166666666667,40.73999,1.0743813333333332,-0.0186897866666666,-0.0023704531333333,-1.1403673333333335,45.97,-0.007390126,0.0076113576666666,-1.1178503333333332,0.54673955,0.7753426666666665,6.530279,-24.33333333333333,13.666666666666666,92.0,8.666666666666666,28.0,231.3333333333333,-1025.0,-2.833333333333333,300.3333333333333,1012.2811666666666,-1.385612,3153.1666666666665,-0.007390126,0.0186328676666666,0.0076113576666666,-0.0097833143333333,-1.1178503333333332,-0.0092242184233333,45960.0,29597.0,10070.0,19.0,26.0,-24.5,0,None
2022-12-21 08:32:18.400,233.63960000000003,0.0999999999999999,100.0,1232.0,24345.0,4888.0,99.0,1196.8,73.6,4882.4,40.420626,1.0316746,0.0001056225,-0.0160204065,-1.1428094999999998,46.04,0.010152549,-0.0057286763,-1.1178215,0.49584638,0.85785678,6.372695200000001,-30.2,-38.4,90.2,19.6,33.2,250.2,-1020.2,2.6,333.6,1012.269,-1.3981720000000002,3154.6,0.010152549,0.02115353,-0.0057286763,-0.04656885,-1.1178215,-0.0045180099999999,46060.0,29587.0,10170.0,28.0,34.0,-36.0,0,None
2022-12-21 08:32:18.950,234.2133333333333,0.103333333333334,100.0,1175.5,24357.5,4881.0,99.0,1208.1666666666667,75.66666666666667,4875.0,39.961965,0.9853312333333336,-0.0027421432333333,-0.02151131,-1.1429463333333334,46.09,0.0068239819999999,-0.0102749333333333,-1.116164,0.5641482833333332,0.7805787166666667,6.418908333333333,-20.916666666666668,8.333333333333334,87.33333333333333,8.166666666666666,-5.25,235.75,-1026.9166666666667,-11.083333333333334,333.5833333333333,1012.258,-1.40896475,3156.333333333333,0.0068239819999999,-0.0008037269999999,-0.0102749333333333,0.0113294973333333,-1.116164,-0.0080087803333333,46110.0,29612.0,10220.0,26.0,39.0,-38.0,0,None
2022-12-21 08:32:19.500,234.768,0.1039999999999963,100.0,1153.0,24362.0,4890.0,99.0,1127.6,77.2,4876.0,39.46082199999999,0.9391848,-0.028296118,-0.0304781799999999,-1.1538693333333334,46.13999999999999,-0.0185684568333333,-0.0201867833333333,-1.12521,0.62547578,0.9419798,6.7427426000000015,-24.4,-12.8,93.2,4.0,-135.4,242.4,-1020.2,0.6,339.2,1012.2392,-1.427828,3157.8,-0.0185684568333333,-0.1412895326666666,-0.0201867833333333,-0.0117445066666666,-1.12521,0.0035161433333333,46150.0,29551.0,10260.0,22.0,40.0,-44.0,0,None
2022-12-21 08:32:20.050,235.2876,0.103800000000001,100.0,1183.0,24346.0,4850.0,99.0,1162.2,79.0,4885.6,38.899248,0.8904910600000001,-0.1824984,-0.03464701,-1.1535595,46.17,-0.1711871,-0.023374535,-1.1245805,0.63489978,0.8974039000000001,7.046959200000001,-36.0,-5.6,125.6,2.6,-287.2,233.4,-1053.8,-10.0,306.6,1012.2358,-1.4312034,3159.2,-0.1711871,-0.28641875,-0.023374535,0.01939494135,-1.1245805,-0.00658135144,46180.0,29557.0,10290.0,38.0,-6.0,-47.0,0,None
2022-12-21 08:32:20.600,235.85966666666664,0.1035000000000014,100.0,1132.0,24353.0,4883.0,99.0,1163.3333333333333,80.83333333333333,4876.5,38.51012666666667,0.8384142666666667,-0.2381887,-0.0353271666666666,-1.1546143333333332,46.18333333333334,-0.2244701999999999,-0.0262012666666666,-1.123997666666667,0.6060879,0.8642580833333334,7.195975000000001,-54.0,-8.166666666666666,161.16666666666666,16.0,30.0,239.0,-1064.0,5.833333333333333,303.1666666666667,1012.2201666666666,-1.4468618333333332,3161.0,-0.2244701999999999,0.0313309933333333,-0.0262012666666666,-0.0013873566666666,-1.123997666666667,-0.0091790333333333,46180.0,29567.0,10290.0,79.0,-103.0,-45.0,0,None
2022-12-21 08:32:21.150,236.4314,0.1039999999999963,100.0,1178.0,24346.0,4882.0,99.0,1058.8,82.6,4879.8,38.054418,0.78140254,-0.1702632,-0.03967949,-1.1595943333333334,46.20666666666667,-0.1597286,-0.03274825,-1.1263156666666667,0.7830882000000001,1.1241464,9.470842199999998,-53.2,2.0,149.4,31.0,165.0,232.4,-1060.0,-6.6,315.2,1012.2568,-1.4104374000000002,3162.4,-0.1597286,0.1999347666666666,-0.03274825,-0.0183637633333333,-1.1263156666666667,0.0218467566666666,46200.0,29555.0,10310.0,113.0,-192.0,-42.0,0,None
2022-12-21 08:32:21.700,236.9398,0.0999999999999999,100.0,915.0,24439.0,4883.0,99.0,913.2,83.8,4874.2,37.31513,0.72923738,-0.0348426005,-0.1082380249999999,-1.1679185,46.195,-0.027310253,-0.1004593,-1.132597,0.93116704,1.2754416,10.97214,-23.6,-234.0,114.6,6.4,267.4,220.8,-998.0,-0.4,318.0,1012.3378,-1.3292814,3164.0,-0.027310253,0.25393145,-0.1004593,-0.2608969,-1.132597,-0.00233123,46200.0,29522.0,10310.0,123.0,-238.0,-40.0,0,None
2022-12-21 08:32:22.250,237.4898333333333,0.1000000000000037,100.0,1050.0,24338.0,4885.0,99.0,992.0,85.5,4882.833333333333,35.90859333333333,0.6685284333333333,0.0207279633333333,-0.2103564666666666,-1.1765786666666669,46.120000000000005,0.0249714133333333,-0.1988782666666666,-1.1392313333333333,0.92552135,1.420200333333333,11.732525,-63.16666666666666,-102.83333333333331,82.16666666666667,22.0,21.0,180.66666666666663,-1061.6666666666667,-8.166666666666666,379.6666666666667,1012.2921666666666,-1.374935,3165.5,0.0249714133333333,-0.0009014366666666,-0.1988782666666666,-0.1041327521666666,-1.1392313333333333,-0.00509376,46120.0,29487.0,10230.0,61.0,-248.0,-41.0,0,None
2022-12-21 08:32:22.800,238.04,0.0999999999999999,100.0,855.0,24471.0,4888.0,99.0,826.4,86.8,4880.2,34.925544,0.60657882,0.011360793,-0.103007426,-1.170343,46.086666666666666,0.0181891133333333,-0.0925840293333333,-1.134121333333333,0.85728088,1.534748,10.8721612,-54.2,420.0,91.0,9.6,11.2,188.2,-1067.0,29.4,369.8,1012.3432,-1.3240470000000002,3167.2,0.0181891133333333,0.0057195166666666,-0.0925840293333333,0.4864693666666667,-1.134121333333333,0.0262723333333333,46100.0,29468.0,10210.0,-35.0,-252.0,-37.0,0,None
2022-12-21 08:32:23.350,238.58999999999995,0.099999999999999,100.0,659.0,24561.0,4895.0,99.0,685.0,87.83333333333333,4882.666666666667,34.39734333333333,0.5453255499999999,-0.0142102726666666,0.1799426999999999,-1.165903666666667,46.04666666666666,-0.0062617006666666,0.1851157666666666,-1.1321763333333332,0.9532885166666664,1.9705103333333327,8.808381833333334,-42.66666666666666,440.0,91.83333333333331,10.5,-47.66666666666666,262.5,-1048.3333333333333,-16.5,299.3333333333333,1012.382,-1.285052,3168.6666666666665,-0.0062617006666666,0.0049524966666666,0.1851157666666666,0.3090751666666666,-1.1321763333333332,0.0037654623333333,46050.0,29521.0,10160.0,-20.5,-206.5,-29.5,0,None
2022-12-21 08:32:23.900,239.14,0.0999999999999999,100.0,855.0,24485.0,4893.0,99.0,854.0,89.2,4883.8,33.802724,0.48667012,0.0311715735,0.23177465,-1.173089,45.98,0.039080045,0.23505845,-1.138859,0.78749096,1.818773,11.3022472,-46.6,-167.6,83.4,-3.8,182.4,309.6,-992.4,-32.4,246.0,1012.4098,-1.2572028,3169.6,0.039080045,0.25192175,0.23505845,-0.2279688299999999,-1.138859,-0.054130485,45940.0,29491.0,10050.0,118.0,-102.0,-38.0,0,None
2022-12-21 08:32:24.450,239.664,0.1079999999999983,100.0,1200.0,24321.5,4889.0,99.0,1261.4,90.6,4886.0,32.973908,0.43785694,0.1862063333333333,0.0086162473333333,-1.1829349999999998,45.88999999999999,0.1902422,0.01827598,-1.1448223333333332,0.92493414,1.2469894,7.712317199999999,-3.2,-369.8,29.9,54.3,165.5,253.0,-1094.6,-15.0,302.9,1012.2504,-1.4164377,3171.6,0.1902422,0.17537403,0.01827598,-0.3610992666666666,-1.1448223333333332,-0.03252773,45880.0,29425.0,9990.0,101.0,11.0,-30.0,0,None
2022-12-21 08:32:25.000,240.23666666666668,0.103333333333334,100.0,1232.0,24291.0,4893.0,99.0,1244.5,92.83333333333331,4885.333333333333,31.28563666666666,0.3859047333333333,0.0535025033333333,-0.1061728333333333,-1.1636133333333334,45.98666666666667,0.0588327133333333,-0.0891498533333333,-1.123666,0.7178979500000001,0.9337211666666666,5.029063,-28.83333333333333,-27.666666666666668,45.66666666666666,12.333333333333334,-398.5,204.16666666666663,-1037.5,25.5,353.5,1012.219,-1.447982,3172.833333333333,0.0588327133333333,-0.3831764333333333,-0.0891498533333333,-0.0059043273333333,-1.123666,0.0224598066666666,46020.0,29605.0,10130.0,39.0,57.0,-38.0,0,None
2022-12-21 08:32:25.550,240.8078,0.104000000000002,100.0,1203.0,24282.0,4888.0,99.0,1230.2,94.6,4889.4,29.900174000000003,0.34146462,-0.0574259649999999,-0.066129345,-1.1425855,46.1,-0.045528125,-0.04984753,-1.100984,0.5002809399999999,0.8648817999999998,5.669549999999999,-30.0,114.6,113.8,26.2,-12.4,228.2,-1014.0,11.4,344.8,1012.2386,-1.4282814,3174.6,-0.045528125,0.0045694049999999,-0.04984753,0.101610165,-1.100984,0.0043166095,46100.0,29704.0,10210.0,20.0,31.0,-40.0,0,None
2022-12-21 08:32:26.100,241.3278,0.1039999999999963,100.0,1175.0,24299.0,4895.0,99.0,1185.4,96.4,4880.8,28.302762,0.2994081799999999,-0.0155422673333333,-0.02554285,-1.135713,46.123333333333335,-0.0033579443333333,-0.012377476,-1.0918023333333335,0.6090009599999999,0.7144047199999999,5.076699,-25.0,58.2,109.6,5.2,108.0,234.4,-1058.4,14.6,334.6,1012.2466,-1.4202814,3175.8,-0.0033579443333333,0.1150533033333333,-0.012377476,0.05429795,-1.0918023333333335,0.0118539890333333,46130.0,29757.0,10240.0,20.0,18.0,-42.0,0,None
2022-12-21 08:32:26.650,241.8682,0.108000000000004,100.0,1154.0,24303.0,4895.0,99.0,1124.6,98.2,4894.6,25.114358,0.24764238,0.0240402149999999,-0.01446536,-1.1349635,46.12,0.03398549,-0.002848203,-1.0902675,0.61059862,0.7892676199999998,5.6234798,-31.0,-7.3,94.4,2.5,29.5,239.0,-1008.1,-29.6,334.3,1012.2303,-1.4367187,3177.7,0.03398549,0.0205769799999999,-0.002848203,-0.0050375535,-1.0902675,-0.023555307,46120.0,29743.0,10230.0,18.0,30.0,-42.0,0,None
2022-12-21 08:32:27.200,242.43066666666667,0.1001666666666664,100.0,1172.0,24302.0,4898.0,99.0,1124.8333333333333,100.16666666666669,4896.666666666667,20.08660666666667,0.1972809333333333,0.0175233996666666,-0.0245914133333333,-1.1526096666666668,46.12,0.0263088766666666,-0.01299757,-1.107046,0.6052960333333334,0.8699578,6.695356666666666,-24.166666666666668,0.1666666666666666,89.33333333333333,19.83333333333333,-32.666666666666664,231.5,-1046.3333333333333,-24.666666666666668,331.0,1012.2255,-1.4415753333333334,3179.0,0.0263088766666666,-0.0300772253333333,-0.01299757,-0.0161474433333333,-1.107046,-0.0445733166666666,46120.0,29647.0,10230.0,12.0,46.0,-47.0,0,None
2022-12-21 08:32:27.750,242.981,0.0999999999999999,100.0,1143.0,24317.0,4896.0,99.0,1160.8,101.6,4893.8,13.883058,0.15387996,-0.0050558836,-0.0256187,-1.1646775,46.11,0.0044108201,-0.014451525,-1.118613,0.6274697600000001,0.8761112800000002,6.3526444,-17.25,5.5,89.75,-11.75,-26.75,234.75,-1042.0,-29.5,320.25,1012.22625,-1.440801,3180.25,0.0044108201,-0.020685815,-0.014451525,-0.007236293,-1.118613,-0.0072417595,46110.0,29582.0,10220.0,7.0,53.0,-47.0,0,None
2022-12-21 08:32:28.300,243.54366666666667,0.1031666666666666,100.0,1165.0,24263.0,4891.0,99.0,1177.1666666666667,103.5,4891.666666666667,4.349225333333334,0.1149309116666666,-0.0191862633333333,-0.0275574333333333,-1.1708113333333332,46.07,-0.0095797476666666,-0.0170880766666666,-1.1238473333333332,0.6137116166666666,0.8747177,6.411851833333334,-19.33333333333333,9.166666666666666,96.16666666666669,12.166666666666666,9.666666666666666,237.66666666666663,-1037.3333333333333,13.833333333333334,328.5,1012.2441666666668,-1.4228515,3182.333333333333,-0.0095797476666666,0.0036036599999999,-0.0170880766666666,0.0262682766666666,-1.1238473333333332,-0.0189267366666666,46080.0,29565.0,10190.0,8.0,52.0,-51.0,0,None
2022-12-21 08:32:28.850,244.1,0.0999999999999999,100.0,1182.0,24285.0,4901.0,99.0,1176.8,105.4,4886.0,-12.9653928,0.083105458,-0.01328613,-0.02010896,-1.170044,46.035,-0.003466774,-0.010698955,-1.1221405,0.5800578200000001,0.96494206,6.86768,-29.4,3.6,91.2,22.8,12.6,240.4,-1044.6,21.0,330.6,1012.253,-1.4140312000000002,3183.8,-0.003466774,0.0076317205,-0.010698955,0.0067330145,-1.1221405,0.01303265,46040.0,29571.0,10150.0,9.0,48.0,-49.0,0,None
2022-12-21 08:32:29.400,244.6508333333333,0.1001666666666665,100.0,1153.0,24261.5,4898.0,99.0,1150.0,107.16666666666669,4888.833333333333,-44.23702,0.0676842933333333,-0.0127388193333333,-0.02649413,-1.1680996666666668,46.00333333333334,-0.0030740176666666,-0.0175832833333333,-1.120405,0.55827385,0.95828055,7.088534,-30.0,-10.333333333333334,95.33333333333331,19.166666666666668,21.666666666666668,230.0,-1043.1666666666667,22.5,330.6666666666667,1012.2495,-1.4174998333333333,3185.333333333333,-0.0030740176666666,0.0279185963333333,-0.0175832833333333,-0.0084514866666666,-1.120405,0.0203039446666666,45995.0,29583.5,10105.0,9.5,44.5,-48.0,0,None
2022-12-21 08:32:29.950,245.205,0.1039999999999963,100.0,1164.0,24289.0,4893.0,99.0,1134.2,109.0,4888.0,-77.01475400000001,0.077092318,-0.0135156293333333,-0.02966286,-1.164897,45.96333333333333,-0.0044127086666666,-0.0207303499999999,-1.1176266666666663,0.58713422,0.91190768,7.371709,-16.0,14.4,91.2,-1.8,-10.6,229.2,-1031.8,-11.4,321.4,1012.2694,-1.3974997999999998,3187.0,-0.0044127086666666,0.002853029,-0.0207303499999999,0.0126564203333333,-1.1176266666666663,-0.0141782766666666,45930.0,29595.0,10040.0,6.0,38.0,-48.0,0,None
2022-12-21 08:32:30.500,245.7532,0.1122000000000013,100.0,1168.0,24267.0,4898.0,99.0,1198.6,110.8,4887.4,-95.799598,0.1020673659999999,-0.1066571533333333,-0.0243098266666666,-1.165687666666667,45.89333333333334,-0.0968847233333333,-0.01608546,-1.1178400000000002,0.5747448000000001,0.8403323800000001,6.4410366,-17.7,12.0,102.0,7.0,-244.2,238.3,-1037.7,14.8,323.8,1012.2734,-1.3935236,3188.6,-0.0968847233333333,-0.2893206666666666,-0.01608546,0.006471922,-1.1178400000000002,0.01700184,45870.0,29594.0,9980.0,19.0,3.0,-43.0,0,None
2022-12-21 08:32:31.050,246.2892,0.103800000000001,100.0,1334.0,24203.0,4887.0,99.0,1289.0,112.6,4892.2,-107.24628,0.1366101599999999,-0.2196945,-0.01950852,-1.163773,45.88,-0.2074340499999999,-0.011765809,-1.1160640000000002,0.56997966,0.8368250399999999,6.1611262,-45.4,20.2,151.0,30.4,-66.6,235.8,-1107.2,24.8,305.4,1012.2612,-1.4057811999999998,3189.6,-0.2074340499999999,-0.073397475,-0.011765809,0.0453060049999999,-1.1160640000000002,0.0051973246,45900.0,29626.0,10010.0,66.0,-91.0,-7.0,0,None
2022-12-21 08:32:31.600,246.85100000000003,0.099999999999999,100.0,1564.0,24106.0,4896.0,99.0,1563.3333333333333,114.66666666666669,4881.833333333333,-114.05073333333333,0.1727618333333333,-0.2123336666666666,-0.0182238433333333,-1.165177,46.126666666666665,-0.2000437333333333,-0.0126156693333333,-1.1165036666666666,0.5041987166666667,1.00820095,4.790304166666667,-64.5,-14.333333333333334,152.83333333333334,16.0,70.5,236.66666666666663,-1227.6666666666667,-9.833333333333334,292.8333333333333,1012.2231666666664,-1.4437758333333337,3191.5,-0.2000437333333333,0.0990547933333333,-0.0126156693333333,-0.0082592966666666,-1.1165036666666666,0.000149801,46260.0,29569.0,10370.0,118.0,-189.0,70.0,0,None
2022-12-21 08:32:32.150,247.413,0.104000000000002,100.0,1467.0,24163.0,4888.0,99.0,1423.0,117.0,4885.2,-118.43758,0.20743988,-0.1800263333333333,-0.04665201,-1.156219,46.96333333333333,-0.1711427666666666,-0.0413571733333333,-1.1072043333333332,0.5350262600000001,1.05900506,4.588974800000001,-51.6,-52.0,142.4,17.0,23.4,239.4,-1118.6,42.4,308.4,1012.155,-1.5123124,3193.0,-0.1711427666666666,0.0084300546666666,-0.0413571733333333,-0.0429919749999999,-1.1072043333333332,0.007554823,47080.0,29675.0,11190.0,154.0,-270.0,134.0,0,None
2022-12-21 08:32:32.700,247.971,0.099999999999999,100.0,1225.0,24213.0,4890.0,99.0,1356.3333333333333,119.16666666666669,4891.0,-121.1492,0.2412913833333333,-0.1863590666666666,-0.0941198833333333,-1.1447626666666668,48.09,-0.1794862333333333,-0.0889916666666666,-1.097226,0.59470325,0.9146944666666668,6.143843333333334,-69.66666666666667,-92.66666666666669,151.33333333333334,38.16666666666666,-17.166666666666668,217.3333333333333,-1052.1666666666667,30.5,301.0,1012.0095,-1.6575261666666663,3194.5,-0.1794862333333333,-0.0198676543333333,-0.0889916666666666,-0.1335602233333333,-1.097226,-8.2071666666667e-05,48020.0,29723.0,12130.0,171.0,-333.0,143.0,0,None
2022-12-21 08:32:33.250,248.537,0.104000000000002,100.0,1470.0,24114.0,4890.0,99.0,1393.0,121.4,4888.0,-123.03249999999998,0.27763418,-0.18336375,-0.1760461999999999,-1.141679,49.055,-0.17708085,-0.1710317,-1.0944495,0.66382822,0.8774689800000001,7.402725599999999,-100.0,-164.8,150.6,64.6,38.0,192.6,-1044.0,3.6,321.6,1011.841,-1.8259686,3195.8,-0.17708085,0.116834675,-0.1710317,-0.1565366,-1.0944495,0.0221146944999999,48990.0,29735.0,13100.0,165.0,-407.0,138.0,0,None
2022-12-21 08:32:33.800,249.0654,0.1039999999999963,100.0,1506.0,24073.0,4903.0,99.0,1517.0,123.6,4887.6,-124.35855999999998,0.3164448199999999,-0.1564828333333333,-0.2414866333333333,-1.1469143333333334,50.02666666666666,-0.1502062666666666,-0.2353553666666666,-1.100287,0.6874681199999999,0.96450022,7.3446738,-109.6,-51.7,149.6,79.3,40.0,162.9,-1038.3,1.6,353.5,1011.6598,-2.0071719,3197.6,-0.1502062666666666,0.05547543,-0.2353553666666666,-0.0458514966666666,-1.100287,0.0051518026666666,49960.0,29703.0,14070.0,115.0,-483.0,134.0,0,None
2022-12-21 08:32:34.350,249.5698,0.1002000000000009,100.0,1417.0,24147.0,4895.0,99.0,1450.2,125.6,4896.6,-125.54134,0.3594214600000001,-0.1497056,-0.2541609999999999,-1.1485805,50.985,-0.1418230999999999,-0.24944135,-1.1029585,0.6859377,1.1284282,7.8442104,-121.2,-1.2,146.8,82.4,9.6,155.2,-1068.6,18.6,350.8,1011.5252,-2.1417188,3198.8,-0.1418230999999999,0.055898105,-0.24944135,0.0078985399999999,-1.1029585,0.0303214999999999,50920.0,29667.0,15030.0,46.0,-547.0,129.0,0,None
2022-12-21 08:32:34.900,250.1351666666667,0.1065000000000016,100.0,1345.0,24160.0,4897.0,99.0,1361.6666666666667,127.83333333333331,4894.0,-126.94451666666669,0.4170225,-0.1532577,-0.2014183,-1.143943,51.95333333333334,-0.1457550333333333,-0.1986378666666666,-1.0994616666666668,0.6704932499999999,1.1018929166666669,8.213464,-121.5,252.0,148.66666666666666,93.66666666666669,27.83333333333333,168.16666666666666,-1041.0,13.166666666666666,347.1666666666667,1011.404,-2.2627735,3200.333333333333,-0.1457550333333333,0.0316690366666666,-0.1986378666666666,0.2385254599999999,-1.0994616666666668,0.0023304633333333,51870.0,29711.0,15980.0,-19.0,-608.0,129.0,0,None
2022-12-21 08:32:35.450,250.709,0.1039999999999963,100.0,1146.0,24237.0,4901.0,99.0,1034.6,129.6,4895.4,-127.89114,0.4711166999999999,-0.07652002,-0.0327877646666666,-1.1451143333333331,53.11000000000001,-0.0692937866666666,-0.032954844,-1.1025793333333336,0.8120478600000001,1.0337745,7.122336,-115.4,181.4,134.4,75.4,175.6,224.2,-1015.8,3.2,341.8,1011.4622,-2.2048282,3201.6,-0.0692937866666666,0.1562357666666666,-0.032954844,0.1628668966666666,-1.1025793333333336,0.0159120619999999,52870.0,29684.0,16980.0,-34.0,-628.0,132.0,0,None
2022-12-21 08:32:36.000,251.225,0.0999999999999999,100.0,1482.0,24111.0,4893.0,99.0,1271.6,131.4,4891.4,-128.25642,0.52122562,-0.0409241699999999,-0.00172184675,-1.1452485,53.895,-0.035768755,-0.00032360295,-1.103862,0.7636248200000001,1.00945264,9.7378212,-104.8,8.6,110.2,74.8,27.8,239.2,-1046.0,2.4,318.0,1011.3516000000002,-2.3154218,3203.2,-0.035768755,0.01264225,-0.00032360295,-0.019536231,-1.103862,0.0100548,53690.0,29677.0,17800.0,-15.0,-591.0,133.0,0,None
2022-12-21 08:32:36.550,251.775,0.099999999999999,100.0,1325.0,24165.0,4895.0,99.0,1316.0,133.16666666666666,4887.833333333333,-128.15165000000002,0.5571594333333333,0.002204579,-0.0022753093333333,-1.1387349999999998,54.67333333333334,0.007820883,-0.0013981245,-1.0981496666666666,0.6712675833333334,0.9678095833333332,9.738293,-107.16666666666669,-19.666666666666668,102.5,80.16666666666667,102.5,228.8333333333333,-1036.8333333333333,12.333333333333334,313.8333333333333,1011.1811666666669,-2.4860156666666664,3204.333333333333,0.007820883,0.0988840733333333,-0.0013981245,0.006689699,-1.0981496666666666,0.0224410863333333,54450.0,29698.0,18560.0,6.0,-539.0,138.0,0,None
2022-12-21 08:32:37.100,252.33,0.1042000000000029,100.0,1228.0,24197.0,4901.0,99.0,1270.4,135.4,4889.2,-128.3068,0.5756159,0.0447517266666666,-0.0245869,-1.135279,55.723333333333336,0.0505963066666666,-0.0207065333333333,-1.0956116666666669,0.6037380800000001,0.97113644,10.5557804,-76.0,-17.6,92.6,64.8,54.2,230.8,-1109.6,-6.4,325.6,1011.09,-2.5772652000000003,3206.0,0.0505963066666666,0.04041714,-0.0207065333333333,-0.0110433666666666,-1.0956116666666669,0.0041025013333333,55290.0,29721.0,19400.0,20.0,-475.0,142.0,0,None
2022-12-21 08:32:37.650,252.89183333333327,0.099999999999999,100.0,1275.0,24153.0,4901.0,99.0,1302.0,137.16666666666666,4888.333333333333,-128.81206666666665,0.5845267333333334,0.0645094633333333,-0.0254818966666666,-1.144295,56.78666666666666,0.0702513633333333,-0.01910529,-1.1046686666666663,0.6035546333333334,0.8939057,9.179750333333333,-66.0,36.16666666666666,77.16666666666667,51.833333333333336,35.0,218.0,-1077.0,-35.166666666666664,310.8333333333333,1010.9786666666668,-2.6883725,3207.5,0.0702513633333333,0.03076502,-0.01910529,0.016670228,-1.1046686666666663,0.0036289498333333,56625.0,29682.5,20735.0,15.0,-378.0,145.5,0,None
2022-12-21 08:32:38.200,253.458,0.1079999999999983,100.0,1238.0,24200.0,4898.0,99.0,1277.0,139.4,4892.0,-129.34326,0.59210006,0.07658696,-0.0133054724999999,-1.1491555,57.68,0.08323614,-0.00557922342,-1.108785,0.59064634,0.93231168,7.175730199999999,-43.7,9.4,-220.55000000000004,30.9,-3.8,232.0,-1032.7,-4.1,346.1,1010.9011,-2.7659062,3208.8,0.08323614,0.027663975,-0.00557922342,0.04899228,-1.108785,-0.02606844,57970.0,29651.0,22080.0,10.0,-280.0,145.0,1,27_xmag_avg_abrupt_-286.95000000000005
2022-12-21 08:32:38.750,254.01866666666663,0.0966666666666687,100.0,1438.0,24088.0,4901.0,99.0,1550.5,141.83333333333334,4887.666666666667,-129.89346666666668,0.59874205,-0.0582050566666666,-0.018303529,-1.1529606666666667,58.50333333333333,-0.0487542533333333,-0.009883878,-1.1115443333333337,0.5793494333333333,1.0964630666666666,7.084649166666666,-26.0,18.5,-186.28333333333336,57.66666666666666,-420.1666666666667,235.8333333333333,-1067.6666666666667,-13.166666666666666,309.5,1010.8541666666666,-2.812955833333333,3210.5,-0.0487542533333333,-0.3887536,-0.009883878,-0.0021646,-1.1115443333333337,-0.016891952,58740.0,29608.0,22850.0,30.0,-270.0,146.0,1,27_xmag_avg_abrupt_-286.95000000000005
2022-12-21 08:32:39.300,254.582,0.104000000000002,100.0,1593.0,24013.0,4883.0,99.0,1652.6,144.2,4888.6,-130.7269,0.60331432,-0.2044452333333333,-0.004229782,-1.1592723333333332,59.47,-0.1903856666666666,0.0038308533333333,-1.1183706666666666,0.4654955800000001,1.1114189,5.1411804000000005,-45.4,13.8,-137.75000000000006,44.8,34.4,234.6,-1063.4,-18.4,281.2,1010.7438000000002,-2.9232812000000004,3211.8,-0.1903856666666666,0.0367648933333333,0.0038308533333333,0.0125410443333333,-1.1183706666666666,-0.0071743133333333,59560.0,29597.0,23670.0,99.0,-344.0,157.0,1,27_xmag_avg_abrupt_-286.95000000000005
2022-12-21 08:32:39.850,255.102,0.1039999999999963,100.0,1655.0,23999.0,4883.0,99.0,1643.8,146.6,4891.8,-131.50722000000002,0.6059108,-0.15796995,-0.0076046325,-1.1636825,60.38,-0.1457767,-0.0017093915,-1.1234485,0.4892401999999999,1.11311368,4.2618164,-60.8,-25.6,-141.35000000000005,25.4,109.6,246.6,-1084.8,-25.4,304.0,1010.6228,-3.0442030000000004,3213.2,-0.1457767,0.12141405,-0.0017093915,-0.03277373,-1.1234485,-0.018567499,60480.0,29554.0,24590.0,158.0,-408.0,165.0,1,27_xmag_avg_abrupt_-286.95000000000005
2022-12-21 08:32:40.400,255.67200000000005,0.103333333333334,100.0,1554.0,24039.0,4900.5,99.0,1556.1666666666667,149.0,4884.166666666667,-132.44609999999997,0.6106797333333333,-0.1124462,-0.0088550326666666,-1.158118,61.333333333333336,-0.10353922,-0.0037150126666666,-1.1196326666666667,0.51033505,1.2559035,5.254158666666666,-69.66666666666667,26.83333333333333,-160.61666666666673,46.5,42.5,226.3333333333333,-1040.1666666666667,7.166666666666667,295.3333333333333,1010.4163333333332,-3.250586,3214.833333333333,-0.10353922,0.08044955,-0.0037150126666666,0.0295577573333333,-1.1196326666666667,0.0251621506666666,61440.0,29596.0,25550.0,198.0,-441.0,173.0,1,27_xmag_avg_abrupt_-286.95000000000005
2022-12-21 08:32:41.500,256.748,0.1001999999999952,100.0,1320.0,24149.0,4887.0,99.0,1437.2,153.2,4885.6,-134.07783999999998,0.62472716,-0.068659425,-0.02031782,-1.1442445,63.585,-0.062886645,-0.01336597,-1.1110815,0.58764792,1.1123151999999998,7.362351800000001,-65.8,-9.0,-152.15000000000003,28.0,287.4,227.0,-1020.0,-2.2,312.0,1010.1196,-3.547406,3217.0,-0.062886645,0.39980215,-0.01336597,-0.0336589044999999,-1.1110815,0.0044651599999999,63500.0,29635.0,27610.0,263.0,-483.0,154.0,1,27_xmag_avg_abrupt_-286.95000000000005
2022-12-21 08:32:42.050,257.29466666666667,0.0998333333333315,100.0,1132.0,24194.0,4891.0,99.0,1090.8333333333333,155.16666666666666,4884.166666666667,-134.92286666666666,0.6353543333333334,0.07533945,-0.0395133933333333,-1.1437793333333333,64.59333333333333,0.0774578133333333,-0.0318404466666666,-1.1118106666666665,0.71515305,0.90199695,7.258538833333333,-57.5,-25.666666666666668,-201.11666666666673,38.0,161.83333333333334,239.8333333333333,-1015.1666666666666,-5.0,358.3333333333333,1010.0621666666668,-3.6048306666666665,3218.6666666666665,0.0774578133333333,0.1567777433333333,-0.0318404466666666,-0.037200739,-1.1118106666666665,-0.0045666645333333,64520.0,29639.0,28630.0,259.0,-451.0,152.0,1,27_xmag_avg_abrupt_-286.95000000000005
2022-12-21 08:32:42.600,257.8442,0.0999999999999999,100.0,1012.0,24253.0,4896.0,99.0,983.4,156.6,4887.6,-135.91714,0.64756264,0.09128792,-0.0464356933333333,-1.1527066666666668,65.55,0.09232443,-0.0390413433333333,-1.121936,0.96429324,1.09773416,5.365620799999999,-61.2,6.2,-216.35000000000005,19.4,-15.6,229.0,-906.6,-17.6,349.2,1009.964,-3.703031,3220.0,0.09232443,-0.0272277533333333,-0.0390413433333333,0.01029807,-1.121936,-0.0253431666666666,65390.0,29575.0,29500.0,228.0,-389.0,110.0,1,27_xmag_avg_abrupt_-286.95000000000005
2022-12-21 08:32:43.150,258.3943333333333,0.1000000000000037,100.0,983.0,24260.0,4893.0,99.0,919.1666666666666,158.0,4881.833333333333,-137.02278333333334,0.6612640000000001,0.1030709566666666,-0.0404821066666666,-1.1583403333333333,65.94,0.1074608666666666,-0.03386017,-1.1269756666666666,1.0607329666666667,1.1615167833333333,4.800988333333334,-38.0,12.5,-222.28333333333336,-22.33333333333333,61.333333333333336,230.16666666666663,-916.6666666666666,-21.666666666666668,347.5,1009.9306666666668,-3.7364581666666665,3221.5,0.1074608666666666,0.1044093433333333,-0.03386017,0.0463882366666666,-1.1269756666666666,-0.03516053,65890.0,29562.0,30000.0,200.0,-336.0,29.0,1,27_xmag_avg_abrupt_-286.95000000000005
2022-12-21 08:32:43.700,258.9444,0.0999999999999999,100.0,1127.0,24201.0,4888.0,99.0,1130.2,159.6,4884.4,-138.20911999999998,0.6766464799999999,0.1361727,-0.031995355,-1.1666525,65.92,0.1408308,-0.024102655,-1.1346105,0.85670688,1.2702998,7.597772999999999,-26.4,29.2,-235.95000000000005,19.6,44.8,217.6,-1025.0,-4.6,335.6,1009.8782,-3.788937400000001,3223.0,0.1408308,0.027916455,-0.024102655,0.06297278,-1.1346105,-0.02222547,65950.0,29516.0,30060.0,168.0,-281.0,-25.0,1,27_xmag_avg_abrupt_-286.95000000000005
2022-12-21 08:32:44.250,259.4943333333333,0.1001666666666664,100.0,1169.0,24184.0,4900.0,98.83333333333331,1177.1666666666667,161.5,4890.333333333333,-139.35849999999996,0.6934193333333333,0.1182709,-0.0192082866666666,-1.169513,65.91333333333334,0.1239780333333333,-0.0117238286666666,-1.1372433333333334,0.6673321,1.086193,7.629271166666666,-43.66666666666666,-4.5,-234.7833333333334,31.666666666666668,-40.333333333333336,239.66666666666663,-1050.1666666666667,-3.0,344.0,1009.8698333333332,-3.797122333333333,3224.5,0.1239780333333333,-0.0449680196,-0.0117238286666666,-0.0040058046666666,-1.1372433333333334,-0.0125902156666666,65915.0,29480.5,30025.0,120.0,-178.0,-32.0,1,27_xmag_avg_abrupt_-286.95000000000005
2022-12-21 08:32:44.800,260.0442,0.0999999999999999,100.0,1166.0,24205.0,4895.0,98.0,1186.4,163.4,4889.8,-140.44732,0.70984428,0.1061233666666666,-0.0321065833333333,-1.170567,65.94999666666666,0.1141682666666666,-0.0244703833333333,-1.1370976666666666,0.6160458400000001,0.99373428,7.4301962,-36.0,-4.4,-232.75000000000006,38.2,0.0,232.8,-1027.4,8.0,344.2,1009.8784,-3.7887656,3225.6,0.1141682666666666,0.0028909766666666,-0.0244703833333333,-0.0039926519666666,-1.1370976666666666,0.0245080166666666,65960.0,29499.0,30070.0,80.0,-92.0,-35.0,1,27_xmag_avg_abrupt_-286.95000000000005
2022-12-21 08:32:45.350,260.5941666666667,0.0998333333333315,100.0,1076.0,24243.0,4896.0,98.0,1053.3333333333333,165.0,4889.666666666667,-141.4017,0.7250876333333333,0.1119328,-0.0328570433333333,-1.1616346666666668,65.87333000000001,0.1205347333333333,-0.0245464,-1.1266360000000002,0.6704648500000001,0.9129020333333332,6.129598333333334,-22.83333333333333,6.166666666666667,-229.95000000000005,28.666666666666668,26.83333333333333,228.5,-971.1666666666666,21.5,342.6666666666667,1009.8935,-3.7733985,3226.833333333333,0.1205347333333333,0.0391173333333333,-0.0245464,0.01612907,-1.1266360000000002,0.0209463926666666,65870.0,29549.0,29980.0,55.0,-46.0,-69.0,1,27_xmag_avg_abrupt_-286.95000000000005
2022-12-21 08:32:45.900,261.172,0.1081999999999993,100.0,921.5,24293.0,4899.5,98.0,872.0,166.4,4895.6,-142.39690000000002,0.7413091399999999,0.1018405699999999,-0.029097415,-1.151395,65.485,0.1101615,-0.02112959,-1.115445,0.92728192,1.06775386,5.0269664,0.0,28.6,-225.55000000000004,22.4,-62.7,238.2,-900.2,8.5,355.3,1009.9243,-3.7428278,3228.3,0.1101615,-0.04651542,-0.02112959,0.039422347,-1.115445,0.0126642,65410.0,29617.0,29520.0,36.0,-7.0,-158.0,1,27_xmag_avg_abrupt_-286.95000000000005
2022-12-21 08:32:46.450,261.6882,0.103800000000001,100.0,1561.0,24043.0,4901.0,98.0,1133.2,168.0,4892.2,-143.40852,0.75671984,0.0766761666666666,-0.0053898359999999,-1.1535653333333336,64.64333333333333,0.0856901633333333,0.0025502326666666,-1.117509,0.7748652400000001,1.1869904,8.3953206,-9.0,68.0,-220.15000000000003,23.4,-20.0,233.2,-1002.6,-16.2,324.8,1009.9836,-3.6834218,3229.8,0.0856901633333333,-0.0168278899999999,0.0025502326666666,0.0621500766666666,-1.117509,-0.0180793983333333,64530.0,29587.0,28640.0,24.0,21.0,-225.0,1,27_xmag_avg_abrupt_-286.95000000000005
2022-12-21 08:32:47.000,262.2606666666666,0.103333333333334,100.0,1502.0,24059.0,4900.0,98.0,1466.8333333333333,170.16666666666666,4886.0,-144.48173333333332,0.7703839666666666,0.0501508866666666,-0.0216939766666666,-1.1627013333333334,63.78333333333333,0.0592238833333333,-0.0127878526666666,-1.1250093333333333,0.5428660666666666,1.2512363333333332,13.159954999999998,-3.5,-81.83333333333333,-225.6166666666667,14.166666666666666,-49.66666666666666,237.16666666666663,-1223.1666666666667,-14.0,322.1666666666667,1010.0585,-3.608593833333333,3231.1666666666665,0.0592238833333333,-0.0771539766666666,-0.0127878526666666,-0.1088340733333333,-1.1250093333333333,-0.0166535433333333,63790.0,29552.0,27900.0,21.0,56.0,-158.0,1,27_xmag_avg_abrupt_-286.95000000000005
2022-12-21 08:32:47.550,262.824,0.0999999999999999,100.0,1249.0,24144.0,4896.0,98.0,1287.0,172.4,4888.6,-145.76238,0.7815961999999999,0.02319194,-0.068434385,-1.162613,63.54,0.03331454,-0.059950815,-1.124666,0.4176253,1.1459754,10.1670876,-3.2,-65.4,-207.15000000000003,15.6,-16.2,226.4,-1158.2,16.2,336.2,1010.1128,-3.554125,3232.4,0.03331454,-0.010497053,-0.059950815,-0.073847495,-1.124666,0.0237961849999999,63540.0,29548.0,27650.0,9.0,66.0,-69.0,1,27_xmag_avg_abrupt_-286.95000000000005
2022-12-21 08:32:48.100,263.37466666666666,0.1001666666666664,100.0,1101.0,24195.0,4883.0,98.0,1108.3333333333333,174.16666666666666,4893.333333333333,-147.13625,0.7928196333333334,0.0158259466666666,-0.06871255,-1.1496063333333335,63.54333333333333,0.02550819,-0.0592910033333333,-1.111811,0.5129901166666667,1.071094166666667,7.727161833333334,4.333333333333333,47.66666666666666,-196.61666666666673,12.666666666666666,-2.0,216.66666666666663,-1049.0,19.166666666666668,333.5,1010.1481666666664,-3.518841,3233.833333333333,0.02550819,-0.0061137756666666,-0.0592910033333333,0.0341419953333333,-1.111811,0.0230583466666666,63530.0,29629.0,27640.0,-10.0,55.0,-38.0,1,27_xmag_avg_abrupt_-286.95000000000005
2022-12-21 08:32:48.650,263.925,0.0999999999999999,100.0,1090.0,24209.0,4901.0,98.0,1129.0,175.6,4895.0,-148.53528,0.8060946400000001,0.0187264766666666,-0.0359863466666666,-1.1394753333333334,63.57666666666668,0.0274729366666666,-0.02743561,-1.1032363333333333,0.5029697,1.16807816,8.171090600000001,6.8,55.2,-196.15000000000003,29.4,11.8,216.8,-1030.2,16.0,336.6,1010.1094,-3.5574842,3235.0,0.0274729366666666,-0.0060045433333333,-0.02743561,0.0550892433333333,-1.1032363333333333,-0.001163924,63570.0,29676.0,27680.0,-21.0,45.0,-42.0,1,27_xmag_avg_abrupt_-286.95000000000005
2022-12-21 08:32:49.200,264.475,0.1000000000000037,100.0,1139.0,24191.0,4879.0,98.0,1079.5,177.5,4887.666666666667,-149.92209999999997,0.8206859999999999,0.02103293,-0.0271418966666666,-1.13422,63.57666666666668,0.0297496899999999,-0.0196541933333333,-1.098469,0.5630145166666666,1.1047858166666666,6.635296,1.5,1.8333333333333333,-202.78333333333336,25.666666666666668,7.5,222.5,-1013.5,0.1666666666666666,327.6666666666667,1010.103,-3.564153333333333,3236.333333333333,0.0297496899999999,0.0293480466666666,-0.0196541933333333,0.0088841433333333,-1.098469,-0.0011211433333333,63590.0,29697.0,27700.0,-18.0,42.0,-49.0,1,27_xmag_avg_abrupt_-286.95000000000005
2022-12-21 08:32:49.750,265.041,0.1039999999999963,100.0,874.0,24290.0,4896.0,98.0,895.0,178.8,4889.0,-151.25112,0.83504096,0.01544223,-0.029579,-1.133494,63.415,0.02263422,-0.02170012,-1.098315,0.5950615600000001,0.90783172,5.6124734,1.2,5.8,-196.55000000000004,32.6,-20.6,233.8,-949.0,5.2,339.2,1010.1184,-3.54875,3237.6,0.02263422,-0.0496847115,-0.02170012,0.0069116925,-1.098315,-0.0143258,63540.0,29711.0,27650.0,-14.0,39.0,-63.0,1,27_xmag_avg_abrupt_-286.95000000000005
2022-12-21 08:32:50.300,265.5614,0.1042000000000029,100.0,2147.0,23804.0,4895.0,98.0,1498.8,180.8,4887.2,-152.29528,0.84696496,0.0262177633333333,-0.0128513498333333,-1.1369943333333334,63.14666666666667,0.0340031733333333,-0.005297064,-1.1030870000000002,0.47772048,1.2202524,8.6620246,6.9,-28.9,-199.35000000000005,29.2,23.7,229.1,-1168.4,-9.2,312.6,1010.1422,-3.5247341,3239.2,0.0340031733333333,0.04469865,-0.005297064,-0.00542972,-1.1030870000000002,-0.0311747943333333,63230.0,29718.0,27340.0,-11.0,35.0,-90.0,1,27_xmag_avg_abrupt_-286.95000000000005
2022-12-21 08:32:50.850,266.0858,0.1039999999999963,100.0,1092.0,24209.0,4891.0,98.0,1086.4,182.6,4884.4,-153.54070000000002,0.86060128,0.025644415,-0.0389143599999999,-1.1494035,63.145,0.033827775,-0.031327955,-1.1165919999999998,0.48643948,1.1611518,6.780308,1.0,-15.2,-200.35000000000005,19.0,-23.4,227.8,-1023.2,-8.2,337.6,1010.1486,-3.5184216,3240.4,0.033827775,-0.040348625,-0.031327955,-0.0127023255,-1.1165919999999998,-0.00379513295,63100.0,29639.0,27210.0,-7.0,46.0,-37.0,1,27_xmag_avg_abrupt_-286.95000000000005
2022-12-21 08:32:51.400,266.65933333333334,0.1066666666666643,100.0,1127.5,24194.0,4891.0,98.0,1130.0,184.5,4882.666666666667,-154.7028333333333,0.8722378333333333,0.0077466633333333,-0.03635968,-1.145811,63.21666666666667,0.0160351966666666,-0.0285631133333333,-1.1145466666666666,0.5171045666666667,0.9058950166666668,5.902964333333333,0.0,28.166666666666668,-193.45000000000005,16.666666666666668,-22.666666666666668,232.5,-1024.1666666666667,4.5,332.5,1010.1583333333332,-3.5087238333333333,3241.5,0.0160351966666666,0.0061135253333333,-0.0285631133333333,0.0415613833333333,-1.1145466666666666,0.0008902266666666,63215.0,29617.0,27325.0,-13.0,43.5,-42.5,1,27_xmag_avg_abrupt_-286.95000000000005
2022-12-21 08:32:51.950,267.23,0.1040000000000076,100.0,1125.0,24194.0,4890.0,98.0,1138.8,186.4,4884.6,-155.82207999999997,0.8844593599999999,-0.0002605696666666,-0.0155417303333333,-1.1384623333333332,63.23,0.0081562983333333,-0.0079526074333333,-1.1088783333333334,0.52663684,1.1909822,6.7312724,6.6,48.4,-191.55000000000004,3.6,21.8,229.6,-1045.6,5.4,317.0,1010.1508,-3.5160310000000004,3243.0,0.0081562983333333,0.0408039866666666,-0.0079526074333333,0.04659686,-1.1088783333333334,0.014670398,63230.0,29650.0,27340.0,-5.0,33.0,-48.0,1,27_xmag_avg_abrupt_-286.95000000000005
2022-12-21 08:32:52.500,267.74979999999994,0.1039999999999963,100.0,922.0,24275.0,4888.0,98.0,1014.2,187.6,4889.2,-156.69312,0.8952162400000001,-0.00031067,-0.01942556,-1.1348875,63.155,0.007949945,-0.011312746,-1.1065805000000002,0.5285818600000001,1.07338744,7.597212399999999,-3.2,-17.6,-186.35000000000005,14.4,-15.4,239.9,-988.8,-10.1,336.0,1010.1651,-3.5021719000000004,3244.1,0.007949945,-0.001469288,-0.011312746,-0.0247737745,-1.1065805000000002,0.0044159329,63090.0,29665.0,27200.0,1.0,27.0,-74.0,1,27_xmag_avg_abrupt_-286.95000000000005
2022-12-21 08:32:53.050,268.274,0.1039999999999963,100.0,1194.0,24169.0,4887.0,98.0,1114.2,189.4,4896.0,-157.59936,0.90710968,-0.0019864456666666,-0.0100801503333333,-1.1368843333333334,62.900000000000006,0.0060702503333333,-0.0027298903666666,-1.1100386666666664,0.57811166,0.98134644,7.0115978,-2.0,31.0,-185.55000000000004,20.8,54.6,240.4,-1031.0,-16.0,327.0,1010.1762,-3.4907968,3246.0,0.0060702503333333,0.02575137,-0.0027298903666666,0.0308479,-1.1100386666666664,-0.006360818,62810.0,29629.0,26920.0,11.0,21.0,-81.0,1,27_xmag_avg_abrupt_-286.95000000000005
2022-12-21 08:32:53.600,268.84583333333336,0.103333333333334,100.0,963.0,24242.0,4900.0,98.0,1058.0,191.16666666666663,4895.5,-158.44656666666666,0.9186194333333332,0.0005716253333333,-0.0115285966666666,-1.1423776666666667,62.52,0.008543209,-0.003215081,-1.1172706666666667,0.50847055,1.1286397,7.6633675,-3.8333333333333335,-7.333333333333333,-192.78333333333336,9.0,-12.333333333333334,239.0,-999.0,-8.0,325.1666666666667,1010.1896666666668,-3.477213666666666,3247.0,0.008543209,-0.0171535766666666,-0.003215081,-0.0068023703333333,-1.1172706666666667,0.00809822,62480.0,29595.0,26590.0,20.0,20.0,-97.0,1,27_xmag_avg_abrupt_-286.95000000000005
2022-12-21 08:32:54.150,269.418,0.1039999999999963,100.0,1205.0,24165.0,4888.0,98.0,1125.4,192.6,4897.0,-159.1531,0.9270815,-0.0043228545,-0.020798155,-1.1393895,62.15,0.004322148,-0.0126891125,-1.115076,0.5175140600000001,1.2985166,8.4595448,-2.8,-18.2,94.8,1.8,25.0,243.2,-1062.0,5.2,322.4,1010.223,-3.4439842,3248.2,0.004322148,0.01004408,-0.0126891125,-0.0269185399999999,-1.115076,0.0054143599999999,62090.0,29612.0,26200.0,28.0,15.0,-106.0,0,None
2022-12-21 08:32:54.700,269.938,0.1040000000000077,100.0,1282.0,24113.0,4901.0,98.0,1242.2,194.4,4892.2,-159.69374000000002,0.93278226,0.015441768,-0.0278529233333333,-1.1304773333333331,61.79333333333333,0.0237623766666666,-0.0197014366666666,-1.107226,0.4924741600000001,1.13544806,6.6840586,10.6,2.2,92.0,27.4,24.2,230.8,-1099.8,30.6,329.4,1010.2442,-3.4227967999999995,3249.6,0.0237623766666666,0.01230404,-0.0197014366666666,-0.0016254133333333,-1.107226,0.0151067926666666,61750.0,29662.0,25860.0,27.0,13.0,-87.0,0,None
2022-12-21 08:32:55.250,270.50933333333336,0.103333333333334,100.0,1153.0,24182.0,4890.0,98.0,1197.5,196.5,4896.0,-160.28283333333334,0.9388412,0.0235366233333333,-0.0355826033333333,-1.1180513333333335,61.64333333333334,0.0324636633333333,-0.0273973933333333,-1.0963393333333336,0.4721604666666667,1.2278574999999998,6.616824833333333,9.666666666666666,-11.583333333333334,91.16666666666669,10.416666666666666,12.166666666666666,227.8333333333333,-1047.4166666666667,27.83333333333333,325.1666666666667,1010.2645,-3.402499666666666,3251.0,0.0324636633333333,0.0030515926666666,-0.0273973933333333,-0.04119443,-1.0963393333333336,0.0008716066666666,61640.0,29720.0,25750.0,27.0,14.0,-41.0,0,None
2022-12-21 08:32:55.800,271.086,0.1039999999999963,100.0,965.0,24221.0,4903.0,98.0,1047.8,198.2,4895.8,-160.96536,0.94650444,0.03690064,-0.039330125,-1.1190145,61.72,0.0453368799999999,-0.03128895,-1.097877,0.56313732,1.0710339,7.732805600000001,10.8,1.8,83.2,13.4,37.0,226.2,-981.0,-26.6,327.4,1010.2568,-3.4102656,3252.0,0.0453368799999999,-0.001880695,-0.03128895,0.028370535,-1.097877,-0.026166665,61720.0,29711.0,25830.0,20.0,14.0,-46.0,0,None
2022-12-21 08:32:56.350,271.607,0.1042000000000029,100.0,1073.0,24175.0,4888.0,98.0,1134.0,199.6,4894.6,-161.56286,0.9542206400000002,0.0471226833333333,-0.0385489233333333,-1.1270526666666667,61.75,0.0572352833333333,-0.0311270766666666,-1.1062273333333332,0.5653803400000001,1.0661980999999998,6.584624,8.6,34.2,80.4,18.4,29.4,229.8,-1004.0,-0.6,339.4,1010.2378,-3.4292346,3253.6,0.0572352833333333,0.0076768826666666,-0.0311270766666666,0.038193706,-1.1062273333333332,-0.0052941443333333,61750.0,29662.0,25860.0,13.0,22.0,-61.0,0,None
2022-12-21 08:32:56.900,272.127,0.1039999999999963,100.0,1071.0,24218.0,4904.0,98.0,1159.4,201.4,4896.4,-162.17378,0.96315292,0.03099782,-0.038451495,-1.130393,61.74,0.0404832,-0.03063586,-1.111063,0.52736032,1.2533768,6.5080878,5.8,6.2,81.0,21.2,-33.8,227.6,-1015.0,-11.8,331.8,1010.2472,-3.4196406,3254.4,0.0404832,-0.0222641399999999,-0.03063586,0.0300147549999999,-1.111063,-0.0028755749999999,61730.0,29632.0,25840.0,5.0,31.0,-66.0,0,None
2022-12-21 08:32:57.450,272.69716666666665,0.1034999999999967,100.0,1165.0,24166.0,4896.0,98.0,1151.3333333333333,203.16666666666663,4892.0,-162.95273333333333,0.9749072,0.0228211733333333,-0.0332264366666666,-1.1304926666666668,61.66666666666666,0.03358771,-0.02572278,-1.1113376666666666,0.51787925,1.1486299000000002,7.098823833333334,3.5,-11.666666666666666,85.66666666666667,28.166666666666668,-10.833333333333334,222.8333333333333,-1059.5,-12.5,333.3333333333333,1010.2718333333332,-3.3953515,3255.833333333333,0.03358771,-0.0066871606666666,-0.02572278,-0.01327635,-1.1113376666666666,-0.0087611093333333,61670.0,29635.0,25780.0,5.0,36.0,-62.0,0,None
2022-12-21 08:32:58.000,273.2472,0.0999999999999999,100.0,1220.0,24114.0,4906.0,98.0,1153.0,205.0,4896.2,-163.75678000000002,0.98742228,0.02024679,-0.0345251333333333,-1.134246,61.54333333333333,0.03134599,-0.0277152733333333,-1.116475,0.51937944,1.1779262,8.592761,1.4,18.8,88.2,17.4,-2.8,222.0,-1033.0,-6.0,333.4,1010.2782,-3.3887656,3257.0,0.03134599,0.0020420406666666,-0.0277152733333333,0.01170809,-1.116475,-0.0014959066666666,61560.0,29611.0,25670.0,4.0,39.0,-59.0,0,None
2022-12-21 08:32:58.550,273.79733333333337,0.0998333333333409,100.0,1215.0,24096.0,4885.0,98.0,1192.3333333333333,206.8333333333333,4893.5,-164.52538333333334,0.9998499333333334,0.007125472,-0.04203293,-1.1316013333333337,61.44,0.0180913566666666,-0.0358028466666666,-1.1140436666666669,0.5166900166666667,1.1141839666666666,6.975873333333333,-0.6666666666666666,2.1666666666666665,89.5,29.0,-9.666666666666666,228.5,-1058.1666666666667,10.0,336.3333333333333,1010.269,-3.398229,3258.1666666666665,0.0180913566666666,-0.0037591359999999,-0.0358028466666666,-0.0058723863333333,-1.1140436666666669,0.0097744146666666,61480.0,29600.0,25590.0,1.0,43.0,-50.0,0,None
2022-12-21 08:32:59.100,274.34720000000004,0.1001999999999952,100.0,1210.0,24131.0,4893.0,98.0,1181.6,208.6,4890.6,-165.25572000000005,1.012695,-0.0024640039999999,-0.0486556999999999,-1.1254955,61.38,0.008465248,-0.04160039,-1.1085265,0.54892376,1.1418309399999995,5.9271970000000005,-3.6,-5.8,91.2,51.0,-29.8,223.4,-1033.6,10.4,325.8,1010.2818,-3.3851406,3259.6,0.008465248,-0.03166747,-0.04160039,0.01586968,-1.1085265,-0.01084889,61390.0,29649.0,25500.0,2.0,43.0,-52.0,0,None
2022-12-21 08:32:59.650,274.908,0.103333333333334,100.0,1204.0,24125.0,4895.0,98.0,1191.6666666666667,210.5,4891.666666666667,-165.91893333333334,1.027143,-0.0170105666666666,-0.0459393799999999,-1.1283793333333334,61.31666666666666,-0.005761749,-0.03948784,-1.1114763333333333,0.5166902999999999,1.0816764666666665,6.213553166666667,-3.5,2.083333333333333,99.75,27.416666666666668,33.25,227.0833333333333,-1041.6666666666667,-12.75,339.25,1010.2778333333334,-3.389309916666667,3261.0,-0.005761749,0.0355566613333333,-0.03948784,0.0143252963333333,-1.1114763333333333,-0.0112265666666666,61315.0,29631.5,25425.0,5.0,29.0,-50.5,0,None
2022-12-21 08:33:00.200,275.47200000000004,0.0999999999999999,100.0,1292.0,24086.0,4901.0,98.0,1239.6,212.6,4893.0,-166.47408,1.0439681999999997,0.0090318763333333,-0.0531453533333333,-1.1373126666666666,61.223333333333336,0.01991623,-0.0471443666666666,-1.1207056666666666,0.50048954,1.0792681,5.1459102,-24.2,-3.4,88.4,40.8,25.8,225.2,-1057.8,-16.6,335.0,1010.2856,-3.3815468,3262.6,0.01991623,0.0419347666666666,-0.0471443666666666,-0.015057375,-1.1207056666666666,-0.0068387786333333,61220.0,29559.0,25330.0,4.0,25.0,-49.0,0,None
2022-12-21 08:33:00.750,275.98400000000004,0.1039999999999963,100.0,1278.0,24114.0,4903.0,98.0,1244.0,214.2,4894.2,-166.84508,1.059649,-0.0011738505,-0.047418155,-1.1411875,61.155,0.0093937875,-0.04155855,-1.125922,0.49098858,1.0534167,7.230101199999998,-17.2,32.4,92.4,40.2,-32.4,220.8,-1021.4,0.4,327.2,1010.294,-3.3728594000000003,3263.4,0.0093937875,-0.0455682,-0.04155855,0.027971845,-1.125922,-0.00794275,61140.0,29548.0,25250.0,0.0,26.0,-44.0,0,None
2022-12-21 08:33:01.300,276.538,0.1000000000000037,100.0,1230.0,24103.0,4890.0,98.0,1229.0,216.16666666666663,4895.0,-167.18993333333336,1.0778943333333333,-0.0134459266666666,-0.0384202433333333,-1.137548,61.09666666666667,-0.0031230333333333,-0.0316269333333333,-1.1230080000000002,0.5112459833333333,1.0835568333333334,5.985110166666666,-20.83333333333333,8.833333333333334,94.0,38.833333333333336,-7.666666666666667,223.0,-1016.8333333333334,-4.5,324.8333333333333,1010.3046666666664,-3.3624086666666657,3265.1666666666665,-0.0031230333333333,0.0027316833333333,-0.0316269333333333,0.0146041966666666,-1.1230080000000002,0.0129693396666666,61090.0,29568.0,25200.0,3.0,23.0,-44.0,0,None
2022-12-21 08:33:01.850,277.092,0.0999999999999999,100.0,1224.0,24082.0,4895.0,98.0,1224.8,218.0,4889.0,-167.43164000000002,1.0949086,-0.0141078866666666,-0.03865619,-1.142516,61.06,-0.004128439,-0.0320562133333333,-1.1279766666666666,0.5204270599999999,1.12311396,6.943554799999999,-18.6,4.8,97.2,34.0,19.0,233.6,-1011.2,-2.6,336.4,1010.3044,-3.3624998,3266.0,-0.004128439,0.01170044,-0.0320562133333333,-0.0044765703333333,-1.1279766666666666,-0.01101099,61060.0,29531.0,25170.0,5.0,18.0,-42.0,0,None
2022-12-21 08:33:02.400,277.6646666666666,0.1066666666666643,100.0,1211.5,24110.0,4892.5,98.0,1235.8333333333333,220.0,4882.833333333333,-167.59903333333332,1.1117830000000002,-0.006134751,-0.03456406,-1.1400236666666668,61.01333333333333,0.0048441926666666,-0.0285139433333333,-1.1265789999999998,0.5379652,1.1562031333333334,6.539886500000001,-16.166666666666668,13.166666666666666,91.16666666666669,29.33333333333333,21.666666666666668,212.0,-1028.5,15.166666666666666,319.1666666666667,1010.3155,-3.3514321666666667,3267.5,0.0048441926666666,0.04762315,-0.0285139433333333,0.03071614,-1.1265789999999998,0.0011537953333333,61020.0,29541.0,25130.0,5.0,16.0,-43.0,0,None
2022-12-21 08:33:02.950,278.244,0.108000000000004,100.0,1143.0,24147.0,4890.0,98.0,1211.0,222.0,4885.6,-167.70394,1.1281484,0.0108314455,-0.03223051,-1.1356055,60.985,0.02010059,-0.0256581499999999,-1.1227445,0.5690294400000001,0.8476994399999999,5.9871798,-14.3,14.8,92.9,13.3,27.6,218.7,-1044.2,-0.5,345.2,1010.3054,-3.3616795,3268.6,0.02010059,0.0150223999999999,-0.0256581499999999,0.029373415,-1.1227445,0.01631848,60990.0,29563.0,25100.0,7.0,22.0,-42.0,0,None
2022-12-21 08:33:03.500,278.788,0.1079999999999927,100.0,1181.0,24136.0,4904.0,98.0,1144.0,223.6,4889.4,-167.776,1.1429836,-0.0017733553333333,-0.03698691,-1.1412646666666666,60.96,0.0079543679999999,-0.03088196,-1.1286386666666666,0.5928051200000001,0.88170162,7.095497800000001,-21.6,16.8,90.4,0.4,-6.8,238.6,-1031.2,-41.0,342.0,1010.329,-3.3379686,3270.0,0.0079543679999999,-0.0445791466666666,-0.03088196,0.0030229066666666,-1.1286386666666666,-0.0198806126666666,60960.0,29543.0,25070.0,3.0,30.0,-40.0,0,None
2022-12-21 08:33:04.050,279.32800000000003,0.108000000000004,100.0,1163.0,24143.0,4888.0,98.0,1147.0,225.4,4897.8,-167.84452000000002,1.1582982,-0.01831774,-0.034834215,-1.1448,60.925,-0.0083312775,-0.0283088,-1.1322745,0.62214872,1.09542442,7.3586024,-26.0,3.8,97.2,22.0,-22.0,225.8,-1048.8,2.8,329.0,1010.3294,-3.3377968000000005,3271.2,-0.0083312775,-0.019393907,-0.0283088,0.0063349905,-1.1322745,-0.0090219999999999,60930.0,29498.0,25040.0,2.0,33.0,-38.0,0,None
2022-12-21 08:33:04.600,279.884,0.1120000000000004,100.0,1177.0,24142.0,4896.0,98.0,1186.4,227.2,4888.8,-167.87923999999998,1.1729968000000002,-0.0242263066666666,-0.0397180566666666,-1.12843,60.873333333333335,-0.0134876,-0.03378117,-1.11644,0.5996138,0.82425546,6.1071346,-16.5,-17.6,96.1,4.6,19.9,215.0,-1027.7,-2.5,314.6,1010.314,-3.3529376,3272.4,-0.0136344133333333,0.0098920584666666,-0.03358741,-0.015440188,-1.116615666666667,0.0094327933333333,60890.0,29606.0,25000.0,5.0,28.0,-42.0,0,None
2022-12-21 08:33:05.150,280.44000000000005,0.1120000000000004,100.0,1308.0,24049.0,4904.0,98.0,1264.8,229.0,4898.2,-167.85914,1.1871696,-0.0202556833333333,-0.0387800233333333,-1.132456,60.81666666666666,-0.0099218086666666,-0.0317893033333333,-1.120514,0.5309416,0.8720962199999999,6.199443,-19.6,43.2,99.0,5.0,16.6,225.2,-1035.4,-10.2,318.0,1010.3313999999998,-3.3356874,3274.0,-0.0099218086666666,0.0137651193333333,-0.0317893033333333,0.0379805,-1.120514,-0.0034113313333333,60830.0,29576.0,24940.0,2.0,20.0,-40.0,0,None
