00000_Time_epoch,00000_Time_boot_sec,00000_Span_Time_boot_sec,1_battery_remaining_avg,1_current_battery_avg,1_voltage_battery_avg,125_Vcc_avg,147_battery_remaining_avg,147_current_battery_avg,147_current_consumed_avg,165_Vcc_avg,168_direction_avg,168_speed_avg,178_pitch_avg,178_roll_avg,178_yaw_avg,182_altitude_avg,182_pitch_avg,182_roll_avg,182_yaw_avg,241_vibration_x_avg,241_vibration_y_avg,241_vibration_z_avg,27_xacc_avg,27_xgyro_avg,27_xmag_avg,27_yacc_avg,27_ygyro_avg,27_ymag_avg,27_zacc_avg,27_zgyro_avg,27_zmag_avg,29_press_abs_avg,29_press_diff_avg,29_temperature_avg,30_pitch_avg,30_pitchspeed_avg,30_roll_avg,30_rollspeed_avg,30_yaw_avg,30_yawspeed_avg,33_alt_avg,33_hdg_avg,33_relative_alt_avg,33_vx_avg,33_vy_avg,33_vz_avg,label,diagnosis
2023-01-01 17:10:35.400,403.9312,0.1121999999999957,100.0,79.0,24966.0,4888.0,99.0,80.6,71.0,4878.6,-138.48348,0.28977852,-0.0085713226666666,-0.02271368,-1.1728586666666667,27.51333333333333,-0.0045789083333333,-0.0171196633333333,-1.187156,0.024903808,0.0260292839999999,0.036330002,-20.9,4.2,96.1,7.0,4.7,248.9,-1064.9,-0.1,338.5,1021.345,-0.03959375,3330.3,-0.0045789083333333,0.0054164736666666,-0.0171196633333333,0.004657298,-1.187156,-0.0007886332333333,27530.0,29198.5,-60.0,3.0,7.0,-24.0,0,None
2023-01-01 17:10:35.950,404.4832,0.1077999999999974,100.0,78.0,24973.0,4880.0,99.0,79.8,71.0,4879.4,-139.01201999999998,0.28486216,-0.0084566345,-0.02308276,-1.172421,27.485,-0.0044433805,-0.01711931,-1.1870565,0.02583029,0.026307962,0.03593408,-20.6,4.0,96.2,7.0,5.2,248.4,-1065.6,-0.4,338.0,1021.3308,-0.053609374,3331.0,-0.0044433805,0.005201969,-0.01711931,0.0044498135,-1.1870565,-0.0010593135,27480.0,29199.0,-110.0,2.0,7.0,-25.0,0,None
2023-01-01 17:10:36.500,405.043,0.108000000000004,100.0,78.0,24962.0,4862.0,99.0,139.8,71.0,4884.0,-139.18290000000002,0.30706704,-0.008606488,-0.02253718,-1.1714663333333333,27.47,-0.0044192533333333,-0.0170243,-1.1862106666666667,0.14679073,0.194268176,1.4780762260000002,-6.7,5.0,88.3,-5.1,2.5,235.3,-1056.5,-40.6,342.8,1021.3117,-0.072820311,3331.9,-0.0044192533333333,0.009252233,-0.0170243,0.0027528446233333,-1.1862106666666667,-0.0033133527999999,27480.0,29203.0,-110.0,3.0,8.0,-23.0,0,None
2023-01-01 17:10:37.050,405.5632,0.1039999999999963,100.0,120.0,24949.0,4883.0,99.0,134.0,71.4,4884.4,-138.97776,0.34827828,-0.0091091054999999,-0.0229201149999999,-1.1729665,27.47,-0.004433037,-0.016753135,-1.186916,0.2124631,0.28801582,1.934965,-31.2,6.2,89.0,7.8,5.2,249.4,-1070.2,0.6,337.6,1021.3408,-0.043843748,3332.0,-0.004433037,-0.0095247305,-0.016753135,0.0156296265,-1.186916,-0.008317293,27480.0,29202.0,-110.0,3.0,8.0,-26.0,0,None
2023-01-01 17:10:37.600,406.15366666666665,0.1066666666666643,100.0,118.0,24952.0,4887.0,99.0,120.0,72.0,4882.5,-138.8045666666667,0.3950363333333333,-0.0095357673333333,-0.0227307933333333,-1.1742966666666668,27.47,-0.004355053,-0.01675968,-1.187199,0.2822100333333333,0.28302005,1.8031238333333333,-15.833333333333334,1.8333333333333333,86.66666666666667,9.666666666666666,9.666666666666666,249.3333333333333,-1066.1666666666667,-8.333333333333334,337.0,1021.3573333333334,-0.0272135399999999,3332.833333333333,-0.004355053,-0.0037597423333333,-0.01675968,0.0099764166666666,-1.187199,0.0030437533333333,27480.0,29196.0,-110.0,4.0,7.0,-26.0,0,None
2023-01-01 17:10:38.150,406.7072,0.0999999999999999,100.0,123.0,24953.0,4888.0,99.0,122.0,72.0,4882.6,-138.5495,0.44501534,-0.0087288966666666,-0.0222405466666666,-1.1756523333333335,27.46333333333333,-0.004338954,-0.0165153766666666,-1.1874213333333332,0.29915458,0.26044134,1.8679006,-20.6,6.0,86.6,6.6,-0.2,248.2,-1077.4,-2.8,337.2,1021.3664,-0.018156251,3333.4,-0.004338954,0.0050191013333333,-0.0165153766666666,0.0081511339999999,-1.1874213333333332,0.0045324696666666,27470.0,29194.0,-120.0,4.0,7.0,-24.0,0,None
2023-01-01 17:10:38.700,407.2714,0.1162000000000034,100.0,161.0,24950.0,4873.5,99.0,120.0,72.0,4878.2,-138.4006,0.49747416,-0.0087548145,-0.02287923,-1.176644,27.46,-0.0041977335,-0.016683595,-1.1876755,0.19917098,0.18362854,1.536101,-23.2,3.1,87.0,8.2,7.4,247.9,-1079.3,-19.1,336.0,1021.3328,-0.051539061,3334.4,-0.0041977335,0.0036468244999999,-0.016683595,0.0042955995,-1.1876755,-0.00548296,27470.0,29198.0,-120.0,4.0,8.0,-25.0,0,None
2023-01-01 17:10:39.250,407.788,0.0999999999999999,100.0,1520.0,24455.0,4896.0,99.0,1087.6,72.8,4886.2,-138.23608000000002,0.5459173399999999,-0.0003471743333333,-0.0223399433333333,-1.17856,27.48,0.004407868,-0.0168394033333333,-1.188165,0.77752734,0.5000376799999999,4.677381800000001,-33.6,7.6,69.8,5.2,78.4,225.6,-1133.6,-8.0,318.8,1021.4602,0.07564062,3334.8,0.004407868,0.1203829846666666,-0.0168394033333333,0.006682777,-1.188165,0.0063224383333333,27490.0,29189.0,-100.0,4.0,9.0,-24.0,0,None
2023-01-01 17:10:39.800,408.338,0.1000000000000037,100.0,1514.0,24386.0,4885.0,99.0,1489.5,75.0,4887.333333333333,-138.28253333333333,0.5979508666666665,0.014732812,-0.00780963,-1.1739593333333334,27.756666666666664,0.020049083,-0.0018574236666666,-1.182205333333333,0.46308685,1.0010092333333334,3.776010666666666,-4.666666666666667,55.16666666666666,70.16666666666667,-15.666666666666666,-55.16666666666666,243.3333333333333,-1255.3333333333333,-2.1666666666666665,305.6666666666667,1021.5488333333332,0.1642577949999999,3335.333333333333,0.020049083,-0.0603093233333333,-0.0018574236666666,0.0421171133333333,-1.182205333333333,0.006078427,27710.0,29230.0,120.0,-4.0,12.0,61.0,0,None
2023-01-01 17:10:40.350,408.888,0.0999999999999999,100.0,1648.0,24332.0,4890.0,99.0,1657.8,77.6,4881.6,-139.13636,0.64903644,-0.03624392,0.01723262,-1.197267,28.53,-0.02833923,0.023308335,-1.2045545,0.2601697,1.6296210000000002,4.8759106,36.4,-1.6,69.0,-3.2,43.0,244.4,-1205.6,-49.8,269.2,1021.1818,-0.20240626,3336.2,-0.02833923,0.039986505,0.023308335,-0.10587416,-1.2045545,-0.059376395,28480.0,29099.0,890.0,9.0,-2.0,153.0,0,None
2023-01-01 17:10:40.900,409.4381666666666,0.1001666666666664,100.0,1581.0,24333.0,4890.0,99.0,1690.8333333333333,80.0,4882.166666666667,-140.38369999999998,0.6881299333333333,0.0405680766666666,-0.0087820583333333,-1.20439,29.906666666666663,0.0460909733333333,-0.0046564117666666,-1.2093113333333332,0.4557539166666666,1.1873950000000002,5.508981333333334,22.166666666666668,-87.16666666666667,50.833333333333336,15.5,75.16666666666667,250.66666666666663,-1118.1666666666667,10.833333333333334,292.8333333333333,1021.0015,-0.3831510333333334,3336.833333333333,0.0460909733333333,0.0607461699999999,-0.0046564117666666,-0.073577121,-1.2093113333333332,0.0115842133333333,29830.0,29070.0,2240.0,34.0,-18.0,221.0,0,None
2023-01-01 17:10:41.450,410.005,0.1039999999999963,100.0,1891.0,24134.0,4890.0,99.0,2109.6,83.0,4879.6,-142.14508,0.71485052,0.04652581,-0.05596939,-1.2073433333333332,31.883333333333336,0.0503716133333333,-0.04976869,-1.2258456666666666,0.3931964,1.4063595000000002,5.0815842,60.0,-23.0,48.4,-0.6,-5.8,233.6,-1193.4,-4.4,297.2,1020.8148,-0.5697656,3337.6,0.0503716133333333,-0.0386310899999999,-0.04976869,-0.0233766033333333,-1.2258456666666666,-0.0017274219999999,31450.0,28975.0,3860.0,27.0,-12.0,263.0,0,None
2023-01-01 17:10:42.000,410.5450000000001,0.108000000000004,100.0,1147.0,24398.0,4890.0,99.0,1838.6,85.6,4881.2,-144.69289999999998,0.73418132,0.0766810233333333,-0.0346373066666666,-1.201579333333333,34.03333333333333,0.08265639,-0.02627153,-1.2181946666666663,0.49540042,1.6111908,7.457252999999999,66.0,-4.7,42.4,-9.0,6.6,239.1,-986.3,14.1,318.3,1020.6206999999998,-0.7636952900000001,3338.0,0.08265639,0.0351892,-0.02627153,0.1903496966666666,-1.2181946666666663,-0.0108460549999999,33230.0,29017.0,5640.0,7.0,-33.0,305.0,0,None
2023-01-01 17:10:42.550,411.0616,0.1041999999999916,100.0,952.0,24492.0,4866.0,99.0,1261.2,88.0,4879.6,-148.02738,0.74457284,0.10488451,-0.10987799,-1.189704,35.56,0.11130855,-0.099701025,-1.203939,0.50154884,1.4415844,8.1995468,61.6,-273.8,39.0,-24.6,65.8,232.6,-884.4,40.8,334.6,1020.4617999999998,-0.92285934,3339.0,0.11130855,0.066491879,-0.099701025,-0.29233965,-1.203939,0.034896852,34970.0,29074.0,7380.0,-3.0,-36.0,256.0,0,None
2023-01-01 17:10:43.100,411.62283333333335,0.1000000000000037,100.0,893.0,24545.0,4877.0,99.0,1220.1666666666667,89.83333333333333,4880.833333333333,-154.51686666666666,0.7512679333333333,0.1204848333333333,-0.2459137,-1.2494823333333334,36.54333333333333,0.1290583333333333,-0.2329177999999999,-1.2618256666666663,0.6244391166666666,1.40424,9.462646,97.33333333333331,-84.0,27.5,2.1666666666666665,50.833333333333336,175.5,-1025.6666666666667,-265.0,367.5,1020.3251666666666,-1.0593228666666663,3339.5,0.1290583333333333,0.060111506,-0.2329177999999999,-0.0757999999999999,-1.2618256666666663,-0.2715610333333333,36580.0,28677.0,8990.0,-105.0,-60.0,143.5,0,None
2023-01-01 17:10:43.650,412.1734,0.103800000000001,100.0,1290.0,24393.0,4864.0,99.0,1113.2,91.6,4878.0,-161.60642,0.76081234,0.0931495233333333,-0.2283526,-1.4727406666666667,37.41666666666666,0.1058490766666666,-0.2201910333333333,-1.4868766666666666,0.77581238,1.254539,11.1110164,118.4,84.6,-17.4,32.8,-39.6,182.4,-1042.0,-419.0,380.4,1020.1644,-1.2201406,3339.8,0.1058490766666666,-0.0375140266666666,-0.2201910333333333,0.0727499973333333,-1.4868766666666666,-0.3792523333333333,37650.0,27077.0,10060.0,-234.0,-100.0,91.0,0,None
2023-01-01 17:10:44.200,412.726,0.0968333333333361,100.0,1415.0,24379.0,4882.0,99.0,1414.5,93.66666666666669,4885.166666666667,-170.56856666666667,0.7956613333333333,0.0572444933333333,-0.2371466666666666,-1.693059,38.23,0.07075614,-0.2367315333333333,-1.706059,0.7689001166666666,1.325063,9.449839333333331,128.5,-1.3333333333333333,-67.33333333333333,82.16666666666667,44.5,172.5,-1102.3333333333333,-355.8333333333333,358.5,1020.0183333333334,-1.366145666666667,3340.833333333333,0.07075614,0.1080287833333333,-0.2367315333333333,0.0301428163333333,-1.706059,-0.3459537333333333,38340.0,26048.0,10750.0,-314.0,-137.0,95.0,0,None
2023-01-01 17:10:44.750,413.282,0.1039999999999963,100.0,1321.5,24364.5,4889.0,99.0,1153.4,95.6,4886.8,35.70252,0.85816278,0.0728355,-0.2250899499999999,-1.879533,39.02,0.08507375,-0.22721285,-1.8919375,0.69120052,1.2888086,12.219206599999998,53.6,55.4,-121.2,131.6,95.6,165.4,-1123.4,-336.4,377.6,1019.9238,-1.4607496,3341.2,0.08507375,0.039495285,-0.22721285,-0.091403515,-1.8919375,-0.3562393499999999,39130.0,25023.0,11540.0,-368.0,-136.0,101.0,0,None
2023-01-01 17:10:45.300,413.8431666666667,0.0999999999999943,100.0,1457.0,24305.0,4883.0,99.0,1458.5,97.66666666666669,4876.166666666667,170.8884666666667,0.9497296166666666,0.0556330166666666,-0.2157188,-2.054843,39.77,0.0651976466666666,-0.2198711666666667,-2.064397,0.6965227333333334,1.394201,11.929681666666667,18.166666666666668,63.5,-179.33333333333334,156.66666666666666,12.833333333333334,138.0,-1065.1666666666667,-360.0,341.0,1019.8451666666666,-1.539271,3342.1666666666665,0.0651976466666666,0.0123798233333333,-0.2198711666666667,0.0383445333333333,-2.064397,-0.3865141666666666,39890.0,24011.0,12300.0,-398.0,-107.0,100.0,0,None
2023-01-01 17:10:45.850,414.4018,0.1040000000000076,100.0,860.0,24542.0,4893.0,99.0,1282.0,99.6,4882.0,163.41227999999998,1.066624,-0.03577532,-0.1965099333333333,-2.2876833333333333,40.69333333333333,-0.0263106233333333,-0.2036211666666666,-2.2938096666666663,0.62971862,1.4471754,12.435734,-35.0,-7.4,-197.4,144.6,-111.0,120.4,-1050.2,-420.8,353.4,1019.7186,-1.6659374,3343.0,-0.0263106233333333,-0.1121726333333333,-0.2036211666666666,0.0339414699999999,-2.2938096666666663,-0.4326758333333333,40640.0,22936.0,13050.0,-411.0,-83.0,100.0,0,None
2023-01-01 17:10:46.400,414.918,0.1039999999999963,100.0,1778.0,24161.0,4890.0,99.0,1200.2,101.4,4888.0,157.56358,1.195322,-0.107486255,-0.1664553999999999,-2.4824185,41.48,-0.09682196,-0.1756213999999999,-2.4862305,0.82138046,1.4078398,10.4482256,-75.7,27.1,-205.5,108.0,-7.0,77.6,-1048.8,-362.3,355.6,1019.679,-1.7053983,3343.0,-0.09682196,0.08144807,-0.1756213999999999,0.3176485,-2.4862305,-0.392826,41460.0,21817.0,13870.0,-442.0,-74.0,107.0,0,None
2023-01-01 17:10:46.950,415.48,0.1000000000000037,100.0,1031.0,24458.0,4871.0,99.0,1059.1666666666667,103.33333333333331,4878.0,152.86255,1.3376021666666666,-0.1472931,-0.1202843,-2.649436666666667,42.26333333333333,-0.1384517,-0.1304808333333333,-2.6506523333333334,0.76465898,1.441699,11.6126364,-92.66666666666669,2.333333333333333,-211.66666666666663,123.16666666666669,-67.16666666666667,51.833333333333336,-998.1666666666666,-297.6666666666667,372.1666666666667,1019.6051666666666,-1.7793098333333337,3344.1666666666665,-0.1384517,-0.2986769666666666,-0.1304808333333333,-0.0181452399999999,-2.6506523333333334,-0.3018505,42230.0,20842.0,14640.0,-467.0,-73.0,114.0,0,None
2023-01-01 17:10:47.500,416.03,0.0999999999999999,100.0,1187.0,24379.0,4890.0,99.0,1344.2,105.0,4881.6,149.25831999999997,1.4810162000000002,-0.1830106666666666,-0.0609795766666666,-2.801797333333333,43.15333333333333,-0.1756775333333333,-0.07185054,-2.8036246666666664,0.6945658800000001,1.3095526,11.9430282,-83.0,67.0,-215.0,123.8,27.2,40.4,-1043.4,-89.0,379.8,1019.487,-1.8976406,3344.6,-0.1756775333333333,-0.02556268,-0.07185054,0.0521113289,-2.8036246666666664,-0.12875732,42980.0,19980.0,15390.0,-508.0,-99.0,113.0,0,None
2023-01-01 17:10:48.050,416.58,0.0999999999999942,100.0,1317.0,24334.0,4877.0,99.0,1116.8333333333333,106.83333333333331,4882.833333333333,146.29083333333335,1.6268176666666665,-0.1527067,-0.0561421066666666,-2.806119666666667,44.03,-0.1473932,-0.0669373799999999,-2.809184,0.77685442,1.2759634,12.10135,-117.0,-35.666666666666664,-222.66666666666663,113.33333333333331,90.66666666666669,38.16666666666666,-1077.1666666666667,50.833333333333336,368.5,1019.4546666666666,-1.9299216666666668,3345.1666666666665,-0.1473932,0.1279324446666666,-0.0669373799999999,0.0347478986666666,-2.809184,0.0521672666666666,43710.0,19855.0,16120.0,-549.0,-150.0,113.0,0,None
2023-01-01 17:10:48.600,417.1458,0.1040000000000076,100.0,658.0,24530.0,4890.0,99.0,1133.4,108.6,4879.8,143.87156,1.7690226,-0.1294898,-0.10814225,-2.781371,44.785,-0.12797245,-0.11706965,-2.7846395,0.9864297400000002,1.5324862,10.7794438,-119.6,-96.2,-240.2,141.4,-24.4,23.8,-997.4,47.6,345.4,1019.3694,-2.0151876,3346.0,-0.12797245,0.034758789,-0.11706965,-0.09152597,-2.7846395,0.0211711985,44440.0,19996.0,16850.0,-568.0,-193.0,131.0,0,None
2023-01-01 17:10:49.150,417.7031666666667,0.0998333333333315,100.0,1255.0,24331.0,4877.0,99.0,1490.3333333333333,110.66666666666669,4884.166666666667,141.86591666666666,1.9063351666666664,-0.1225251333333333,-0.1320919333333333,-2.782928,45.48,-0.1213111,-0.1388766666666666,-2.7861386666666665,0.7523285333333334,1.4363033333333333,13.887083333333337,-139.16666666666666,-70.0,-238.66666666666663,123.83333333333331,26.83333333333333,13.833333333333334,-1042.3333333333333,-56.333333333333336,363.3333333333333,1019.1128333333332,-2.271640833333333,3346.5,-0.1213111,-0.0342007933333333,-0.1388766666666666,-0.0065358533333333,-2.7861386666666665,-0.0400602466666666,45540.0,20019.0,17950.0,-557.5,-231.5,122.5,0,None
2023-01-01 17:10:49.700,418.25,0.1001999999999952,100.0,1733.0,24178.0,4887.0,99.0,1749.8,113.2,4877.6,140.02138,2.0467836,-0.1198734,-0.1600354666666666,-2.810854333333334,46.49,-0.1178589999999999,-0.1647484333333333,-2.8150703333333333,0.86326266,2.1669284,12.575348,-137.2,-28.6,-242.8,129.8,-42.8,-15.0,-1105.0,-57.2,340.0,1018.9396,-2.444953,3347.0,-0.1178589999999999,-0.005412,-0.1647484333333333,-0.055312568,-2.8150703333333333,-0.020596487,46820.0,19831.0,19230.0,-561.0,-242.0,122.0,0,None
2023-01-01 17:10:50.250,418.7998333333333,0.1000000000000037,100.0,1210.0,24317.5,4885.0,99.0,1508.1666666666667,115.66666666666669,4880.333333333333,138.2241,2.1966110000000003,-0.1211632333333333,-0.1726338666666666,-2.8316553333333334,47.583333333333336,-0.1193795333333333,-0.1759252999999999,-2.8366613333333333,0.8404126000000001,1.9774693333333333,14.145041666666666,-141.5,32.666666666666664,-241.66666666666663,153.5,13.166666666666666,-12.666666666666666,-998.1666666666666,-16.666666666666668,345.5,1018.8345,-2.550052166666667,3347.5,-0.1193795333333333,-0.05090712,-0.1759252999999999,0.0947706666666666,-2.8366613333333333,-0.0329856523333333,47730.0,19720.0,20140.0,-568.0,-236.0,123.0,0,None
2023-01-01 17:10:50.800,419.35,0.0999999999999999,100.0,953.0,24411.0,4880.0,99.0,1512.6,117.8,4879.0,136.49830000000003,2.3510594,-0.1047402,-0.1812428999999999,-2.848686,48.47,-0.10308005,-0.18637355,-2.8531735,0.81451776,1.535308,13.977714,-143.2,-41.0,-245.4,164.2,10.4,-16.8,-1098.6,-14.4,355.8,1018.78,-2.6044218,3348.0,-0.10308005,-0.07443667,-0.18637355,-0.0602316575,-2.8531735,-0.011776352,48610.0,19633.0,21020.0,-565.0,-240.0,115.0,0,None
2023-01-01 17:10:51.350,419.9,0.0999999999999942,100.0,1870.0,24084.0,4858.0,99.0,1464.5,120.0,4880.166666666667,134.91453333333334,2.5046470000000003,-0.1146604333333333,-0.1920411,-2.857136333333333,49.28,-0.1137106,-0.1947595333333333,-2.86149,0.7571745666666666,1.7491528333333333,15.557458333333336,-117.33333333333331,-16.5,-251.16666666666663,145.0,31.166666666666668,-28.5,-1054.5,-2.1666666666666665,359.3333333333333,1018.7023333333332,-2.6820571666666666,3349.0,-0.1137106,0.0768050666666666,-0.1947595333333333,0.02200623,-2.86149,-0.0005051119999999,49400.0,19594.0,21810.0,-572.0,-237.0,95.0,0,None
2023-01-01 17:10:51.900,420.4498,0.0999999999999999,100.0,1351.0,24228.0,4883.0,99.0,1665.6,122.4,4881.4,133.35822000000002,2.6600706,-0.0973751866666666,-0.1918675333333333,-2.851215,50.16,-0.0951220433333333,-0.1957392333333333,-2.853736,0.83199228,2.0538812,13.328304,-116.2,22.4,-250.2,158.6,22.4,-16.6,-1044.8,55.8,352.2,1018.6254,-2.7589062,3349.4,-0.0951220433333333,0.0402571,-0.1957392333333333,-0.0391886666666666,-2.853736,0.0342079943333333,50130.0,19653.0,22540.0,-580.0,-216.0,110.0,0,None
2023-01-01 17:10:52.450,420.99966666666666,0.1000000000000037,100.0,1561.0,24191.0,4858.0,99.0,1651.1666666666667,125.0,4877.833333333333,131.78986666666663,2.822459666666667,-0.07153552,-0.1765652333333333,-2.8522510000000003,51.06333333333333,-0.0692823766666666,-0.1818764666666666,-2.851198333333333,0.8623867666666666,2.065685166666667,13.301496833333331,-126.83333333333331,14.166666666666666,-258.3333333333333,173.0,53.0,-15.5,-1022.3333333333334,5.333333333333333,336.6666666666667,1018.5203333333332,-2.864140666666667,3350.0,-0.0692823766666666,0.0219026037,-0.1818764666666666,0.0533875066666666,-2.851198333333333,-0.0095195533333333,50870.0,19689.0,23280.0,-579.0,-208.0,111.0,0,None
2023-01-01 17:10:53.000,421.56180000000006,0.1039999999999963,100.0,1445.0,24228.0,4883.0,99.0,1375.0,127.4,4881.4,130.18669999999997,2.9946426,-0.05479215,-0.19117335,-2.8647935,51.88,-0.05416935,-0.195591,-2.8614995,0.85297862,1.9652562,14.29243,-147.4,-2.6,-267.4,140.4,-7.6,-24.6,-1101.8,12.0,331.2,1018.5166,-2.8679062,3350.6,-0.05416935,-0.027366765,-0.195591,-0.018665115,-2.8614995,0.0349140445,51680.0,19591.0,24090.0,-562.0,-194.0,127.0,0,None
2023-01-01 17:10:53.550,422.0818,0.103800000000001,100.0,1248.0,24265.0,4871.0,99.0,1437.2,129.6,4869.8,128.75990000000002,3.151476,-0.0923079366666666,-0.1584762666666666,-2.8413626666666665,52.64333333333334,-0.0899063033333333,-0.1631110333333333,-2.835942333333333,0.82093364,1.6776989999999998,14.241976,-96.0,67.4,-261.0,145.6,-58.8,-5.0,-1045.6,50.4,345.0,1018.4452,-2.9391876000000003,3351.2,-0.0899063033333333,-0.0697945433333333,-0.1631110333333333,0.09429549,-2.835942333333333,0.0816913266666666,52450.0,19693.0,24860.0,-540.0,-180.0,120.0,0,None
2023-01-01 17:10:54.100,422.6433333333334,0.1001666666666664,100.0,705.0,24460.0,4887.0,99.0,1059.8333333333333,131.5,4874.166666666667,127.4574,3.2975096666666666,-0.08116949,-0.1489628333333333,-2.813768333333333,53.54333333333333,-0.0782252033333333,-0.1544696666666666,-2.8061609999999995,0.7798348,1.4569563333333333,11.75838,-117.5,-14.833333333333334,-244.3333333333333,133.0,47.333333333333336,11.0,-1109.3333333333333,27.83333333333333,364.0,1018.4903333333332,-2.8940235,3351.833333333333,-0.0782252033333333,0.0502135833333333,-0.1544696666666666,0.0186465966666666,-2.8061609999999995,0.0454567833333333,53220.0,19876.0,25630.0,-555.0,-177.0,140.0,0,None
2023-01-01 17:10:54.650,423.194,0.0999999999999999,100.0,1181.0,24276.0,4887.0,99.0,1473.6,133.4,4879.2,126.28038,3.4374296,-0.066612705,-0.14387105,-2.7946905,54.205,-0.06596908,-0.1488433,-2.785008,0.86334632,1.3667821999999998,12.349924,-101.2,53.6,-258.8,176.8,34.6,17.0,-1042.2,57.2,342.2,1018.2386,-3.1458284,3352.2,-0.06596908,0.0310074249999999,-0.1488433,0.0198692,-2.785008,0.0704710249999999,53920.0,19990.0,26330.0,-552.0,-177.0,137.0,0,None
2023-01-01 17:10:55.200,423.7099999999999,0.1040000000000076,100.0,1164.0,24300.0,4890.0,99.0,1315.6,135.4,4886.4,125.2635,3.5678154,-0.0655983633333333,-0.1449009666666666,-2.7654213333333337,55.01333333333334,-0.0656279466666666,-0.1523231,-2.753486333333333,0.7649857000000001,1.442603,17.129464000000002,-103.0,-23.4,-261.0,200.6,-72.2,27.0,-1190.6,30.4,362.2,1018.1372,-3.2474376,3353.2,-0.0656279466666666,-0.07752499,-0.1523231,-0.0950678866666666,-2.753486333333333,0.05744659,54610.0,20149.0,27020.0,-536.0,-196.0,137.0,0,None
2023-01-01 17:10:55.750,424.29,0.1066666666666643,100.0,1136.0,24291.5,4883.0,99.0,1312.3333333333333,137.33333333333334,4877.166666666667,124.29428333333333,3.7003015,-0.05792939,-0.1722096,-2.7539223333333336,56.02666666666666,-0.0569930933333333,-0.1783993,-2.7391503333333334,0.7572516833333333,1.4532975,12.750786666666668,-92.16666666666669,3.9166666666666665,-259.3333333333333,181.0833333333333,87.0,12.416666666666666,-1013.4166666666666,19.416666666666668,347.0833333333333,1018.072,-3.3125455833333337,3353.833333333333,-0.0569930933333333,0.11936307,-0.1783993,0.1364185866666666,-2.7391503333333334,-0.0021454713333333,55890.0,20315.0,28300.0,-522.5,-219.5,130.5,0,None
2023-01-01 17:10:56.300,424.85,0.0999999999999999,100.0,1247.0,24305.0,4895.0,99.0,1206.0,139.2,4889.0,123.4008,3.830346,-0.050578395,-0.1711308,-2.747934,56.71,-0.05067138,-0.1761558,-2.7319825,0.78654428,1.1204144,11.214669,-80.2,-19.2,-254.2,171.8,-38.2,24.0,-1041.8,37.6,361.2,1018.0218,-3.3627967999999995,3354.0,-0.05067138,0.0787778999999999,-0.1761558,-0.0097121,-2.7319825,0.03219051,56890.0,20393.0,29300.0,-510.0,-224.0,77.0,0,None
2023-01-01 17:10:56.850,425.354,0.1039999999999963,100.0,1041.0,24339.0,4862.0,99.0,1422.4,141.2,4878.0,122.60078,3.9538378,-0.0590059,-0.1677518666666666,-2.7290166666666664,57.09666666666667,-0.0579467866666666,-0.1745101,-2.710639,0.90451026,1.3861502,12.385132,-85.6,9.4,-247.4,180.6,-17.6,15.2,-1007.2,29.2,339.8,1018.0054,-3.379156,3354.4,-0.0579467866666666,0.0019519333333333,-0.1745101,0.17569238,-2.710639,0.0181175033333333,57180.0,20506.0,29590.0,-498.0,-233.0,51.0,0,None
2023-01-01 17:10:57.400,425.92,0.1000000000000037,100.0,1016.0,24387.0,4895.0,99.0,927.0,142.66666666666666,4890.166666666667,121.70166666666668,4.103734666666667,-0.0618502466666666,-0.1800436,-2.726481,57.34333333333333,-0.0614408166666666,-0.1863197333333333,-2.7060516666666667,0.8949773833333334,1.7387098333333333,11.716245,-89.16666666666667,-15.166666666666666,-251.0,148.0,-39.66666666666666,29.33333333333333,-1017.3333333333334,-22.0,356.8333333333333,1018.0481666666666,-3.336445166666667,3355.0,-0.0614408166666666,-0.0420259133333333,-0.1863197333333333,0.1377560733333333,-2.7060516666666667,-0.0249566366666666,57370.0,20480.0,29780.0,-494.0,-222.0,33.0,0,None
2023-01-01 17:10:57.950,426.4860000000001,0.1079999999999926,100.0,1248.0,24302.0,4893.0,99.0,1109.8,144.4,4888.0,120.99366,4.2307266,-0.073090115,-0.1735065,-2.7250155,57.4,-0.072365015,-0.1786769999999999,-2.703476,0.8411377200000001,1.4372416,11.817478,-78.0,49.4,-252.0,173.4,-15.4,29.4,-1051.2,24.2,365.0,1018.0298,-3.3545936,3356.0,-0.072365015,-0.090223475,-0.1786769999999999,-0.1495015,-2.703476,0.030685185,57400.0,20514.0,29810.0,-502.0,-214.0,32.0,0,None
2023-01-01 17:10:58.500,427.014,0.0999999999999999,100.0,1711.0,24064.0,4895.0,99.0,1281.6,146.0,4883.0,120.43938,4.335254600000001,-0.07502146,-0.1479061666666666,-2.707523333333333,57.42666666666667,-0.0734870366666666,-0.1544306,-2.6843263333333334,0.81310456,1.4655082,13.206514000000002,-91.2,44.8,-247.4,147.0,46.4,42.0,-1047.6,42.6,345.4,1017.9952,-3.3894686,3356.2,-0.0734870366666666,0.00934559,-0.1544306,0.0952669066666666,-2.6843263333333334,0.0597281466666666,57430.0,20631.0,29840.0,-506.0,-221.0,13.0,0,None
2023-01-01 17:10:59.050,427.5633333333333,0.1000000000000037,100.0,1262.0,24235.0,4893.0,99.0,1113.3333333333333,147.83333333333334,4884.666666666667,119.85643333333331,4.452074666666667,-0.0627127266666666,-0.1412589666666666,-2.683749666666666,57.48333333333333,-0.0609950099999999,-0.1480913666666666,-2.6582856666666665,0.75280475,1.1048406999999998,11.614793333333331,-77.5,11.833333333333334,-243.66666666666663,146.83333333333334,2.833333333333333,46.333333333333336,-1056.8333333333333,35.166666666666664,352.1666666666667,1017.9963333333336,-3.3880596666666665,3356.5,-0.0609950099999999,0.0197041736666666,-0.1480913666666666,0.00207014,-2.6582856666666665,0.025386468,57470.0,20774.0,29880.0,-505.0,-233.0,10.0,0,None
2023-01-01 17:10:59.600,428.16,0.1000000000000037,100.0,1137.0,24315.0,4893.0,99.0,1123.1666666666667,149.83333333333334,4888.5,119.30346666666668,4.570266666666666,-0.0768918333333333,-0.1494504666666666,-2.6805496666666664,57.53666666666666,-0.0752037933333333,-0.1563336333333333,-2.6527356666666666,0.7910162500000001,1.3601066666666668,11.809231666666667,-87.0,-2.833333333333333,-240.8333333333333,137.5,-7.833333333333333,45.66666666666666,-1030.6666666666667,-2.5,350.6666666666667,1017.9898333333334,-3.394661333333333,3357.0,-0.0752037933333333,-0.0076136299999999,-0.1563336333333333,0.0406568033333333,-2.6527356666666666,-0.0135559146666666,57530.0,20813.0,29940.0,-505.0,-236.0,4.0,0,None
2023-01-01 17:11:00.150,428.7339999999999,0.1079999999999927,100.0,1246.0,24260.0,4890.0,99.0,1181.6,151.6,4803.4,118.85372,4.6735854,-0.07547934,-0.14288255,-2.6781725,57.555,-0.07433464,-0.1485416,-2.6492175,0.7459985,1.4435517999999998,12.602926,-58.1,-14.3,-237.6,172.9,-20.5,55.0,-1077.0,18.6,363.0,1017.9409,-3.4436873,3358.0,-0.07433464,-0.027753745,-0.1485416,0.069281515,-2.6492175,0.0125784755,57540.0,20801.0,29950.0,-510.0,-241.0,0.0,0,None
2023-01-01 17:11:00.700,429.2339999999999,0.0960000000000035,100.0,1063.0,24303.0,4893.0,99.0,1059.6,153.0,4881.6,118.50416,4.7572294,-0.0732554366666666,-0.1465879,-2.672048333333333,57.616666666666674,-0.071199,-0.1529448333333333,-2.6417083333333333,0.7947849399999999,1.3663032000000002,11.977378000000002,-54.2,11.6,-233.0,156.4,38.2,56.8,-1024.2,10.6,363.2,1017.8782,-3.5062812,3358.4,-0.071199,0.010363541,-0.1529448333333333,0.0158516342,-2.6417083333333333,-0.006515205,57600.0,20852.0,30010.0,-520.0,-254.0,3.0,0,None
2023-01-01 17:11:01.250,429.7866666666667,0.0999999999999942,100.0,913.0,24317.0,4821.5,99.0,1001.3333333333334,154.66666666666666,4884.0,118.1229,4.850511666666667,0.0106015,-0.01852663,-2.6173176666666667,57.70333333333334,0.0117656766666666,-0.0262715699999999,-2.586193,0.8050105666666667,1.5140596666666666,12.4683055,-68.83333333333333,416.8333333333333,-257.8333333333333,143.16666666666666,211.8333333333333,95.66666666666669,-1033.1666666666667,278.5,342.8333333333333,1017.8835,-3.5009765,3359.0,0.0117656766666666,0.2045619933333333,-0.0262715699999999,0.4449878333333333,-2.586193,0.2593615666666666,57710.0,21267.5,30120.0,-495.5,-287.5,-3.5,0,None
2023-01-01 17:11:01.800,430.338,0.1040000000000076,100.0,832.0,24382.0,4896.0,99.0,659.4,156.0,4884.8,117.75736,4.9337672,0.05319006,0.14545555,-2.454598,57.775000000000006,0.05283118,0.1365021,-2.4224845,0.8621879399999999,2.1723944000000004,13.217468000000002,-9.0,104.4,-256.0,104.6,23.6,183.2,-1081.6,309.0,286.0,1018.026,-3.3584374,3359.4,0.05283118,0.0653789755,0.1365021,0.1231786,-2.4224845,0.3184595999999999,57750.0,22619.0,30160.0,-355.0,-384.0,-13.0,0,None
2023-01-01 17:11:02.350,430.854,0.1039999999999963,100.0,1029.0,24344.0,4883.0,99.0,962.6,157.0,4886.0,117.42546,4.9959212,0.0169913333333333,0.1660116999999999,-2.29491,57.68,0.01542109,0.1603525,-2.2592456666666667,0.871607525,2.0065495,14.254965,-4.8,86.0,-214.6,102.4,-94.0,230.8,-1125.2,295.4,282.6,1018.0356,-3.3489841999999994,3359.6,0.01542109,-0.0674616566666666,0.1603525,0.1560867233333333,-2.2592456666666667,0.2820102666666667,57610.0,23463.0,30020.0,-244.0,-462.0,0.0,0,None
2023-01-01 17:11:02.900,431.43,0.1066666666666643,100.0,1026.0,24261.0,4887.0,99.0,1044.3333333333333,158.83333333333334,4814.5,117.04495,5.0609935,0.0736740386666666,0.0663695,-2.211431,57.57333333333333,0.070492823,0.0635471766666666,-2.1706996666666667,0.8096314166666666,1.6753416666666665,17.44306166666667,26.0,-399.5,-191.0,77.33333333333333,290.3333333333333,246.66666666666663,-1099.5,17.833333333333332,292.8333333333333,1017.9786666666664,-3.405702833333333,3360.1666666666665,0.070492823,0.3208931,0.0635471766666666,-0.3949874,-2.1706996666666667,0.024288305,57550.0,23599.0,29960.0,-158.0,-504.0,-6.0,0,None
2023-01-01 17:11:03.450,432.0220000000001,0.108000000000004,100.0,1197.0,24256.0,4890.0,99.0,1206.6,160.6,4875.0,116.72934,5.1125886,0.2025681,-0.1388433933333333,-2.193877333333333,57.54666666666666,0.1972110666666666,-0.1336760633333333,-2.146036,0.64163242,1.2482776000000002,13.181904,40.8,-227.5,-234.5,76.9,134.9,178.7,-1020.1,39.6,308.6,1017.9296,-3.4551327,3360.8,0.1972110666666666,0.1093387333333333,-0.1336760633333333,-0.1708868999999999,-2.146036,0.02780879,57540.0,23710.0,29950.0,-124.0,-444.0,-7.0,0,None
2023-01-01 17:11:04.000,432.562,0.1039999999999963,100.0,1343.0,24109.0,4862.0,98.4,1388.6,162.6,4803.0,116.39282,5.1624964,0.24282645,-0.1766812999999999,-2.185781,57.585,0.2398897,-0.16821955,-2.1346295,0.5457816400000001,1.04395876,10.236366,60.2,20.2,-244.4,87.2,40.2,165.6,-1035.4,32.8,303.8,1017.871,-3.5135468000000003,3361.4,0.2398897,0.07127617,-0.16821955,0.03344901,-2.1346295,0.03349352,57590.0,23789.0,30000.0,-114.0,-336.0,-7.0,0,None
2023-01-01 17:11:04.550,433.0820000000001,0.1040000000000076,100.0,1203.0,24270.0,4887.0,98.0,1247.6,164.6,4885.4,116.04164,5.2150112,0.2222599666666666,-0.1525767999999999,-2.1798930000000003,57.68,0.2232998333333333,-0.1452158999999999,-2.1275356666666667,0.6123872400000001,1.1898144,9.0516208,70.2,52.2,-243.4,100.2,-29.8,164.2,-1074.8,-24.8,298.4,1017.8338,-3.5508282,3361.6,0.2232998333333333,-0.0213723133333333,-0.1452158999999999,0.0407401333333333,-2.1275356666666667,-0.0308799446666666,57700.0,23804.0,30110.0,-100.0,-240.0,-1.0,0,None
2023-01-01 17:11:05.100,433.6566666666667,0.103333333333334,100.0,1209.0,24268.0,4867.0,98.0,1301.6666666666667,166.5,4881.833333333333,115.67683333333332,5.2703835,0.2267092666666666,-0.1589617333333333,-2.186185333333334,57.79,0.2321514999999999,-0.1530617333333333,-2.131991333333333,0.6233504,1.2431113333333332,11.173531166666669,67.0,-15.833333333333334,-244.3333333333333,72.16666666666667,18.33333333333333,160.66666666666666,-1044.8333333333333,8.833333333333334,310.1666666666667,1017.8228333333336,-3.5616145,3362.0,0.2321514999999999,0.0270234833333333,-0.1530617333333333,-0.0421731099999999,-2.131991333333333,0.0156295199999999,57790.0,23780.0,30200.0,-79.0,-159.0,-21.0,0,None
2023-01-01 17:11:05.650,434.2099999999999,0.0999999999999999,100.0,1265.0,24118.0,4896.0,98.0,1314.8,168.4,4884.8,115.28383999999998,5.3297534,0.2360921,-0.1583279,-2.1864565,57.835,0.2451790999999999,-0.151528,-2.130048,0.6568943999999999,1.2339308,9.3937714,106.6,55.0,-242.2,90.6,55.6,159.2,-1032.8,-12.8,297.0,1017.7926,-3.5918750000000004,3363.0,0.2451790999999999,0.09756089,-0.151528,0.105482485,-2.130048,-0.0150861099999999,57830.0,23801.0,30240.0,-78.0,-82.0,-23.0,0,None
2023-01-01 17:11:06.200,434.738,0.1039999999999963,100.0,1230.0,24234.0,4893.0,98.0,1156.4,170.4,4885.0,114.8749,5.3907704,0.2470099333333333,-0.10713902,-2.1964613333333336,57.91,0.2574709666666666,-0.1019602466666666,-2.1389883333333333,0.5843783800000001,1.4829928,14.205288,0.0,61.7,-250.6,117.1,-38.4,184.3,-1066.6,-23.1,303.2,1017.733,-3.6517421,3363.0,0.2574709666666666,-0.0818619966666666,-0.1019602466666666,0.1166316366666666,-2.1389883333333333,-0.005637087,57900.0,23743.0,30310.0,-55.0,-14.0,-29.0,1,27_xacc_avg_constant_0
2023-01-01 17:11:06.750,435.2833333333333,0.0999999999999942,100.0,1050.5,24301.5,4895.5,98.0,1047.1666666666667,171.83333333333334,4814.666666666667,114.42015000000002,5.457007833333333,0.1751024,-0.1057893333333333,-2.201969666666667,58.01,0.1865673999999999,-0.1016035666666666,-2.1423983333333334,0.7369590333333335,1.5024128333333333,14.3238,0.0,-19.33333333333333,-241.16666666666663,115.83333333333331,-150.83333333333334,179.83333333333334,-1053.6666666666667,-6.833333333333333,302.0,1017.7403333333332,-3.6441015,3363.833333333333,0.1865673999999999,-0.1629252333333333,-0.1016035666666666,-0.01216556,-2.1423983333333334,-0.0013649036666666,57990.0,23711.0,30400.0,-13.0,34.0,-36.0,1,27_xacc_avg_constant_0
2023-01-01 17:11:07.300,435.834,0.0999999999999999,100.0,894.0,24361.0,4895.0,98.0,1023.2,173.4,4884.0,113.94299999999998,5.5240078,0.1275622,-0.11910695,-2.198542,58.04,0.14054495,-0.1155926999999999,-2.137267,0.90121142,1.5548822,13.97769,0.0,-31.0,-212.0,89.2,-47.6,173.8,-1094.4,0.4,328.8,1017.7338,-3.650812600000001,3364.0,0.14054495,0.011672833,-0.1155926999999999,-0.0328063365,-2.137267,0.0093113049999999,58040.0,23748.0,30450.0,1.0,49.0,-36.0,1,27_xacc_avg_constant_0
2023-01-01 17:11:07.850,436.3933333333334,0.103333333333334,100.0,719.0,24340.0,4759.0,98.0,936.5,175.0,4886.0,113.45566666666666,5.593368000000001,0.1213658666666666,-0.117559,-2.195938333333333,58.06333333333333,0.1351202,-0.1142416666666666,-2.132793,1.0068930333333337,1.5181726666666666,13.917048333333334,0.0,25.166666666666668,-212.0,122.83333333333331,32.833333333333336,179.16666666666666,-1083.6666666666667,1.3333333333333333,329.8333333333333,1017.7253333333332,-3.6592838333333337,3364.5,0.1351202,-0.0859149599999999,-0.1142416666666666,0.0500066999999999,-2.132793,-0.0170279,58060.0,23781.0,30470.0,-2.0,47.0,-41.0,1,27_xacc_avg_constant_0
2023-01-01 17:11:08.400,436.9582,0.1040000000000076,100.0,736.0,24405.0,4890.0,98.0,910.0,176.4,4893.0,112.96712,5.667624,0.1240592333333333,-0.1059056733333333,-2.202173,58.086666666666666,0.1362448333333333,-0.10373206,-2.136492333333333,0.9631229200000002,1.7254082,15.048568,0.0,15.0,-219.6,98.6,-21.4,162.2,-996.8,-11.8,324.0,1017.7404,-3.6440624,3365.0,0.1362448333333333,-0.08660823,-0.10373206,0.0950523566666666,-2.136492333333333,-0.0037307486666666,58080.0,23781.0,30490.0,2.0,46.0,-48.0,1,27_xacc_avg_constant_0
2023-01-01 17:11:08.950,437.4716,0.1004000000000018,100.0,1099.0,24259.0,4900.0,98.0,900.8,177.8,4836.0,112.54806,5.735893,0.1068904,-0.11614615,-2.206996,58.07,0.11791285,-0.11490405,-2.139246,0.9555359,1.8178418,15.373234,0.0,-24.0,-207.8,84.6,-30.4,174.6,-1063.6,-5.4,318.6,1017.7638,-3.6206876,3365.4,0.11791285,0.035104655,-0.11490405,0.00728307,-2.139246,-0.03687535,58080.0,23754.0,30490.0,11.0,51.0,-43.0,1,27_xacc_avg_constant_0
2023-01-01 17:11:09.500,438.022,0.0999999999999942,100.0,772.0,24395.0,4872.0,98.0,772.6666666666666,179.0,4872.166666666667,112.18495,5.799514833333333,0.08472839,-0.1114958666666666,-2.209235333333333,58.04333333333333,0.0959123133333333,-0.1093014666666666,-2.1403016666666663,1.0020126,1.9301635,15.24902,0.0,16.666666666666668,-200.66666666666663,110.66666666666669,-19.83333333333333,181.3333333333333,-1041.3333333333333,-5.333333333333333,338.6666666666667,1017.7580000000002,-3.626471333333333,3366.0,0.0959123133333333,0.0006571866666666,-0.1093014666666666,0.07502977,-2.1403016666666663,0.01205435,58045.0,23749.5,30455.0,11.5,51.5,-35.5,1,27_xacc_avg_constant_0
2023-01-01 17:11:10.050,438.572,0.0999999999999999,100.0,1344.0,24185.0,4890.0,98.0,909.8,180.4,4894.0,111.85795999999998,5.8612544,0.0860800966666666,-0.1031959566666666,-2.206035,58.01333333333333,0.09771396,-0.1022423,-2.135607333333333,1.06430616,1.8733150000000005,15.071418,0.0,4.6,-200.2,129.8,44.2,177.4,-969.0,-16.6,335.6,1017.735,-3.6494532,3366.0,0.09771396,0.0346647166666666,-0.1022423,0.0401625966666666,-2.135607333333333,-0.0227273786666666,58000.0,23740.0,30410.0,7.0,29.0,-34.0,1,27_xacc_avg_constant_0
2023-01-01 17:11:10.600,439.122,0.1000000000000037,100.0,910.0,24236.0,4900.0,98.0,904.8333333333334,181.66666666666663,4825.166666666667,111.5559,5.922882,0.09254596,-0.1035068033333333,-2.213105333333333,57.99,0.1024235166666666,-0.1026771866666666,-2.141184,0.95387815,1.718873833333333,15.110216666666668,0.0,-2.0,-197.8333333333333,75.33333333333333,-9.5,182.8333333333333,-1088.8333333333333,10.666666666666666,335.5,1017.7758333333333,-3.6086588333333336,3366.1666666666665,0.1024235166666666,-0.0315116766666666,-0.1026771866666666,0.01091905,-2.141184,0.0014601879999999,57990.0,23729.0,30400.0,7.0,18.0,-41.0,1,27_xacc_avg_constant_0
2023-01-01 17:11:11.150,439.6719999999999,0.0999999999999999,100.0,884.0,24380.0,4896.0,98.0,1003.6,183.4,4894.4,111.27736,5.982383199999999,0.102348975,-0.11146195,-2.2046205,57.94,0.1130733,-0.110126,-2.131444,1.02121916,1.6457592,14.174504000000002,0.0,41.8,-200.8,67.8,27.0,166.0,-1175.4,15.2,322.2,1017.7818,-3.6025312,3366.6,0.1130733,0.01852005,-0.110126,0.0613061199999999,-2.131444,0.0220896705,57940.0,23803.0,30350.0,-2.0,2.0,-35.0,1,27_xacc_avg_constant_0
2023-01-01 17:11:11.700,440.2219999999999,0.0999999999999942,100.0,771.0,24418.0,4896.0,98.0,941.5,184.66666666666663,4894.666666666667,111.02978333333334,6.0375681666666665,0.1259926666666666,-0.1085302666666666,-2.205051,57.91333333333333,0.1351691,-0.1068525333333333,-2.1295256666666664,0.9812914500000002,1.8139083333333328,15.868558333333333,0.0,-27.166666666666668,-215.3333333333333,119.33333333333331,12.833333333333334,170.83333333333334,-986.5,-3.333333333333333,329.1666666666667,1017.79,-3.594713166666667,3366.833333333333,0.1351691,-0.0037874596666666,-0.1068525333333333,-0.02166812,-2.1295256666666664,-0.0073531429999999,57910.0,23805.0,30320.0,-2.0,-6.0,-27.0,1,27_xacc_avg_constant_0
2023-01-01 17:11:12.250,440.7720000000001,0.0999999999999999,100.0,1105.0,24276.0,4896.0,98.0,1058.4,186.2,4890.0,110.79078,6.0911814,0.1371206999999999,-0.1151619,-2.203076,57.91,0.1466439666666666,-0.1134131333333333,-2.127835,1.02797888,1.822256,14.015756,0.0,-17.4,-210.4,98.0,7.4,188.8,-901.2,24.8,324.8,1017.7644,-3.6201718,3367.0,0.1466439666666666,-0.09323362,-0.1134131333333333,-0.0008830066666666,-2.127835,-0.0207419266666666,57910.0,23800.0,30320.0,-4.0,-10.0,-34.0,1,27_xacc_avg_constant_0
2023-01-01 17:11:12.800,441.32200000000006,0.1000000000000037,100.0,930.0,24311.5,4894.5,98.0,918.3333333333334,187.66666666666663,4894.0,110.5408,6.14638,0.1514108333333333,-0.09747165,-2.215705,57.91666666666666,0.1607665666666666,-0.09464932,-2.1394100000000003,1.0728699333333334,1.543017833333333,13.345495,0.0,35.5,-214.0,45.5,37.333333333333336,183.5,-1054.5,-40.16666666666666,317.6666666666667,1017.8213333333332,-3.5632551666666665,3367.0,0.1607665666666666,0.0758275666666666,-0.09464932,0.0056840542999999,-2.1394100000000003,-0.0373265499999999,57920.0,23771.0,30330.0,-3.0,-2.0,-29.0,1,27_xacc_avg_constant_0
2023-01-01 17:11:13.350,441.872,0.0999999999999999,100.0,1069.0,24274.0,4896.0,98.0,1002.2,189.2,4892.4,110.27642,6.2019024,0.1243482,-0.09973382,-2.226661,57.89,0.13433135,-0.096716815,-2.1486425,0.8823260600000001,1.2857218,11.2291258,0.0,-1.4,-217.6,72.0,-32.2,178.6,-1078.4,-2.4,316.6,1017.854,-3.5305624,3367.2,0.13433135,-0.015678602,-0.096716815,0.0110320595,-2.1486425,-0.010460589,57900.0,23681.0,30310.0,4.0,13.0,-30.0,1,27_xacc_avg_constant_0
2023-01-01 17:11:13.900,442.422,0.1000000000000037,100.0,1003.0,24314.0,4867.0,98.0,1044.3333333333333,190.66666666666663,4885.333333333333,110.01148333333332,6.254044166666667,0.1157136333333333,-0.0774078233333333,-2.224108,57.84,0.1275499999999999,-0.0736039933333333,-2.144819666666667,0.8920094166666667,1.405712,10.297631666666666,0.0,49.333333333333336,-212.8333333333333,74.0,-21.5,183.8333333333333,-1086.1666666666667,-13.333333333333334,323.8333333333333,1017.8366666666668,-3.547812333333333,3367.0,0.1275499999999999,-0.0266335633333333,-0.0736039933333333,0.05051417,-2.144819666666667,-0.0031233366666666,57850.0,23724.0,30260.0,0.0,19.0,-26.0,1,27_xacc_avg_constant_0
2023-01-01 17:11:14.450,442.972,0.0999999999999999,100.0,1024.0,24200.0,4896.0,98.0,993.8,192.4,4891.4,109.742,6.3036278,0.1082425333333333,-0.0694323066666666,-2.2301553333333333,57.81666666666666,0.1201226999999999,-0.0661539566666666,-2.148863333333333,0.8426730600000001,1.6591846,11.62615,0.0,12.0,-213.2,94.8,-5.8,190.2,-992.8,8.2,323.6,1017.8834,-3.5011094,3367.6,0.1201226999999999,-0.0793709166666666,-0.0661539566666666,-0.0262668233333333,-2.148863333333333,-0.0133833366666666,57820.0,23683.0,30230.0,8.0,16.0,-20.0,1,27_xacc_avg_constant_0
2023-01-01 17:11:15.000,443.522,0.0999999999999942,100.0,864.0,24331.0,4890.0,98.0,887.3333333333334,193.66666666666663,4887.833333333333,109.45876666666663,6.3505226666666665,0.08749963,-0.0950503766666666,-2.2386706666666663,57.79,0.09913715,-0.09089813,-2.1561346666666665,0.9872085166666666,1.5627284999999995,14.437488333333333,0.0,-30.83333333333333,-210.5,111.0,20.5,182.16666666666663,-958.6666666666666,-22.0,352.0,1017.8638333333332,-3.5206770000000005,3367.833333333333,0.09913715,-0.0253530399999999,-0.09089813,-0.01830621,-2.1561346666666665,-0.0042732836666666,57795.0,23666.5,30205.0,28.0,13.0,-13.0,1,27_xacc_avg_constant_0
2023-01-01 17:11:15.550,444.072,0.0999999999999999,100.0,1083.0,24250.0,4748.0,98.0,910.6,195.2,4804.8,109.18980000000002,6.3937512,0.077752965,-0.1059166,-2.2374955,57.785,0.08967688,-0.102030175,-2.153755,0.99672902,1.4070839999999998,13.542354,0.0,-7.8,-196.0,127.0,50.8,179.8,-1038.8,11.4,331.2,1017.8516,-3.5330624,3368.0,0.08967688,0.0369313599999999,-0.102030175,-0.04366489,-2.153755,0.02412933,57790.0,23675.0,30200.0,26.0,0.0,-21.0,1,27_xacc_avg_constant_0
2023-01-01 17:11:16.100,444.622,0.1000000000000037,100.0,906.0,24335.0,4893.0,98.0,985.6666666666666,196.5,4891.833333333333,108.95221666666669,6.433016833333333,0.08087823,-0.1076213333333333,-2.2367943333333336,57.79,0.0926001333333333,-0.1029414633333333,-2.1515463333333336,0.8930125666666667,1.4465081666666668,12.596295,0.0,7.333333333333333,-200.66666666666663,59.66666666666666,29.33333333333333,168.0,-953.8333333333334,-0.6666666666666666,326.6666666666667,1017.874,-3.5104296666666666,3368.0,0.0926001333333333,-0.0195918386666666,-0.1029414633333333,-0.0238373766666666,-2.1515463333333336,0.0091416066666666,57790.0,23680.0,30200.0,16.0,2.0,-13.0,1,27_xacc_avg_constant_0
2023-01-01 17:11:16.650,445.1719999999999,0.0999999999999999,100.0,932.0,24353.0,4890.0,98.0,906.4,198.2,4831.2,108.73818,6.470617,0.0795750433333333,-0.0982633233333333,-2.237638,57.78,0.0923135933333333,-0.0940397366666666,-2.151211,0.95589708,1.3609487999999998,12.740531999999998,0.0,24.4,-204.2,47.0,33.8,179.2,-1128.0,0.4,346.8,1017.8568,-3.5278436,3368.0,0.0923135933333333,0.0914472533333333,-0.0940397366666666,0.0632029933333333,-2.151211,0.0059354046666666,57780.0,23672.0,30190.0,2.0,0.0,-15.0,1,27_xacc_avg_constant_0
2023-01-01 17:11:17.200,445.7219999999999,0.0999999999999942,100.0,1064.0,24101.0,4903.0,98.0,1091.3333333333333,199.5,4873.166666666667,108.54483333333332,6.506964666666668,0.1036612,-0.07979605,-2.235167666666667,57.79,0.1170205333333333,-0.0774140466666666,-2.146975,0.9303502166666666,1.5047726666666663,11.311616166666669,0.0,25.166666666666668,-208.66666666666663,61.66666666666666,63.5,178.83333333333334,-953.0,14.166666666666666,320.1666666666667,1017.7831666666666,-3.6013148333333334,3368.0,0.1170205333333333,0.0369834966666666,-0.0774140466666666,0.05727348,-2.146975,0.0104033133333333,57780.0,23680.0,30190.0,-7.0,-15.0,-21.0,1,27_xacc_avg_constant_0
2023-01-01 17:11:17.750,446.2720000000001,0.0999999999999999,100.0,1283.0,24171.0,4875.0,98.0,1319.8,201.4,4895.0,108.34364,6.541620399999999,0.1275878999999999,-0.07878702,-2.2338025,57.8,0.1395114,-0.076198235,-2.1441915,0.8911847399999999,1.3154211999999998,13.248012,0.0,-7.4,-216.2,84.8,21.4,187.6,-1079.2,2.2,308.6,1017.802,-3.5822966000000003,3368.0,0.1395114,-0.0027263599999999,-0.076198235,0.02812786,-2.1441915,-0.00637850955,57800.0,23722.0,30210.0,0.0,-24.0,-27.0,1,27_xacc_avg_constant_0
2023-01-01 17:11:18.300,446.82200000000006,0.1000000000000037,100.0,1102.5,24264.0,4887.5,98.0,889.3333333333334,203.16666666666663,4898.0,108.13631666666669,6.575378333333333,0.1249584333333333,-0.1008280533333333,-2.241184333333333,57.836666666666666,0.1367362333333333,-0.0978189199999999,-2.150266333333333,0.7869907333333334,1.6031345,13.56596,0.0,-41.333333333333336,-219.8333333333333,51.16666666666666,6.666666666666667,176.16666666666666,-996.5,-5.166666666666667,332.6666666666667,1017.792,-3.5924998333333336,3368.6666666666665,0.1367362333333333,-0.0505104266666666,-0.0978189199999999,-0.0690948534666666,-2.150266333333333,0.0163509313333333,57830.0,23667.0,30240.0,8.0,-25.0,-10.0,1,27_xacc_avg_constant_0
2023-01-01 17:11:18.850,447.372,0.0999999999999999,100.0,886.0,24320.0,4901.0,98.0,947.4,204.4,4894.8,107.92458000000002,6.609328,0.1337199666666666,-0.1039138333333333,-2.2408213333333333,57.903333333333336,0.1457385333333333,-0.0995201433333333,-2.148797333333333,1.03338204,1.559457,11.866996,0.0,46.2,-220.6,110.0,-16.0,165.8,-1118.0,-18.6,312.2,1017.8314,-3.5533124000000003,3368.2,0.1457385333333333,-0.0235250106666666,-0.0995201433333333,0.10962617,-2.148797333333333,2.0683633333333045e-05,57900.0,23680.0,30310.0,7.0,-6.0,-18.0,1,27_xacc_avg_constant_0
2023-01-01 17:11:19.400,447.922,0.1000000000000037,100.0,958.0,24158.0,4896.0,98.0,971.1666666666666,206.0,4899.2,107.7031,6.645298,0.1211679,-0.0794790466666666,-2.2363440000000003,57.873333333333335,0.1343233,-0.0751200966666666,-2.142991666666666,1.0195856833333332,1.516246166666667,12.229588333333332,0.0,46.16666666666666,-218.66666666666663,117.83333333333331,-62.16666666666666,178.33333333333334,-1178.6666666666667,-2.6666666666666665,320.3333333333333,1017.7996666666664,-3.584843666666666,3369.0,0.1343233,0.0165994233333333,-0.0751200966666666,0.0321024266666666,-2.142991666666666,-0.0013416736666666,57880.0,23705.0,30290.0,7.0,7.0,-19.0,1,27_xacc_avg_constant_0
2023-01-01 17:11:19.950,448.472,0.0999999999999999,100.0,864.0,24309.0,4896.0,98.0,991.0,207.4,4893.4,107.47794000000002,6.6812242,0.11408285,-0.06582303,-2.2397505,57.86,0.12806185,-0.0623762,-2.145322,0.8820824,1.5842666,12.568796,0.0,3.4,-212.8,92.6,-49.0,182.8,-1157.2,-9.0,306.2,1017.7982,-3.5862344,3369.0,0.12806185,0.0241413599999999,-0.0623762,0.0042571849999999,-2.145322,-0.012026484,57870.0,23721.0,30280.0,10.0,6.0,-28.0,1,27_xacc_avg_constant_0
2023-01-01 17:11:20.500,449.022,0.0999999999999942,100.0,1007.0,24302.0,4887.0,98.0,1036.0,208.8333333333333,4896.166666666667,107.25748333333333,6.713917500000001,0.1120296333333333,-0.0791664233333333,-2.23955,57.85666666666666,0.1260091,-0.07512547,-2.143499,0.9295391166666668,1.5738626666666669,12.796455,0.0,-13.333333333333334,-215.5,125.5,-30.166666666666668,183.3333333333333,-1151.6666666666667,0.6666666666666666,315.0,1017.8288333333334,-3.555924333333333,3369.0,0.1260091,0.0109553,-0.07512547,-0.0274079133333333,-2.143499,-0.0021925589999999,57850.0,23716.0,30260.0,19.0,2.0,-21.0,1,27_xacc_avg_constant_0
2023-01-01 17:11:21.050,449.572,0.0999999999999999,100.0,1120.0,24257.0,4877.0,98.0,1049.0,210.6,4897.2,107.0352,6.744809200000001,0.1079386333333333,-0.0775441299999999,-2.2483706666666663,57.830000000000005,0.1222597,-0.07362065,-2.150213,0.7611156400000001,1.4789298,12.1731234,0.0,-19.0,-214.4,84.4,16.0,176.8,-1018.0,-14.8,321.6,1017.8564,-3.5279686,3369.0,0.1222597,-0.0331315333333333,-0.07362065,-0.0391768843333333,-2.150213,-0.024936711,57830.0,23674.0,30240.0,27.0,6.0,-17.0,1,27_xacc_avg_constant_0
2023-01-01 17:11:21.600,450.122,0.1000000000000037,100.0,1015.0,24300.0,4896.0,98.0,925.1666666666666,212.0,4870.666666666667,106.8032,6.775395666666667,0.0985306066666666,-0.08231275,-2.255416333333333,57.82,0.1127059666666666,-0.0782432166666666,-2.156203666666667,1.040725116666667,1.4019255000000002,10.757860333333332,110.16666666666669,38.5,-210.5,78.5,16.333333333333332,184.16666666666663,-1028.5,-3.1666666666666665,314.6666666666667,1017.8636666666666,-3.520859166666668,3369.0,0.1127059666666666,-0.02031042,-0.0782432166666666,0.04406648,-2.156203666666667,-0.010202253,57820.0,23643.0,30230.0,23.0,13.0,-20.0,0,None
2023-01-01 17:11:22.150,450.6719999999999,0.0999999999999999,100.0,881.0,24253.0,4753.0,98.0,898.2,213.4,4840.2,106.57532,6.804785400000002,0.08206943,-0.06927267,-2.2587065,57.81,0.0964974899999999,-0.0656088049999999,-2.1583115,0.96010742,1.4044952,11.672300000000002,93.8,-10.4,-209.0,22.2,-34.0,183.4,-1169.0,-17.0,333.2,1017.8978,-3.486875,3369.0,0.0964974899999999,-0.0257232399999999,-0.0656088049999999,-0.069483715,-2.1583115,-0.0146628649999999,57810.0,23637.0,30220.0,28.0,18.0,-11.0,0,None
2023-01-01 17:11:22.700,451.2219999999999,0.0999999999999942,100.0,801.0,24349.0,4900.0,98.0,907.6666666666666,214.66666666666663,4891.333333333333,106.37783333333334,6.831062166666666,0.0616808166666666,-0.0781843033333333,-2.264615333333333,57.78333333333333,0.0757255499999999,-0.0742636199999999,-2.162402666666667,0.9968297833333332,1.4261526666666668,11.802298333333331,97.83333333333331,28.166666666666668,-205.66666666666663,61.333333333333336,4.166666666666667,181.8333333333333,-898.0,-4.0,329.8333333333333,1017.8826666666668,-3.501770666666667,3369.0,0.0757255499999999,-0.11324624,-0.0742636199999999,0.0192097466666666,-2.162402666666667,-0.0059245915799999,57780.0,23612.0,30190.0,25.0,22.0,-18.0,0,None
2023-01-01 17:11:23.250,451.7720000000001,0.0999999999999999,100.0,619.0,24423.0,4893.0,98.0,773.8,216.2,4811.2,106.20444,6.854169200000001,0.0519295066666666,-0.07941801,-2.271344666666667,57.75333333333333,0.0668280666666666,-0.0759262466666666,-2.1680113333333337,1.0644053,1.405235,12.864992,44.8,-34.0,-196.2,109.6,20.8,192.6,-1183.2,-18.6,344.6,1017.9006,-3.4841252000000003,3369.0,0.0668280666666666,0.0262858899999999,-0.0759262466666666,-0.09090357,-2.1680113333333337,-0.0106033186666666,57750.0,23583.0,30160.0,13.0,15.0,-14.0,0,None
2023-01-01 17:11:23.800,452.32200000000006,0.1000000000000037,100.0,893.5,24297.5,4892.0,98.0,910.5,217.5,4888.5,106.05143333333332,6.874215,0.06203588,-0.0618033733333333,-2.275498,57.73333333333333,0.0769073133333333,-0.05838571,-2.170279333333333,0.9895346000000002,1.4406286666666663,12.419378333333334,66.5,38.16666666666666,-199.3333333333333,98.16666666666669,57.833333333333336,172.5,-1103.0,5.333333333333333,323.5,1017.864,-3.520624833333333,3369.333333333333,0.0769073133333333,0.0616145233333333,-0.05838571,0.0227512299999999,-2.170279333333333,0.0157170133333333,57730.0,23558.0,30140.0,1.0,6.0,-12.0,0,None
2023-01-01 17:11:24.350,452.872,0.0999999999999999,100.0,953.0,24178.0,4890.0,98.0,898.2,218.8,4888.2,105.90874,6.88973,0.08695342,-0.04824133,-2.265629,57.745000000000005,0.09434035,-0.0442631099999999,-2.160297,1.0336378,1.213985,10.0366764,98.2,39.2,-207.0,36.8,40.6,190.8,-947.4,22.2,327.8,1017.8882,-3.49625,3369.0,0.1003773,0.05431611,-0.0451578,0.02012719,-2.159145,-0.006081364,57740.0,23609.0,30150.0,-2.0,-1.0,-19.0,0,None
2023-01-01 17:11:24.900,453.422,0.1000000000000037,100.0,760.0,24377.0,4888.0,98.0,837.1666666666666,220.3333333333333,4865.0,105.76626666666668,6.901161999999999,0.0858244433333333,-0.0360428566666666,-2.271682333333333,57.75,0.0981244766666666,-0.0340899533333333,-2.1640650000000003,1.0237186,1.3742151666666669,11.304462833333332,65.66666666666667,6.666666666666667,-213.0,75.33333333333333,10.0,180.16666666666663,-1070.6666666666667,-28.33333333333333,321.5,1017.8785,-3.506028666666666,3369.1666666666665,0.0981244766666666,-0.04476692,-0.0340899533333333,0.0757038033333333,-2.1640650000000003,-0.0169944899999999,57750.0,23626.0,30160.0,6.0,1.0,-12.0,0,None
2023-01-01 17:11:25.450,453.972,0.0999999999999999,100.0,1266.0,24210.0,4882.0,98.0,979.0,221.4,4888.6,105.6137,6.909224,0.0685571866666666,-0.06167264,-2.2892153333333334,57.73666666666667,0.08013864,-0.0591990566666666,-2.178584666666667,1.01736752,1.449372,11.4337676,41.0,-66.6,-209.0,90.4,-29.2,181.8,-1115.8,-13.8,334.8,1017.888,-3.4967814,3369.0,0.08013864,0.0714494633333333,-0.0591990566666666,-0.0639388066666666,-2.178584666666667,-0.0037531033333333,57740.0,23542.0,30150.0,27.0,1.0,-9.0,0,None
2023-01-01 17:11:26.000,454.522,0.0999999999999942,100.0,839.0,24198.0,4903.0,98.0,1071.1666666666667,223.16666666666663,4894.0,105.45756666666666,6.914503333333333,0.0381987333333333,-0.0808116933333333,-2.2770716666666666,57.70666666666667,0.0506539933333333,-0.0774982766666666,-2.1662233333333334,0.7479015166666666,1.3729091666666668,12.433082333333331,72.33333333333333,-9.833333333333334,-197.16666666666663,49.333333333333336,-38.16666666666666,184.0,-1039.1666666666667,20.83333333333333,323.8333333333333,1017.8515,-3.5329036666666664,3369.333333333333,0.0506539933333333,-0.08563732,-0.0774982766666666,-0.0647643966666666,-2.1662233333333334,0.02325878,57715.0,23575.0,30125.0,28.0,-6.0,-21.5,0,None
2023-01-01 17:11:26.550,455.072,0.0999999999999999,100.0,879.0,24331.0,4874.0,98.0,897.8,224.6,4893.6,105.31858,6.918364,0.053512635,-0.078988435,-2.2648295000000003,57.75,0.066971685,-0.07450691,-2.1532245000000003,0.81199854,1.1773926,10.5442778,97.0,33.2,-190.0,8.4,26.8,183.4,-1149.2,-1.6,343.8,1017.86,-3.5245467999999995,3369.2,0.066971685,0.1422948,-0.07450691,0.01441919,-2.1532245000000003,0.0089724999999999,57770.0,23651.0,30180.0,3.0,-11.0,-11.0,0,None
2023-01-01 17:11:27.100,455.622,0.1000000000000037,100.0,939.0,24297.0,4755.0,98.0,810.3333333333334,225.8333333333333,4893.5,105.2108,6.920942,0.0700712066666666,-0.0666067433333333,-2.2718776666666667,57.79,0.0822959866666666,-0.0637824966666666,-2.159266,1.0010251166666666,1.5523981666666666,11.082276666666669,53.5,26.33333333333333,-206.16666666666663,86.0,77.66666666666667,185.3333333333333,-994.1666666666666,-7.0,336.8333333333333,1017.8608333333332,-3.523737,3369.5,0.0822959866666666,0.1152276533333333,-0.0637824966666666,-0.0437388233333333,-2.159266,-0.003469749,57800.0,23623.0,30210.0,2.0,-6.0,-10.0,0,None
2023-01-01 17:11:27.650,456.1719999999999,0.0999999999999999,100.0,1254.0,24249.0,4903.0,98.0,906.2,227.2,4890.8,105.11362,6.923038000000001,0.0733664966666666,-0.0521751133333333,-2.286621,57.81666666666666,0.0846443633333333,-0.04991158,-2.1724643333333336,0.96520228,1.508642,11.5281608,36.2,22.6,-212.6,35.6,-30.0,174.6,-1010.8,-22.6,339.4,1017.8486,-3.5359218,3369.8,0.0846443633333333,-0.0174280933333333,-0.04991158,0.08927186,-2.1724643333333336,-0.0419366933333333,57820.0,23533.0,30230.0,11.0,0.0,-23.0,0,None
2023-01-01 17:11:28.200,456.7219999999999,0.0999999999999942,100.0,953.0,24256.0,4896.0,98.0,1003.0,228.66666666666663,4825.5,105.00953333333332,6.924752000000001,0.0459658433333333,-0.0568049166666666,-2.2819776666666667,57.79999999999999,0.05828973,-0.0544626333333333,-2.166415,0.8623231166666666,1.402475,10.402697333333332,65.33333333333333,41.0,-201.3333333333333,68.66666666666667,-10.666666666666666,178.5,-1047.3333333333333,11.833333333333334,319.6666666666667,1017.8371666666668,-3.5472916666666663,3369.833333333333,0.05828973,-0.0495213633333333,-0.0544626333333333,0.0607000333333333,-2.166415,0.0125584147666666,57800.0,23592.0,30210.0,6.0,1.0,-23.0,0,None
2023-01-01 17:11:28.750,457.2720000000001,0.0999999999999999,100.0,730.0,24232.0,4764.0,98.0,740.6,230.0,4894.4,104.9094,6.9253478,0.06214378,-0.04741849,-2.2913585,57.81,0.07434175,-0.0448838,-2.175261,1.0393725,1.5371244,10.6099556,-2.2,-10.4,-198.2,48.2,25.8,194.8,-1085.0,-27.6,331.6,1017.8866,-3.4977968000000006,3370.0,0.07434175,0.0686557535,-0.0448838,-0.0157514149999999,-2.175261,-0.032009485,57810.0,23552.0,30220.0,3.0,0.0,-16.0,0,None
2023-01-01 17:11:29.300,457.82200000000006,0.1000000000000037,100.0,708.5,24386.0,4900.5,98.0,857.8333333333334,231.3333333333333,4869.333333333333,104.81566666666669,6.924184666666666,0.0505077033333333,-0.0491992799999999,-2.2961690000000003,57.79666666666666,0.06128605,-0.0467281566666666,-2.1795986666666667,1.092057616666667,1.4164351666666668,11.76536,38.333333333333336,-27.0,-198.16666666666663,24.0,-12.0,192.0,-1017.5,-8.833333333333334,324.6666666666667,1017.8121666666668,-3.5723306666666663,3369.5,0.06128605,-0.0521037233333333,-0.0467281566666666,0.0059780433333333,-2.1795986666666667,-0.0107811173333333,57790.0,23528.0,30200.0,10.0,1.0,-27.0,0,None
2023-01-01 17:11:29.850,458.372,0.0999999999999999,100.0,1083.0,24268.0,4896.0,98.0,999.2,232.6,4842.4,104.72136,6.921499399999999,0.0631297066666666,-0.0435978733333333,-2.29332,57.81666666666666,0.0749697933333333,-0.0411070133333333,-2.1754513333333336,0.8728077599999999,1.4649046,10.6006376,66.8,54.8,-205.4,46.2,43.8,191.2,-1101.2,32.8,322.2,1017.8102,-3.5741248,3370.0,0.0749697933333333,-0.02513262,-0.0411070133333333,0.0343719546666666,-2.1754513333333336,0.0547982566666666,57810.0,23499.0,30220.0,5.0,-4.0,-25.0,0,None
2023-01-01 17:11:30.400,458.922,0.1000000000000037,100.0,615.0,24392.0,4900.0,98.0,847.5,234.16666666666663,4894.5,104.62453333333332,6.917099666666665,0.0783623566666666,-0.0352753966666666,-2.278188666666667,57.830000000000005,0.0888567233333333,-0.03246744,-2.158895333333333,0.86177255,1.5697826666666668,13.492018333333332,47.16666666666666,2.6666666666666665,-206.16666666666663,47.333333333333336,2.1666666666666665,187.16666666666663,-1123.5,3.333333333333333,316.3333333333333,1017.8201666666664,-3.5644530000000003,3370.0,0.0888567233333333,0.0460405766666666,-0.03246744,0.04778492,-2.158895333333333,0.004855316,57810.0,23645.0,30220.0,13.0,-12.0,-20.0,0,None
2023-01-01 17:11:30.950,459.472,0.0999999999999999,100.0,549.0,24308.0,4874.0,98.0,629.2,235.2,4869.6,104.52032,6.9113546,0.07640925,-0.08122636,-2.280743,57.875,0.08579542,-0.07763637,-2.1608285,1.1898528000000002,1.9976224,11.74478,19.0,-57.2,-204.0,19.0,-104.8,173.8,-1063.2,-15.6,331.8,1017.8346,-3.5501874,3370.2,0.08579542,-0.089626095,-0.07763637,0.05377855,-2.1608285,-0.019625385,57860.0,23614.0,30270.0,28.0,-4.0,-12.0,0,None
2023-01-01 17:11:31.500,460.022,0.0999999999999942,100.0,948.0,24301.0,4900.0,98.0,783.5,236.3333333333333,4898.166666666667,104.41696666666668,6.905793333333333,0.0307728366666666,-0.06940551,-2.274896666666667,57.86666666666667,0.0415033966666666,-0.0644970666666666,-2.154185333333333,1.0634581166666668,1.545905,10.3886955,18.666666666666668,56.333333333333336,-189.0,12.166666666666666,-36.0,183.16666666666663,-1029.8333333333333,1.5,344.3333333333333,1017.8928333333332,-3.4917055,3370.0,0.0415033966666666,0.0287559633333333,-0.0644970666666666,0.0285240199999999,-2.154185333333333,0.0049530999999999,57860.0,23634.5,30270.0,16.5,18.5,-20.0,0,None
2023-01-01 17:11:32.050,460.5728,0.1002000000000065,100.0,685.0,24388.0,4896.0,98.0,586.0,237.4,4897.6,104.33068,6.8999014,0.0293342633333333,-0.03156285,-2.281286666666667,57.81333333333333,0.0399708033333333,-0.0283511666666666,-2.1605396666666667,1.07297048,1.834182,11.6203054,-5.4,6.6,-185.0,-33.0,39.4,195.8,-948.8,17.8,332.6,1017.915,-3.4694996,3370.2,0.0399708033333333,0.0118757493333333,-0.0283511666666666,-0.0134732533333333,-2.1605396666666667,0.03363665,57800.0,23648.0,30210.0,16.0,24.0,-16.0,0,None
