00000_Time_epoch,00000_Time_boot_sec,00000_Span_Time_boot_sec,1_battery_remaining_avg,1_current_battery_avg,1_voltage_battery_avg,125_Vcc_avg,147_battery_remaining_avg,147_current_battery_avg,147_current_consumed_avg,165_Vcc_avg,168_direction_avg,168_speed_avg,178_pitch_avg,178_roll_avg,178_yaw_avg,182_altitude_avg,182_pitch_avg,182_roll_avg,182_yaw_avg,241_vibration_x_avg,241_vibration_y_avg,241_vibration_z_avg,27_xacc_avg,27_xgyro_avg,27_xmag_avg,27_yacc_avg,27_ygyro_avg,27_ymag_avg,27_zacc_avg,27_zgyro_avg,27_zmag_avg,29_press_abs_avg,29_press_diff_avg,29_temperature_avg,30_pitch_avg,30_pitchspeed_avg,30_roll_avg,30_rollspeed_avg,30_yaw_avg,30_yawspeed_avg,33_alt_avg,33_hdg_avg,33_relative_alt_avg,33_vx_avg,33_vy_avg,33_vz_avg,label,diagnosis
2023-01-03 15:54:11,209.186,-0.2399999999999948,100.0,81.0,24956.0,4866.0,99.0,78.0,43.0,4879.5,-147.6794,0.21246955,-0.004805044,-0.01654001,-1.2409475,25.696666666666665,-0.0003302070833333,-0.0122120933333333,-1.2502096666666669,0.02358366,0.02611738,0.04264457,-18.0,1.0,76.0,2.0,4.0,258.0,-1078.0,0.0,339.0,1018.668,-0.1815625,3031.0,-0.0003302070833333,0.0043047778333333,-0.0122120933333333,0.0038260103333332,-1.2502096666666669,-0.0006533969083333,25700.0,28837.5,-80.0,5.0,9.5,-31.5,0,None
2023-01-03 15:54:12,210.246,0.5300000000000011,100.0,72.0,24949.0,4874.0,99.0,60.0,43.0,4872.0,-149.39159999999998,0.19812125,-0.0044084241666666,-0.0166708141666666,-1.2398995833333335,25.530833333333334,-1.9645164166666663e-05,-0.0121012575,-1.24991275,0.0249904,0.026817745,0.04261192,-17.5,2.5,76.5,2.0,4.0,257.5,-1080.5,0.0,339.0,1018.7005,-0.149375,3032.5,-1.9645164166666663e-05,0.0043273784166666,-0.0121012575,0.00274302075,-1.24991275,-0.00034216395,25525.0,28839.5,-255.0,5.0,10.5,-33.5,0,None
2023-01-03 15:54:13,211.046,0.539999999999992,100.0,70.0,24929.0,4861.0,99.0,74.0,43.0,4866.0,-149.4901,0.2353999,-0.004865556,-0.016895815,-1.2386655,25.41,0.000229625,-0.01207103,-1.249284,0.02629258,0.0258607,0.03338185,-16.0,0.0,76.0,13.0,4.0,258.0,-1080.0,0.0,340.0,1018.685,-0.1642969,3034.0,0.000229625,0.000196036,-0.01207103,0.005452627,-1.249284,0.029978035,25410.0,28839.0,-370.0,5.0,12.0,-35.0,0,None
2023-01-03 15:54:14,211.817,0.5105000000000075,100.0,736.0,24695.0,4866.5,99.0,736.0,44.0,4873.0,-148.96335,0.2839302,0.00204477285,-0.0170352274999999,-1.2396354166666668,25.35666666666667,0.0065911767085,-0.0122132583333332,-1.2500153333333333,0.58479725,0.50529825,1.2715599,-39.5,6.5,77.5,30.0,3.5,247.5,-1124.0,-5.0,320.5,1018.785,-0.064648425,3035.5,0.0065911767085,0.055164495,-0.0122132583333332,0.0178584103333333,-1.2500153333333333,0.0037086816666666,25370.0,28835.0,-410.0,2.5,13.0,-12.5,0,None
2023-01-03 15:54:15,212.857,0.519999999999996,100.0,1714.5,24297.75,4867.25,99.0,1647.0,48.0,4862.5,-150.68765000000002,0.3554154,0.0014137691666667,-0.0112550611666666,-1.2245561666666664,26.29,0.0054769223333333,-0.0062891288333333,-1.2338621666666665,0.3347217999999999,1.10973915,5.3117535,-12.75,47.5,63.25,-27.75,-50.25,249.75,-1222.75,-11.25,311.75,1018.65875,-0.1910156,3038.5,0.0054769223333333,-0.02531881,-0.0062891288333333,-0.0048369239999999,-1.2338621666666665,-0.0022732768333332,26295.0,28945.0,515.0,-5.5,21.0,133.5,0,None
2023-01-03 15:54:16,213.877,0.5100000000000051,100.0,1588.0,24276.5,4869.0,99.0,1721.0,52.5,4874.0,-153.44835,0.4344671,-0.0366428508333332,0.0078719786566666,-1.2287939166666666,29.039166666666667,-0.0311338425,0.0116119298333332,-1.25449425,0.35155725,1.4165415,2.9339495,-5.0,1.5,75.5,4.0,-5.0,271.0,-1153.5,-24.0,306.5,1018.2225,-0.6272656000000001,3040.5,-0.0311338425,0.0193420774999999,0.0116119298333332,0.0150344691666667,-1.25449425,-0.0171329725,28970.0,28821.0,3190.0,-7.5,1.5,270.0,0,None
2023-01-03 15:54:17,214.877,0.5,100.0,1101.0,24451.0,4871.5,99.0,1455.5,57.0,4866.5,-153.82819999999998,0.4579885,-0.0057696405,0.0180586929166666,-1.2342068333333334,32.345,-7.877858333334934e-05,0.0221564803333332,-1.27518625,0.44597025,1.0156716,5.111124,11.0,-46.0,67.5,-25.0,89.0,272.0,-974.5,-14.0,305.0,1017.864,-0.9856641,3042.5,-7.877858333334934e-05,0.0794648334999999,0.0221564803333332,0.0577750766666666,-1.27518625,-0.0360982164999999,32300.0,28690.5,6520.0,3.5,-36.0,281.5,0,None
2023-01-03 15:54:18,215.878,0.5004999999999882,100.0,990.0,24446.0,4867.5,99.0,902.5,60.0,4874.0,-154.93425000000002,0.4401905,0.0504964799999999,0.0350724916666666,-1.2458778333333331,34.48833333333334,0.0530060108333332,0.0402038858333333,-1.28530475,0.7232059,0.65104105,3.0436105,21.0,29.5,35.5,-52.5,-5.5,252.0,-946.5,34.5,315.0,1017.6225,-1.2271869999999998,3045.0,0.0530060108333332,-0.0212586195,0.0402038858333333,0.0504888983333333,-1.28530475,0.0237852615,34480.0,28632.5,8700.0,14.0,-27.5,101.5,0,None
2023-01-03 15:54:19,216.878,0.5,100.0,1115.0,24419.0,4870.5,99.0,1055.0,62.5,4876.0,-158.6557,0.399891,0.0600837741666666,0.0199404441666666,-1.2380916666666666,35.079166666666666,0.0631041183333332,0.02588795,-1.2751416666666668,0.4658428,0.9729802,3.3207735,29.0,-12.0,45.5,-51.0,10.5,258.5,-1044.5,-2.0,304.5,1017.5305,-1.3190235,3046.5,0.0631041183333332,0.0058917276666666,0.02588795,-0.00016839425,-1.2751416666666668,-0.0264374358333333,35075.0,28696.0,9295.0,13.5,-0.5,5.0,0,None
2023-01-03 15:54:20,217.878,0.5,100.0,1124.0,24403.0,4873.0,99.0,1117.0,66.0,4878.5,-167.97475,0.34879075,0.0519199925,0.0178635675,-1.262497,35.27166666666666,0.0563868383333333,0.0249955508333333,-1.297621083333333,0.40683605,1.403124,6.8185985,9.0,44.5,43.5,-46.5,2.0,267.5,-1010.5,-37.0,321.5,1017.4975,-1.3519925,3049.5,0.0563868383333333,-0.0103106737499999,0.0249955508333333,0.0232196708333333,-1.297621083333333,-0.0165240654999999,35265.0,28563.0,9485.0,3.5,30.0,-17.0,0,None
2023-01-03 15:54:21,218.888,0.5100000000000051,100.0,899.5,24439.5,4798.0,99.0,1087.0,69.0,4880.0,170.1125,0.3185658,0.0202655164999999,0.040114825,-1.2769714166666666,35.33833333333334,0.0255541489999999,0.0462165758333333,-1.3096155833333332,0.4307313,1.017135,7.3376705,21.5,-35.5,55.5,-42.5,-27.5,271.0,-985.5,0.5,318.5,1017.494,-1.3558979999999998,3051.5,0.0255541489999999,-0.0392634521666666,0.0462165758333333,0.0386574549999999,-1.3096155833333332,-0.0083986975833333,35330.0,28502.5,9550.0,4.5,39.0,-27.0,0,None
2023-01-03 15:54:22,219.928,0.519999999999996,100.0,1090.0,24388.5,4866.5,99.0,1078.0,72.0,4875.0,147.09555,0.32908835,0.0326145141666666,0.0155615451666666,-1.2698419166666666,35.337500000000006,0.03664034,0.0220077471666667,-1.29914975,0.56910955,0.7462749,5.009993,21.5,-157.0,39.0,-69.5,51.5,265.5,-1045.0,71.5,309.5,1017.469,-1.3805075,3053.5,0.03664034,0.0175347341666666,0.0220077471666667,-0.0408840333333332,-1.29914975,0.0367053588333333,35335.0,28536.0,9555.0,25.0,27.0,-35.0,0,None
2023-01-03 15:54:23,220.938,0.5,100.0,1112.0,24383.0,4866.5,99.0,1111.5,75.0,4876.0,129.37935,0.37775735,0.0336545149999999,0.0015484539999999,-1.24280725,35.292500000000004,0.0374893567666666,0.0084854535,-1.27052975,0.3138784,1.2797033999999998,3.64858,4.0,84.0,66.0,-73.0,-46.0,245.5,-1064.5,16.0,332.5,1017.4945,-1.3551175,3055.5,0.0374893567666666,-0.0471652970166665,0.0084854535,0.0496264958333333,-1.27052975,0.0016094464166667,35295.0,28725.0,9515.0,-2.5,39.0,-35.5,0,None
2023-01-03 15:54:24,221.938,0.5,100.0,1095.5,24307.0,4875.5,99.0,1075.0,78.0,4876.0,118.3212,0.4387891,-0.0123471695833332,0.0156716391666666,-1.2650219166666663,35.27,-0.0072626370333333,0.0212985849999999,-1.2913208333333333,0.4130469,1.1889755000000002,4.2432035,6.5,57.0,56.5,-44.5,-156.0,267.5,-1154.5,-44.0,314.5,1017.5015,-1.34832,3057.5,-0.0072626370333333,-0.0820139916666665,0.0212985849999999,0.0154253180583333,-1.2913208333333333,-0.0423553599999999,35275.0,28607.0,9495.0,-10.0,29.0,-33.0,0,None
2023-01-03 15:54:25,222.938,0.5,100.0,1396.0,24265.0,4870.0,99.0,1225.5,81.0,4863.5,110.62585,0.49155275,-0.16557785,0.0358595008833333,-1.2858173333333334,35.26083333333332,-0.158023925,0.0408461725,-1.310425333333333,0.41691535,1.270202,8.879996,-11.5,-32.5,103.0,-5.5,16.0,241.5,-1165.5,19.0,273.0,1017.4985,-1.3510545,3059.5,-0.158023925,-0.0917702508333333,0.0408461725,-0.0076205766666666,-1.310425333333333,0.02807609825,35260.0,28487.5,9480.0,29.5,-56.5,-11.5,0,None
2023-01-03 15:54:26,223.938,0.5,100.0,1290.0,24218.0,4802.0,99.0,1436.5,85.0,4785.5,104.62555,0.5547579,-0.1215455583333333,-0.0339438741666666,-1.255616,35.958333333333336,-0.1167531633333333,-0.0277454991666666,-1.2777186666666664,0.32503885,1.7697185,4.917247,-25.5,11.5,90.0,-65.0,43.5,244.0,-1099.0,-15.0,304.5,1017.428,-1.4216795,3061.5,-0.1167531633333333,0.0613459833333333,-0.0277454991666666,-0.0435863991666667,-1.2777186666666664,0.0048678004999999,35940.0,28680.5,10160.0,74.5,-235.0,86.0,0,None
2023-01-03 15:54:27,224.958,0.5100000000000051,100.0,1418.5,24210.0,4867.5,99.0,1277.5,88.0,4877.0,100.14346,0.6190568000000001,-0.1370504666666666,-0.0227298283333332,-1.2593455,37.21166666666667,-0.1338831666666666,-0.0166029016666666,-1.2803719166666667,0.5036434999999999,1.02468415,3.009648,-17.5,-7.5,102.0,-31.0,-10.5,262.0,-1122.5,19.5,316.5,1017.2925,-1.5570309999999998,3063.5,-0.1338831666666666,-0.0144597133333333,-0.0166029016666666,-0.000555616,-1.2803719166666667,-0.005080784,37180.0,28664.5,11400.0,75.0,-357.5,104.0,0,None
2023-01-03 15:54:28,225.978,0.5100000000000051,100.0,1318.0,24186.0,4872.5,99.0,1466.5,92.0,4882.0,96.621545,0.68075705,-0.1163825283333332,-0.0162388383333333,-1.2633754166666669,38.825833333333335,-0.1133775266666666,-0.009305903,-1.2836340833333333,0.3466284,1.3513295,5.1216055,-30.5,-17.5,100.5,-42.5,30.0,255.5,-1090.0,-13.0,290.0,1017.065,-1.7847265,3065.5,-0.1133775266666666,0.0314022451666666,-0.009305903,0.0128257016666667,-1.2836340833333333,0.0016635087499999,38795.0,28647.5,13015.0,89.0,-483.0,157.0,0,None
2023-01-03 15:54:29,227.028,0.539999999999992,100.0,1263.5,24224.0,4803.0,99.0,1244.0,96.0,4809.0,93.61554,0.7458284500000001,-0.0985798983333333,-0.026146841,-1.2581153333333333,40.725,-0.0968085941666666,-0.0181701141666666,-1.2790344166666667,0.4224961,1.1985639,5.432683,-25.0,47.5,94.5,-0.5,8.5,240.5,-1057.0,26.0,299.5,1016.8405,-2.008906,3067.5,-0.0968085941666666,0.00926437,-0.0181701141666666,0.0277213233333332,-1.2790344166666667,0.0089074345166666,40665.0,28670.0,14885.0,88.0,-570.5,160.0,0,None
2023-01-03 15:54:30,228.098,0.5300000000000011,100.0,1177.0,24196.5,4874.5,99.0,1238.0,100.0,4800.5,91.22243,0.81240405,-0.0783974816666666,0.0173661711666666,-1.2611756666666665,42.650000000000006,-0.0761828091666666,0.0250445208333332,-1.28243725,0.3723906,1.393153,5.648202,-52.0,-62.0,88.0,-13.5,7.0,251.0,-1100.5,-58.0,301.0,1016.605,-2.2448825,3069.5,-0.0761828091666666,0.016717107,0.0250445208333332,0.0528599141666666,-1.28243725,-0.0243162593333333,42595.0,28656.0,16815.0,97.0,-641.5,158.0,0,None
2023-01-03 15:54:31,229.148,0.519999999999996,100.0,1139.5,24249.0,4795.5,99.0,1211.0,103.5,4875.5,89.289845,0.8795971,-0.0669191483333332,0.0259514766666666,-1.264139583333333,44.55666666666667,-0.0655289458333333,0.0352367274999999,-1.2853759166666667,0.5339682,0.90159645,6.395481,-51.5,4.5,91.0,5.5,-48.5,263.0,-1132.0,-5.0,301.5,1016.4295,-2.4202345000000003,3071.5,-0.0655289458333333,-0.0383460808333333,0.0352367274999999,0.0128780241666666,-1.2853759166666667,-0.0124020316283333,44480.0,28642.0,18700.0,123.0,-664.5,156.0,0,None
2023-01-03 15:54:32,230.208,0.5300000000000011,100.0,1298.5,24220.5,4866.0,99.0,1317.0,107.0,4861.0,87.505405,0.9623481,-0.0772009366666666,-0.0027883530833333,-1.2801078333333331,46.43333333333333,-0.0738567649999999,0.0065381394849999,-1.30113725,0.4716942,0.9991265,5.097728999999999,-46.0,-40.5,92.0,4.0,-51.0,233.0,-1156.0,-32.5,275.0,1016.185,-2.6645315,3073.5,-0.0738567649999999,0.0518825175,0.0065381394849999,-0.0102203866666667,-1.30113725,-0.0009188260833333,46330.0,28540.5,20550.0,143.5,-703.0,156.5,0,None
2023-01-03 15:54:33,231.248,0.5200000000000102,100.0,1304.5,24153.5,4800.5,99.0,1248.0,111.0,4867.5,86.37861000000001,1.0453145,-0.0356563875,0.00635738535,-1.2664076666666666,48.395833333333336,-0.0333253641666666,0.0154430310833333,-1.2870123333333334,0.47264615,1.1812195,6.038542,-55.0,108.5,77.5,-51.0,21.5,262.0,-1059.5,14.5,309.5,1015.958,-2.891875,3076.0,-0.0333253641666666,0.0347660824999999,0.0154430310833333,0.0382750875,-1.2870123333333334,0.0192200656666667,48300.0,28623.0,22520.0,137.5,-731.0,159.0,0,None
2023-01-03 15:54:34,232.028,0.5199999999999818,100.0,1263.0,24200.0,4869.0,99.0,1264.0,114.0,4867.0,85.90647,1.124332,-0.01754358,0.01583616,-1.2646075,49.900000000000006,-0.014557315,0.02363076,-1.284443,0.4011255,1.073509,5.387326,-46.0,-2.0,69.0,-46.0,66.0,236.0,-1121.0,-50.0,280.0,1015.748,-3.10125,3077.0,-0.014557315,0.054587585,0.02363076,0.01245048,-1.284443,-0.006608317,49780.0,28645.0,24000.0,142.0,-730.0,155.0,0,None
2023-01-03 15:54:35,232.828,0.5300000000000011,100.0,1228.5,24209.0,4872.5,99.0,1190.0,116.0,4870.5,85.902455,1.2232835,0.0255295643333333,0.0008051365333333,-1.26606175,51.33833333333334,0.0275190086666666,0.0093674305833332,-1.2856770000000002,0.48871345,1.0759561999999998,3.4408295,-50.75,-54.0,60.0,-6.0,80.75,232.5,-1075.25,-30.5,293.0,1015.59625,-3.253633,3078.75,0.0275190086666666,0.08311961975,0.0093674305833332,-0.0050475365,-1.2856770000000002,0.0040162370833333,51260.0,28630.0,25480.0,144.0,-715.5,136.0,0,None
2023-01-03 15:54:36,233.8885,0.5400000000000063,100.0,1117.75,24203.25,4869.25,99.0,1093.5,119.5,4872.5,86.25913,1.3718075,0.1322676833333332,0.0068515266333333,-1.2754916666666667,52.508333333333326,0.1340484933333333,0.0144385686666666,-1.2939058333333335,0.47354215,1.09165965,3.312661,-21.0,45.5,14.5,18.5,23.0,258.0,-1058.0,-12.0,322.5,1015.3985,-3.4514065,3081.0,0.1340484933333333,0.0536309916666666,0.0144385686666666,0.0268342731666666,-1.2939058333333335,-0.0123389045833333,52440.0,28589.5,26660.0,113.0,-631.5,49.0,0,None
2023-01-03 15:54:37,234.899,0.4904999999999972,100.0,1311.5,24217.5,4881.0,99.0,1264.0,123.5,4886.0,86.502735,1.4993715,0.1275215833333333,0.0457334474999999,-1.2835205833333334,53.19916666666667,0.130506825,0.0519263025,-1.2992441666666663,0.4446025999999999,0.9802149,3.5517410000000003,-11.0,7.0,14.5,-35.5,-31.0,264.5,-1088.0,-4.5,302.5,1015.319,-3.5303905,3083.0,0.130506825,-0.0289476791666666,0.0519263025,0.0411655833333333,-1.2992441666666663,-0.0098025720833333,53090.0,28554.0,27310.0,82.5,-483.0,39.5,0,None
2023-01-03 15:54:38,235.899,0.5,100.0,1313.5,24176.5,4806.5,99.0,1280.0,127.0,4876.0,86.618955,1.621474,0.1367459166666666,0.0377175966666666,-1.2750996666666667,53.8775,0.1426538416666666,0.0443099408333332,-1.2874641666666666,0.3959772,0.95947195,3.407713,-7.0,1.5,14.5,-14.0,48.5,272.5,-1093.5,2.0,313.5,1015.2375,-3.6121485,3085.5,0.1426538416666666,0.0574918649999999,0.0443099408333332,-0.0046953211666666,-1.2874641666666666,0.01224048175,53760.0,28606.0,27980.0,84.5,-357.5,44.0,0,None
2023-01-03 15:54:39,236.899,0.5,100.0,1267.5,24176.0,4887.5,99.0,1313.5,131.0,4887.5,86.68623,1.7398,0.1713793583333333,0.0366832975,-1.2726960833333332,54.605,0.1764897833333333,0.0431813625,-1.2836089166666669,0.30365215,1.001013,4.001523,0.0,16.0,-4.0,21.5,36.0,257.0,-1138.0,10.0,295.5,1015.143,-3.7065625,3087.0,0.1764897833333333,0.0297314674999999,0.0431813625,0.0204615591666666,-1.2836089166666669,-0.0018235787499999,54490.0,28650.5,28710.0,70.5,-230.5,40.0,1,27_xacc_avg_constant_0
2023-01-03 15:54:40,237.899,0.5,100.0,1374.0,24193.5,4889.0,99.0,1280.0,134.0,4887.0,86.857205,1.857836,0.2177827749999999,-0.0027176811666666,-1.26419525,55.32333333333334,0.2232876666666666,0.0030142950249999,-1.274289,0.39415435,1.4735939999999998,8.9972555,0.0,47.5,-6.0,-10.0,7.5,238.5,-1089.0,-25.5,302.0,1015.003,-3.8466015,3088.5,0.2232876666666666,0.0527025616666666,0.0030142950249999,-0.0364822749999999,-1.274289,0.0083760344666666,55200.0,28678.5,29420.0,59.5,-99.0,35.0,1,27_xacc_avg_constant_0
2023-01-03 15:54:41,238.8995,0.5005000000000024,100.0,1135.5,24243.5,4884.0,99.0,1132.5,138.0,4883.0,87.307995,1.979952,0.1426681716666666,0.0234395289166666,-1.2679789166666668,56.057500000000005,0.1505776266666666,0.0279506716666666,-1.2792547499999998,0.5709104,1.3903219999999998,5.7619585,0.0,-8.5,21.5,-26.5,-97.0,264.5,-1092.0,-5.5,306.5,1014.964,-3.885508,3090.5,0.1505776266666666,-0.1209885666666666,0.0279506716666666,0.0738412633333333,-1.2792547499999998,-0.0201662954166666,55940.0,28689.0,30160.0,0.5,23.0,34.5,1,27_xacc_avg_constant_0
2023-01-03 15:54:42,240.186,0.2639999999999986,100.0,722.5,24312.0,4887.5,99.0,854.6,141.6,4884.0,88.043908,2.1434892,0.0727099038888888,0.0180918594444444,-1.2813798333333335,56.71888888888889,0.0814738994444444,0.0207298972222222,-1.293857611111111,1.05278716,1.19249508,9.7185296,0.0,-2.0,36.0,-23.0,2.0,262.2,-991.8,-12.8,332.6,1014.9198,-3.9298594,3092.8,0.0814738994444444,0.0599458753333333,0.0207298972222222,-0.0083927403888888,-1.293857611111111,-0.013835542,56670.0,28598.33333333333,30890.0,-1.6666666666666667,52.333333333333336,8.333333333333334,1,27_xacc_avg_constant_0
2023-01-03 15:54:43,241.02,0.0999999999999999,100.0,863.5,24355.5,4884.0,99.0,900.3,144.0,4859.5,88.502252,2.2459616,0.056129568,0.0112641742,-1.2946304,56.69199999999999,0.06403823,0.0131768184,-1.308222,1.0190272500000002,1.3266318,9.426556700000004,0.0,-5.7,41.4,-23.7,-2.8,256.6,-1082.3,-8.8,322.4,1014.9271,-3.9224062,3094.5,0.06403823,0.0011407055999999,0.0131768184,-0.0142332514563999,-1.308222,0.0005968669999999,56670.0,28497.5,30890.0,1.5,46.5,-36.0,1,27_xacc_avg_constant_0
2023-01-03 15:54:44,242.05419999999995,0.1039999999999991,100.0,880.0,24309.0,4794.5,99.0,964.9,146.7,4848.9,88.981134,2.3488710000000004,0.0676728599999999,-0.005319078,-1.2757561999999998,56.552,0.074445924,-0.0027261373999999,-1.2896798,0.8570632399999999,1.4001335,10.3399865,0.0,-23.65,43.45,4.75,13.05,256.1,-1119.65,22.1,334.4,1014.924,-3.9258163,3096.3,0.074445924,-0.040017522,-0.0027261373999999,-0.011246252,-1.2896798,0.0445083439999999,56550.0,28616.5,30770.0,3.0,38.0,-25.5,1,27_xacc_avg_constant_0
2023-01-03 15:54:45,243.0501111111111,0.1066666666666675,100.0,977.5,24324.5,4876.5,99.0,877.7777777777778,149.22222222222223,4878.666666666667,89.44459,2.439637111111111,0.059806078,0.0039789651999999,-1.280957,56.592000000000006,0.0657590099999999,0.0071962161999999,-1.2964192,0.8924369888888888,1.2824529999999998,10.033666555555556,0.0,54.888888888888886,45.0,-32.22222222222222,-15.555555555555555,254.0,-1026.2222222222222,-25.55555555555556,323.8888888888889,1014.8724444444445,-3.9770572222222222,3098.222222222222,0.0657590099999999,-0.0282431919999999,0.0071962161999999,0.03305712,-1.2964192,-0.0268188684,56600.0,28544.0,30820.0,-19.5,28.5,-23.5,1,27_xacc_avg_constant_0
2023-01-03 15:54:46,243.9991111111111,0.1045555555555557,100.0,838.0,24368.0,4877.0,99.0,915.6666666666666,151.55555555555554,4874.777777777777,89.85140333333332,2.5122972222222217,0.048996255,0.0243562725,-1.288469,56.64,0.0552656324999999,0.0266769225,-1.30460075,0.8259772888888889,1.1583453111111113,9.190401,0.0,-5.5,45.0,-40.66666666666666,9.5,269.6666666666667,-1097.388888888889,11.11111111111111,315.05555555555554,1014.8811111111112,-3.968558944444444,3099.8888888888887,0.0552656324999999,0.04825867325,0.0266769225,-0.023932496,-1.30460075,0.0048581389999999,56640.0,28529.0,30860.0,-7.0,11.0,-32.0,1,27_xacc_avg_constant_0
2023-01-03 15:54:47,244.9844,0.1039999999999991,100.0,879.0,24286.0,4880.0,99.0,881.9,153.9,4861.1,90.09743,2.5816751,0.058130882,0.017801156,-1.2849976,56.648,0.064624616,0.021668724,-1.3006932,0.8139198299999999,1.10907357,9.6150686,0.0,12.5,41.3,-38.0,1.3,264.5,-1035.1,-12.3,320.4,1014.8521,-3.9975702000000006,3101.6,0.064624616,0.0284525556,0.021668724,0.0162367044,-1.3006932,-0.0061105928,56640.0,28543.5,30860.0,-1.0,-4.0,-37.0,1,27_xacc_avg_constant_0
2023-01-03 15:54:48,246.001,0.0999999999999999,100.0,914.5,24286.5,4882.0,99.0,927.1,156.7,4852.8,90.24087,2.6448844,0.069863066,0.022686738,-1.2805356,56.634,0.07612851,0.0278346039999999,-1.295659,0.6657729,1.085065,7.909898,0.0,2.3,36.0,-40.9,-9.9,265.2,-1076.7,3.8,320.0,1014.8565,-3.9933202,3103.5,0.07612851,-0.0142211458,0.0278346039999999,-0.00126135,-1.295659,0.0095410094,56625.0,28603.5,30845.0,3.0,-4.0,-37.5,1,27_xacc_avg_constant_0
2023-01-03 15:54:49,247.001,0.0999999999999999,100.0,896.0,24290.5,4795.5,99.0,952.9,159.2,4841.4,90.321218,2.7045981999999995,0.0662494939999999,0.016440892,-1.272886,56.574,0.073610744,0.022123276,-1.2878485999999998,0.69786394,1.2505261099999998,8.692111,0.0,4.0,40.9,-25.1,-15.1,260.3,-1096.3,7.1,319.3,1014.8739,-3.9757423,3105.1,0.073610744,-0.0141259542,0.022123276,0.0048521856,-1.2878485999999998,0.0059791012,56545.0,28624.5,30765.0,4.5,-5.0,-38.5,1,27_xacc_avg_constant_0
2023-01-03 15:54:50,248.001,0.0999999999999999,100.0,1014.0,24290.5,4886.5,98.5,966.8,162.0,4886.0,90.390778,2.7627084,0.074127848,0.0173841899999999,-1.267907,56.502,0.082376536,0.024126866,-1.2827836,0.6099469899999999,1.0605609299999998,7.8469289,0.0,2.3,39.1,-25.3,19.9,258.4,-1034.4,-7.1,313.3,1014.8544000000002,-3.9951482,3106.7,0.082376536,0.0151856199999999,0.024126866,-0.016646344,-1.2827836,-0.00641442418,56495.0,28647.5,30715.0,5.0,-4.5,-35.0,1,27_xacc_avg_constant_0
2023-01-03 15:54:51,249.001,0.0999999999999999,100.0,854.0,24315.0,4887.0,98.0,954.1,164.6,4871.6,90.45137200000002,2.820602,0.072206212,0.0100814989999999,-1.2744228,56.45,0.080057596,0.016984968,-1.2893116,0.8221452200000001,1.1378573900000002,9.2093059,0.0,0.4,37.3,-38.9,-7.5,258.0,-1110.1,-11.0,319.2,1014.8779,-3.9716015000000007,3108.5,0.080057596,-0.019015314,0.016984968,-0.0014229401999999,-1.2893116,-0.0161013802,56430.0,28602.5,30650.0,1.5,0.5,-34.0,1,27_xacc_avg_constant_0
2023-01-03 15:54:52,250.001,0.0999999999999999,100.0,955.0,24289.5,4886.5,98.0,962.6,167.2,4887.5,90.52635200000002,2.877881,0.084767192,0.0251782419999999,-1.2735344,56.39399999999999,0.093970694,0.032252822,-1.2882250000000002,0.7110960199999999,1.07786861,8.4026006,0.0,17.2,33.0,-44.3,30.2,267.0,-1073.6,7.7,315.9,1014.8458,-4.0039219,3110.3,0.093970694,0.035742924,0.032252822,0.02103749,-1.2882250000000002,0.0079256798,56390.0,28635.5,30610.0,0.0,-3.5,-34.0,1,27_xacc_avg_constant_0
2023-01-03 15:54:53,251.001,0.0999999999999999,100.0,989.5,24248.5,4872.5,98.0,959.5,170.0,4885.3,90.600482,2.9361116,0.08876666,0.027689282,-1.2684951999999998,56.386,0.0975777519999999,0.034454764,-1.2835428,0.75135329,1.0895258500000002,8.461097800000001,65.5,-8.4,37.1,-33.6,-28.5,263.6,-1108.3,-4.3,307.7,1014.8614,-3.988171799999999,3111.9,0.0975777519999999,-0.0379965248,0.034454764,0.0003814652,-1.2835428,-0.0038564321999999,56375.0,28647.5,30595.0,8.5,9.0,-34.0,0,None
2023-01-03 15:54:54,252.001,0.0999999999999999,100.0,944.0,24295.0,4885.0,98.0,947.0,172.6,4840.8,90.610558,2.9981518,0.07816151,0.0099167278,-1.2667733999999995,56.322,0.0876547479999999,0.01702271,-1.2821734,0.68033168,1.15075096,10.8998354,61.8,0.4,39.3,-45.6,21.4,252.1,-1020.9,-12.7,313.8,1014.8744,-3.9753124,3113.6,0.0876547479999999,0.0071231839999999,0.01702271,-0.00912218272,-1.2821734,-0.0200601128,56300.0,28663.0,30520.0,8.0,11.5,-34.0,0,None
2023-01-03 15:54:55,253.001,0.0999999999999999,100.0,992.5,24280.0,4874.5,98.0,932.3,175.2,4865.4,90.629502,3.0597972,0.08465181,0.0138250533999999,-1.2678526,56.252,0.094216794,0.020562098,-1.2838732,0.71984914,1.17337233,11.1576745,69.9,11.1,37.5,-17.7,-10.9,257.3,-1135.8,-4.9,316.2,1014.8574,-3.9922654,3115.2,0.094216794,-0.0219704979999999,0.020562098,-0.0020903384,-1.2838732,-5.811344000000024e-05,56230.0,28639.0,30450.0,1.0,11.5,-30.5,0,None
2023-01-03 15:54:56,254.001,0.0999999999999999,100.0,964.5,24258.5,4803.0,98.0,906.5,177.8,4846.8,90.677798,3.1201316,0.0811752319999999,0.0199423039999999,-1.2700698,56.174,0.090427324,0.026328442,-1.2862763999999998,0.8351311999999999,1.2175348,10.6270101,66.1,-0.7,35.8,-33.2,-5.6,266.3,-1079.5,-4.7,329.3,1014.871,-3.9787811,3117.2,0.090427324,-0.0053775558,0.026328442,0.0031419283999999,-1.2862763999999998,-0.004059036,56135.0,28626.5,30355.0,1.0,15.0,-32.0,0,None
2023-01-03 15:54:57,255.027,0.1060000000000002,100.0,781.0,24363.5,4872.0,98.0,878.3,180.2,4864.8,90.727294,3.1789684,0.074711238,0.01960638,-1.2772736,56.072,0.084302314,0.026153654,-1.2930662,0.7425402200000001,1.2059248000000002,9.054303699999998,61.0,20.55,38.4,-39.45,0.8,261.15,-1061.05,-7.25,323.9,1014.8795,-3.9702266,3118.8,0.084302314,0.0137891994,0.026153654,-0.0131010266,-1.2930662,-0.0077200426,56045.0,28575.5,30265.0,-1.0,21.0,-35.5,0,None
2023-01-03 15:54:58,256.011,0.1000000000000006,100.0,989.5,24216.0,4817.0,98.0,902.5555555555557,182.66666666666663,4839.888888888889,90.76007111111112,3.232436222222222,0.0602655999999999,0.025373012,-1.2785196,55.968,0.070261198,0.031380752,-1.2946972,0.8175746777777778,1.1905507222222222,10.242861111111113,61.888888888888886,-18.444444444444443,40.77777777777778,-37.44444444444444,-5.0,266.44444444444446,-1051.7777777777778,-5.666666666666667,308.77777777777777,1014.8803333333332,-3.9693314444444447,3120.222222222222,0.070261198,0.0455413546,0.031380752,0.0071579127999999,-1.2946972,-0.0004340848799999,55950.0,28590.0,30170.0,5.0,17.0,-39.0,0,None
2023-01-03 15:54:59,256.975,0.1019999999999981,100.0,903.5,24318.5,4887.0,98.0,966.8,185.1,4889.1,90.739119,3.2827211,0.073729012,0.018686228,-1.283572,55.834,0.083305542,0.02506903,-1.2992372,0.66143131,1.08479326,8.020632299999999,71.8,19.1,32.6,-67.1,43.7,263.8,-1068.1,-3.6,326.2,1014.8645,-3.9850079,3121.9,0.083305542,0.0537067672,0.02506903,0.0240892088,-1.2992372,-0.0049925015999999,55850.0,28560.5,30070.0,4.5,11.0,-31.5,0,None
2023-01-03 15:55:00,258.0271,0.108000000000004,100.0,1043.5,24209.5,4888.0,98.0,961.0,188.0,4885.3,90.691324,3.3326482000000004,0.0693744039999999,0.036734758,-1.285929,55.752,0.0786017619999999,0.043418234,-1.300695,0.67616731,1.04152929,7.489732999999999,60.75,6.15,25.9,-36.0,-16.55,267.0,-1076.35,8.9,313.25,1014.8677,-3.981996,3123.4,0.0786017619999999,-0.0553672416199999,0.043418234,0.0438569817999999,-1.300695,0.0105405044,55760.0,28541.5,29980.0,1.0,6.0,-33.5,0,None
2023-01-03 15:55:01,259.0443333333333,0.1066666666666643,100.0,880.5,24298.0,4891.0,98.0,942.2222222222222,190.66666666666663,4879.777777777777,90.60649333333336,3.378917888888888,0.0722705219999999,0.0170751892,-1.278752,55.65599999999999,0.0815187679999999,0.0243825459999999,-1.2926338000000002,0.6781312333333332,1.1089100111111112,7.88184088888889,65.33333333333333,-17.77777777777778,37.22222222222222,-33.77777777777778,-6.111111111111111,264.6666666666667,-1091.888888888889,8.555555555555555,310.6666666666667,1014.871,-3.978689222222222,3125.0,0.0815187679999999,0.0274422559999999,0.0243825459999999,-0.00400244064,-1.2926338000000002,0.0119864551999999,55680.0,28584.0,29900.0,14.5,10.0,-34.5,0,None
2023-01-03 15:55:02,260.04900000000004,0.104000000000002,100.0,983.5,24247.5,4888.0,98.0,943.8,193.2,4883.0,90.50892000000002,3.4213004,0.071321804,0.0234157279999999,-1.278605,55.602,0.080842652,0.030944336,-1.2932324,0.63784871,1.06847892,7.0729714,58.5,24.05,35.6,-39.8,17.35,261.5,-1090.7,-1.45,325.05,1014.88475,-3.96503115,3126.65,0.0819969374999999,0.00239780625,0.028819115,0.0291097025,-1.29228375,0.0072413376174999,55620.0,28587.5,29840.0,6.0,8.5,-33.0,0,None
2023-01-03 15:55:03,261.0577777777778,0.1066666666666643,100.0,1061.0,24249.0,4815.0,98.0,1054.4444444444443,196.22222222222223,4888.555555555556,90.41424777777776,3.465215222222222,0.0840554175,0.0204553175,-1.2704862499999998,55.56,0.0933211475,0.02767683,-1.28451825,0.581689788888889,1.115051511111111,7.363071666666666,65.22222222222223,-7.222222222222222,33.55555555555556,-56.77777777777778,0.8888888888888888,253.11111111111111,-1023.5555555555557,-4.0,316.22222222222223,1014.8135555555556,-4.036171777777778,3128.111111111112,0.0933211475,0.027157326,0.02767683,-0.0073539587499999,-1.28451825,0.00553622975,55565.0,28624.5,29785.0,3.5,9.0,-36.5,0,None
2023-01-03 15:55:04,262.01133333333337,0.1044444444444441,100.0,973.5,24266.5,4883.5,98.0,969.5555555555557,198.77777777777777,4873.777777777777,90.33353222222225,3.5040848888888885,0.073097074,0.03965644,-1.2741238,55.576,0.0831116939999999,0.0469074,-1.2882306,0.5644966444444445,1.051944122222222,6.460614888888888,71.22222222222223,29.22222222222222,35.0,-50.0,10.22222222222222,270.44444444444446,-1082.888888888889,-14.944444444444445,313.55555555555554,1014.8438333333332,-4.005789722222223,3129.555555555556,0.0831116939999999,0.014799315338,0.0469074,0.0351916248,-1.2882306,-0.0170561162,55575.0,28621.5,29795.0,-5.5,6.5,-38.5,0,None
2023-01-03 15:55:05,262.97920000000005,0.1019999999999981,100.0,1080.5,24168.0,4816.0,98.0,1043.1,201.3,4856.6,90.23257222222222,3.5437258888888885,0.089843752,0.043189502,-1.2771308,55.52,0.099217054,0.050509706,-1.2906674000000002,0.5761745599999999,1.03533165,6.529633000000001,77.4,-17.4,29.0,-45.8,38.7,271.0,-1051.7,7.6,315.3,1014.8434,-4.0062029,3131.1,0.099217054,0.0142385621999999,0.050509706,-0.0165579821999999,-1.2906674000000002,0.0013754498,55520.0,28606.0,29740.0,8.5,5.0,-39.5,0,None
2023-01-03 15:55:06,264.025,0.1060000000000001,100.0,1013.5,24252.5,4880.5,98.0,1040.4,204.5,4850.0,90.061862,3.589891,0.08755516,0.028305112,-1.2655852,55.458000000000006,0.096971554,0.0365130979999999,-1.2784094,0.6155697000000001,1.2055323999999998,7.078525700000002,81.6,-1.45,32.9,-42.15,0.35,261.0,-1069.5,9.2,311.55,1014.85605,-3.99344905,3132.6,0.096971554,0.0140167886,0.0365130979999999,0.00928608,-1.2784094,-0.0214279008,55455.0,28680.0,29675.0,11.0,13.0,-35.5,0,None
2023-01-03 15:55:07,265.0591,0.1020000000000038,100.0,983.0,24198.5,4882.0,98.0,1010.2,207.4,4880.0,89.892728,3.6351444,0.0761692539999999,0.023167024,-1.2711776,55.39200000000001,0.08596344,0.031800508,-1.2840294,0.6663467499999999,1.07517309,6.4254465,76.2,-1.3,35.7,-23.7,-5.2,261.9,-1058.8,19.2,323.3,1014.8737,-3.9759764,3134.3,0.08596344,0.0042423694,0.031800508,0.0056598614,-1.2840294,0.013487026,55395.0,28643.5,29615.0,9.0,17.5,-36.0,0,None
2023-01-03 15:55:08,266.0778888888889,0.1088888888888845,100.0,1049.0,24228.5,4887.5,98.0,1021.5555555555557,210.22222222222223,4882.555555555556,89.73370666666665,3.6811142222222224,0.0761919579999999,0.018853209,-1.2710178,55.30800000000001,0.0863932499999999,0.026242698,-1.2834754,0.6296433555555555,1.057937988888889,7.1167595555555545,62.94444444444444,-14.833333333333334,38.5,-30.77777777777778,24.55555555555556,260.8888888888889,-1033.0555555555557,-7.611111111111111,316.3888888888889,1014.8808888888888,-3.968841,3135.6666666666665,0.0863932499999999,0.0067149978,0.026242698,-0.0236506552,-1.2834754,-0.01188798116,55315.0,28647.5,29535.0,8.5,16.0,-32.5,0,None
2023-01-03 15:55:09,267.0632,0.1021000000000014,100.0,1026.5,24217.0,4887.5,98.0,1043.7,213.1,4874.1,89.61290399999999,3.7213805,0.07828183,0.016243556,-1.2713242,55.24,0.088545622,0.024108246,-1.2833758,0.5682147999999999,1.11721146,7.0927699,75.4,20.5,35.7,-32.1,28.5,255.1,-1069.4,5.9,320.5,1014.8772,-3.9724764,3137.3,0.088545622,0.0053064677999999,0.024108246,0.0282826604,-1.2833758,-0.0069068207999999,55240.0,28652.5,29460.0,-3.5,15.0,-31.0,0,None
2023-01-03 15:55:10,268.04,0.1043333333333356,100.0,1113.0,24151.0,4819.0,98.0,1095.2222222222222,216.0,4859.333333333333,89.54250666666667,3.760973666666666,0.078585605,0.032759475,-1.264418,55.1975,0.0889558025,0.040294465,-1.27654675,0.5869457666666666,1.1729897333333337,6.5756964444444455,76.0,21.77777777777778,41.55555555555556,-41.22222222222222,20.33333333333333,259.6666666666667,-1053.3333333333333,18.33333333333333,310.3333333333333,1014.8662222222224,-3.9834636666666654,3138.555555555556,0.0889558025,0.0360305349999999,0.040294465,0.0247320625,-1.27654675,-0.012447530625,55195.0,28690.5,29415.0,-7.0,9.0,-33.5,0,None
2023-01-03 15:55:11,269.0231,0.1019999999999981,100.0,1091.0,24113.5,4890.5,98.0,1096.1,219.1,4867.8,89.476734,3.7968468,0.0878515,0.047021454,-1.2607846,55.152,0.097782708,0.053772882,-1.2728562,0.60328914,1.20057251,5.934356500000001,75.2,9.0,33.4,-41.7,7.0,266.0,-1083.4,5.0,310.1,1014.8477,-4.0019999,3139.9,0.097782708,-0.0079324675399999,0.053772882,0.0175848563999999,-1.2728562,-0.0007589039999999,55135.0,28714.5,29355.0,2.0,10.5,-34.5,0,None
2023-01-03 15:55:12,270.0571,0.104000000000002,100.0,1090.5,24201.5,4893.0,98.0,1076.9,222.1,4845.2,89.36179600000001,3.835871,0.084795948,0.049579134,-1.2603548,55.128,0.0948027499999999,0.056644602,-1.2717672,0.57946269,1.18957704,5.845093,71.4,-5.35,34.65,-46.8,5.15,264.85,-1056.05,-4.0,302.1,1014.86315,-3.98643735,3141.5,0.0948027499999999,0.0217291946,0.056644602,0.0035638182,-1.2717672,-0.01475534554,55130.0,28703.5,29350.0,14.5,19.0,-35.0,0,None
2023-01-03 15:55:13,271.02233333333334,0.1023333333333324,100.0,1045.0,24227.0,4883.5,98.0,977.5555555555557,224.88888888888889,4888.222222222223,89.22455222222223,3.8743571111111113,0.076834952,0.0269280619999999,-1.2734556,55.136,0.086999228,0.034111668,-1.2847224000000002,0.6514779,1.113774888888889,6.916626555555556,62.77777777777778,-2.6666666666666665,37.0,-60.11111111111112,-16.333333333333332,269.6666666666667,-1075.3333333333333,-24.666666666666668,321.6666666666667,1014.8897777777778,-3.9599302222222224,3142.8888888888887,0.086999228,-0.01743785844,0.034111668,-0.020861368,-1.2847224000000002,-0.0059251848,55140.0,28613.5,29360.0,20.5,23.0,-32.0,0,None
2023-01-03 15:55:14,271.98400000000004,0.0999999999999999,100.0,1050.0,24133.5,4891.5,98.0,1026.7,227.4,4892.9,89.083404,3.9123638,0.067987192,0.0196858779999999,-1.2809428,55.1,0.078906204,0.02730106,-1.2914906,0.6043372600000001,1.1441456799999998,7.0469165,60.0,-9.5,36.2,-59.1,11.9,264.6,-1051.2,4.1,316.3,1014.8922,-3.9576092,3144.3,0.078906204,-0.00965567712,0.02730106,-0.0007159007999999,-1.2914906,0.028558187,55085.0,28621.0,29305.0,15.5,22.5,-31.0,0,None
2023-01-03 15:55:15,272.98999999999995,0.1019999999999981,100.0,1017.0,24234.5,4813.5,98.0,1030.6,230.4,4846.7,88.96074999999999,3.9463138,0.068964542,0.023767348,-1.2702066,55.092,0.081006804,0.032192816,-1.2802456,0.61688804,1.08460936,7.0494653,74.7,15.1,38.9,-38.5,38.9,261.9,-1033.2,-7.3,317.5,1014.8709,-3.9788906000000006,3145.7,0.081006804,0.0153938708,0.032192816,0.0353933936,-1.2802456,-0.0043503443999999,55100.0,28665.0,29320.0,10.0,5.0,-30.5,0,None
2023-01-03 15:55:16,274.006,0.1019999999999981,100.0,1069.5,24135.5,4815.0,98.0,1094.1,233.5,4843.0,88.85907600000002,3.977187400000001,0.083133642,0.02068276,-1.2695414,55.10600000000001,0.095151044,0.0295096539999999,-1.2794388,0.6025292899999999,1.16333762,6.663691900000001,65.5,-2.0,38.8,-37.3,19.8,259.4,-1081.6,8.2,320.2,1014.8725,-3.9772499,3147.3,0.095151044,0.010621936,0.0295096539999999,-0.0032717358,-1.2794388,-0.0125988798,55105.0,28666.5,29325.0,7.5,7.0,-33.5,0,None
2023-01-03 15:55:17,275.03000000000003,0.1020000000000038,100.0,1129.5,24184.5,4879.0,98.0,1072.7,236.7,4833.6,88.76856599999999,4.0075732,0.061196692,0.028250496,-1.2615688,55.114,0.0726471059999999,0.037861892,-1.2708886,0.5208830799999999,1.29355616,5.926106,55.2,17.05,40.85,-33.65,-39.1,267.2,-1075.15,0.85,316.0,1014.8582,-3.99128875,3148.6,0.0726471059999999,-0.048302752228,0.037861892,0.0165982901999999,-1.2708886,0.0080862278,55130.0,28722.5,29350.0,3.5,13.0,-34.5,0,None
2023-01-03 15:55:18,276.06,0.1019999999999981,100.0,986.5,24234.0,4881.0,98.0,1016.6,239.4,4872.5,88.67677400000002,4.036120599999999,0.0591934,0.024551106,-1.2791418,55.156000000000006,0.0710411,0.03427579,-1.2877676,0.5975251,1.08152164,6.440091499999999,58.1,-7.7,44.0,-47.6,27.4,264.7,-1051.4,-8.5,312.1,1014.87,-3.979609300000001,3150.3,0.0710411,0.0137526579999999,0.03427579,-0.017585402,-1.2877676,-0.03387244458,55150.0,28608.0,29370.0,8.5,6.0,-38.5,0,None
2023-01-03 15:55:19,277.061,0.1088888888888909,100.0,1039.0,24145.0,4874.5,98.0,1027.888888888889,242.3333333333333,4870.222222222223,88.57229555555553,4.061231888888889,0.065177026,0.0276975199999999,-1.2895932,55.124,0.076340078,0.037081574,-1.2977432,0.5694847333333333,1.0844323111111112,6.842759666666667,55.11111111111112,10.333333333333334,30.33333333333333,-47.11111111111112,9.666666666666666,264.44444444444446,-1066.888888888889,2.4444444444444446,308.8888888888889,1014.8905555555556,-3.959218666666666,3151.4444444444443,0.076340078,-0.0105058626,0.037081574,0.0084259809999999,-1.2977432,-0.00607283768,55115.0,28565.0,29335.0,8.0,6.5,-32.5,0,None
2023-01-03 15:55:20,277.9986666666666,0.1022222222222176,100.0,1003.5,24160.0,4892.0,98.0,1042.888888888889,245.0,4855.222222222223,88.48027666666667,4.081237333333332,0.0728179925,0.021156075,-1.2823435,55.085,0.08344497,0.03131615,-1.2897305,0.5685840444444445,1.1751923,7.1255687777777785,62.05555555555556,-2.2222222222222223,34.166666666666664,-50.66666666666666,3.4444444444444446,260.8888888888889,-1057.5555555555557,35.166666666666664,316.6666666666667,1014.8708888888888,-3.9788236666666656,3152.833333333333,0.08344497,0.03889416,0.03131615,-0.007131307,-1.2897305,0.010426715,55080.0,28616.0,29300.0,10.0,11.0,-29.0,0,None
2023-01-03 15:55:21,278.9902,0.104000000000002,100.0,1026.0,24199.5,4817.5,98.0,1045.5,247.8,4846.6,88.37349,4.1038772,0.068979886,0.024591684,-1.2706242,55.10600000000001,0.079439238,0.0349991579999999,-1.2796542,0.5601001400000001,1.19642196,6.796038599999998,57.0,18.3,47.4,-50.5,2.2,256.2,-1077.8,-13.5,318.1,1014.865,-3.9845626,3154.2,0.079439238,0.0207040209399999,0.0349991579999999,0.0090772411999999,-1.2796542,0.0034781424,55100.0,28669.0,29320.0,2.5,13.0,-30.5,1,27_xgyro_avg_constant_18.3
2023-01-03 15:55:22,280.0461,0.1060000000000001,100.0,1043.0,24208.0,4890.5,98.0,1081.8,251.0,4857.2,88.27970200000001,4.1250576,0.06549172,0.046006988,-1.2779928000000005,55.128,0.075624098,0.055673738,-1.2860436,0.5528587,1.1565677099999998,6.362837300000001,50.65,18.3,32.8,-51.55,-10.2,276.05,-1126.95,-9.35,309.65,1014.8562,-3.99337095,3155.6,0.075624098,-0.014053754,0.055673738,0.020729688,-1.2860436,0.0061216342,55125.0,28634.5,29345.0,-1.5,10.5,-34.5,1,27_xgyro_avg_constant_18.3
2023-01-03 15:55:23,281.0521111111111,0.1066666666666643,100.0,964.0,24168.0,4893.5,98.0,1001.8888888888888,253.88888888888889,4889.111111111111,88.14939333333332,4.147259555555555,0.061891288,0.042709876,-1.2878572,55.13,0.072080142,0.05203864,-1.29536,0.4827825777777778,1.1809092888888888,7.473802,54.66666666666666,18.3,37.66666666666666,-43.44444444444444,7.444444444444445,271.77777777777777,-1026.4444444444443,-28.33333333333333,314.44444444444446,1014.8695555555556,-3.979913111111112,3156.777777777778,0.072080142,0.0236358098,0.05203864,-0.0161546682,-1.29536,-0.0115319769999999,55145.0,28588.0,29365.0,9.5,12.0,-33.5,1,27_xgyro_avg_constant_18.3
2023-01-03 15:55:24,282.0482,0.104000000000002,100.0,960.0,24150.5,4895.5,98.0,1008.6,256.7,4859.6,87.993414,4.1669182,0.065172312,0.040495718,-1.2893032000000002,54.99,0.0752342439999999,0.049573288,-1.296613,0.55618838,1.27110705,7.1820184,57.35,18.3,33.15,-66.4,-12.4,272.65,-1065.3,-10.55,306.3,1014.8729,-3.97677335,3158.1,0.0752342439999999,-0.0239961104,0.049573288,-0.0045631982,-1.296613,0.00253808,55020.0,28574.5,29240.0,14.0,10.5,-34.5,1,27_xgyro_avg_constant_18.3
2023-01-03 15:55:25,283.02988888888893,0.1022222222222239,100.0,909.5,24172.0,4893.5,98.0,989.1111111111112,259.3333333333333,4897.111111111111,87.8069422222222,4.187290333333333,0.0706673325,0.03541514,-1.28742975,54.85,0.080757575,0.0448660274999999,-1.29376325,0.6820888555555554,1.093302688888889,6.508764333333334,64.88888888888889,18.3,32.55555555555556,-54.66666666666666,15.22222222222222,268.77777777777777,-1077.4444444444443,-0.8888888888888888,314.8888888888889,1014.892,-3.957638666666667,3159.333333333333,0.080757575,0.0292695647499999,0.0448660274999999,-0.0035422827375,-1.29376325,-0.0067889324999999,54850.0,28588.0,29070.0,21.0,10.5,-32.5,1,27_xgyro_avg_constant_18.3
2023-01-03 15:55:26,284.0062,0.1040999999999996,100.0,1025.5,24192.5,4810.0,98.0,1033.6,262.2,4841.8,87.63272199999999,4.205644,0.0736469583333333,0.0247526683333333,-1.2886236666666666,54.71666666666667,0.08383035,0.0348168866666666,-1.2950775,0.54499032,1.0122876,5.9658947,57.1,18.3,36.8,-57.5,8.3,268.2,-1085.7,-9.9,320.8,1014.8871,-3.9624843000000007,3160.3,0.08383035,0.009696306,0.0348168866666666,-0.0059141763166666,-1.2950775,0.0145180986666666,54715.0,28571.0,28935.0,18.0,12.5,-31.5,1,27_xgyro_avg_constant_18.3
2023-01-03 15:55:27,284.981,0.1021111111111091,100.0,1097.0,24202.5,4877.0,98.0,1054.0,265.1111111111111,4879.222222222223,87.47100222222222,4.224383111111111,0.0655204225,0.025154385,-1.27775975,54.627500000000005,0.0759953075,0.0351361025,-1.2842325,0.5156201777777778,1.1702781666666666,6.68079,57.388888888888886,18.3,44.27777777777778,-48.22222222222222,-14.38888888888889,262.8333333333333,-1068.5,-0.1111111111111111,319.05555555555554,1014.8811666666666,-3.968554388888889,3162.0,0.0759953075,-0.0300480818999999,0.0351361025,-0.0046701534999999,-1.2842325,0.01870557275,54625.0,28639.5,28845.0,10.0,17.0,-28.5,1,27_xgyro_avg_constant_18.3
2023-01-03 15:55:28,285.9802,0.104000000000002,100.0,998.5,24145.5,4810.0,98.0,996.1,267.9,4887.8,87.313218,4.2443513,0.057487706,0.033247076,-1.282232,54.596,0.067690006,0.042714428,-1.2884888,0.5974257799999999,1.22520365,7.1062311,49.8,18.3,39.8,-66.3,-6.9,264.4,-1089.6,-15.4,311.7,1014.9029,-3.9466718,3163.2,0.067690006,-0.022568766,0.042714428,0.0005589159999999,-1.2884888,0.0061675725999999,54590.0,28616.0,28810.0,8.5,14.5,-31.5,1,27_xgyro_avg_constant_18.3
2023-01-03 15:55:29,286.98819999999995,0.1019999999999981,100.0,988.5,24229.0,4891.0,98.0,983.3,270.6,4847.3,87.161576,4.2623336,0.061418444,0.0303108,-1.2927506000000002,54.524,0.07170589,0.0390433179999999,-1.2980924,0.58841755,1.0934343099999997,7.7903365,57.1,18.3,35.1,-46.8,16.0,267.6,-1063.7,2.3,312.8,1014.9033000000002,-3.9463593,3164.5,0.07170589,0.039253114,0.0390433179999999,0.0022763792,-1.2980924,-0.0003650486,54520.0,28559.5,28740.0,10.0,11.5,-27.0,1,27_xgyro_avg_constant_18.3
2023-01-03 15:55:30,288.028,0.104000000000002,100.0,978.5,24159.5,4891.5,98.0,1012.1,273.6,4874.8,87.01387199999999,4.2782806,0.0656824179999999,0.025806572,-1.2910586,54.496,0.0753959199999999,0.035561784,-1.296127,0.5401954000000001,1.11300897,7.419372,46.85,18.3,36.95,-63.75,7.25,267.75,-1076.45,5.7,313.3,1014.9071,-3.94255845,3165.7,0.0753959199999999,-0.0279250539999999,0.035561784,0.0146043951,-1.296127,-0.0070708544,54500.0,28575.5,28720.0,9.0,12.5,-28.0,1,27_xgyro_avg_constant_18.3
2023-01-03 15:55:31,289.0254444444445,0.1044444444444441,100.0,1049.5,24189.5,4891.0,98.0,1022.6666666666666,276.22222222222223,4893.777777777777,86.87086000000002,4.294240111111112,0.064267884,0.028886888,-1.2822206,54.51800000000001,0.0742058179999999,0.0386096379999999,-1.2869568,0.5428242555555556,1.2458588888888888,7.492334777777779,56.55555555555556,18.3,36.55555555555556,-58.22222222222222,22.444444444444443,264.6666666666667,-1044.0,18.55555555555556,316.3333333333333,1014.877777777778,-3.971848777777778,3166.8888888888887,0.0742058179999999,-0.018004442,0.0386096379999999,-0.01327615,-1.2869568,0.0165358402,54520.0,28629.0,28740.0,3.5,13.5,-29.0,1,27_xgyro_avg_constant_18.3
2023-01-03 15:55:32,289.9863,0.1020999999999957,100.0,942.0,24238.5,4895.5,98.0,971.9,278.9,4895.9,86.741994,4.3091562,0.064878008,0.036958074,-1.2850762000000002,54.556,0.07498191,0.046252008,-1.2898554,0.6028933599999999,1.20406911,7.096463,62.4,18.3,40.2,-46.9,16.5,266.1,-1059.0,2.5,315.7,1014.8804000000002,-3.9691718,3168.3,0.07498191,0.0093429165999999,0.046252008,-0.02367697546,-1.2898554,0.0001748819999999,54560.0,28611.5,28780.0,8.0,9.0,-29.0,1,27_xgyro_avg_constant_18.3
2023-01-03 15:55:33,291.03000000000003,0.1039000000000043,100.0,967.5,24143.5,4819.5,98.0,979.8,281.9,4850.9,86.61022799999999,4.3238654,0.07796551,0.0286377219999999,-1.285338,54.55800000000001,0.087721468,0.038485098,-1.2899212,0.56276843,0.97588842,6.4706524000000005,71.7,18.3,35.2,-50.7,9.95,263.7,-1081.65,10.3,316.85,1014.88435,-3.96555455,3169.3,0.087721468,-0.0032840031999999,0.038485098,-0.0035173842,-1.2899212,0.000110483,54555.0,28611.5,28775.0,10.5,6.5,-35.0,1,27_xgyro_avg_constant_18.3
2023-01-03 15:55:34,292.01877777777776,0.1044444444444441,100.0,1040.0,24180.5,4895.0,98.0,1025.6666666666667,284.6666666666667,4894.777777777777,86.48510333333333,4.339038777777777,0.07950519,0.0368478575,-1.2816515000000002,54.55,0.08911548,0.0459947025,-1.2863362500000002,0.5948396888888888,1.18594,7.534675111111111,66.11111111111111,18.3,35.55555555555556,-42.333333333333336,-1.4444444444444444,263.44444444444446,-1055.3333333333333,-13.22222222222222,315.77777777777777,1014.868,-3.981571222222223,3170.777777777778,0.08911548,0.034040365,0.0459947025,0.00937862525,-1.2863362500000002,-0.0096955909,54555.0,28631.0,28775.0,11.0,9.0,-31.5,1,27_xgyro_avg_constant_18.3
2023-01-03 15:55:35,292.9821,0.0999999999999999,100.0,970.0,24163.5,4817.0,98.0,976.2,287.1,4851.0,86.36598799999999,4.356183199999999,0.07625926,0.03056229,-1.2819958,54.566,0.0869207839999999,0.039560248,-1.2865616,0.6249394199999999,1.03805073,6.7791409,64.9,-10.5,35.3,-40.0,-9.6,266.5,-1066.6,-3.1,313.9,1014.9027,-3.9470234,3172.2,0.0869207839999999,0.0094926515999999,0.039560248,-0.0091596949999999,-1.2865616,0.006073419,54560.0,28638.5,28780.0,19.0,16.5,-31.5,0,None
2023-01-03 15:55:36,294.01210000000003,0.1079999999999983,100.0,1047.5,24190.5,4887.0,98.0,1012.4,290.2,4856.7,86.26415399999999,4.3733848,0.076566272,0.0109727529999999,-1.2729548000000002,54.536,0.087038072,0.020545272,-1.2767502,0.69148808,1.2619307,7.894031200000001,70.25,-4.35,39.35,-51.1,7.45,261.0,-1044.55,-25.2,319.9,1014.87,-3.97964055,3173.15,0.087038072,0.015645878,0.020545272,0.008642748,-1.2767502,0.01338904,54535.0,28682.0,28755.0,16.0,15.0,-28.0,0,None
2023-01-03 15:55:37,295.058,0.0999999999999999,100.0,943.5,24165.0,4890.0,98.0,986.4,293.0,4865.4,86.198128,4.390344799999999,0.08050702,0.0123701118,-1.2751114,54.534000000000006,0.091327116,0.021649684,-1.2797242,0.68788114,1.2466626,7.360590300000001,63.7,22.8,37.3,-49.8,6.4,257.9,-1061.6,16.1,322.3,1014.8851,-3.964468599999999,3174.7,0.091327116,-0.0053895319999999,0.021649684,0.038416076,-1.2797242,-0.0189813579999999,54535.0,28677.0,28755.0,2.0,12.5,-33.5,0,None
2023-01-03 15:55:38,296.0721111111111,0.1088888888888908,100.0,764.5,24250.0,4884.0,98.0,1008.3333333333334,295.8888888888889,4883.444444444444,86.17428444444444,4.407857888888889,0.076108316,0.025418,-1.2694968000000002,54.554,0.086302322,0.03445151,-1.2741302,0.7123686111111112,1.2098775444444445,8.098099111111111,77.66666666666667,-2.111111111111111,39.0,-39.888888888888886,31.0,263.8888888888889,-1047.111111111111,5.388888888888889,312.6111111111111,1014.8707777777776,-3.9789192222222223,3175.8888888888887,0.086302322,0.0523409959999999,0.03445151,0.0028626922,-1.2741302,-0.0071349535999999,54560.0,28692.5,28780.0,0.5,11.5,-31.0,0,None
2023-01-03 15:55:39,297.03200000000004,0.1066666666666643,100.0,956.0,24148.0,4818.0,98.0,1005.4444444444443,298.3333333333333,4895.444444444444,86.16599555555555,4.424280333333333,0.0847516859999999,0.0309465899999999,-1.2788162,54.564,0.095434206,0.039755678,-1.283674,0.6830166333333333,1.108941611111111,7.261145777777776,72.88888888888889,27.22222222222222,35.333333333333336,-50.333333333333336,15.77777777777778,263.1111111111111,-1076.5555555555557,-14.22222222222222,318.77777777777777,1014.855888888889,-3.993689,3177.222222222222,0.095434206,0.000229332,0.039755678,0.0266382082,-1.283674,-0.01255234178,54560.0,28667.0,28780.0,-6.0,6.0,-37.0,0,None
2023-01-03 15:55:40,297.99209999999994,0.0999999999999999,100.0,1051.5,24186.0,4890.5,98.0,996.4,301.2,4848.6,86.15928800000002,4.4411948,0.081491328,0.042665902,-1.2826461999999998,54.56600000000001,0.09223534,0.050973802,-1.2872734,0.6637142500000001,0.9801624299999998,7.0016662,75.7,-11.1,30.2,-40.3,-7.6,271.6,-1106.2,5.9,311.5,1014.8849,-3.9647266,3178.1,0.09223534,-0.014885746,0.050973802,-0.0036896976,-1.2872734,0.00034499994,54570.0,28621.5,28790.0,2.0,8.0,-32.5,0,None
2023-01-03 15:55:41,298.9982999999999,0.1019999999999981,100.0,980.0,24177.0,4882.5,98.0,939.2,303.8,4894.4,86.13405599999999,4.4594624000000005,0.0856193199999999,0.023900886,-1.2849474,54.552,0.0965685859999999,0.032875048,-1.2895766,0.66179419,1.0256955600000002,7.577185700000001,72.7,-9.4,32.3,-51.1,3.9,261.1,-1070.1,-16.7,315.1,1014.8857,-3.9638906,3179.6,0.0965685859999999,-0.0136484611999999,0.032875048,-0.0329952662,-1.2895766,-0.0028062165999999,54560.0,28617.0,28780.0,16.0,10.0,-34.0,0,None
2023-01-03 15:55:42,300.0401,0.104000000000002,100.0,1054.5,24121.5,4823.0,98.0,982.5,306.7,4877.2,86.10481800000001,4.4781830000000005,0.082889622,0.018000856,-1.2793482,54.54600000000001,0.09382978,0.027830834,-1.2840314,0.68795717,1.1834307600000002,7.607217,76.0,20.0,32.05,-46.15,0.3,255.95,-1080.45,10.8,313.6,1014.87265,-3.976898400000001,3180.5,0.09382978,-0.01812404382,0.027830834,0.0208867782,-1.2840314,0.00217339842,54540.0,28629.0,28760.0,7.0,14.0,-32.0,0,None
2023-01-03 15:55:43,301.03222222222223,0.1022222222222239,100.0,1063.5,24162.0,4891.5,98.0,1027.7777777777778,309.22222222222223,4848.888888888889,86.08897555555555,4.498043111111111,0.073525035,0.044626695,-1.2770245,54.5525,0.08493093,0.0528727774999999,-1.2822105,0.6248092000000001,1.1706203666666668,7.443614666666668,66.33333333333333,2.6666666666666665,35.77777777777778,-34.666666666666664,9.0,270.8888888888889,-1060.6666666666667,-0.3333333333333333,314.0,1014.8914444444443,-3.958272444444445,3182.111111111112,0.08493093,1.5132499999999144e-05,0.0528727774999999,-0.0073318475,-1.2822105,0.0064139992499999,54550.0,28647.5,28770.0,7.0,13.0,-31.5,0,None
2023-01-03 15:55:44,302.0067,0.1040999999999996,100.0,955.5,24133.5,4895.5,98.0,1023.8,312.3,4864.8,86.07559400000002,4.5155438000000006,0.078564126,0.002789561,-1.2679972,54.526,0.089552602,0.0118518048599999,-1.2723188,0.72029161,1.1829864,6.870639,62.8,-29.6,37.2,-47.3,14.2,259.9,-1058.2,-16.7,322.3,1014.8807,-3.9688202,3183.2,0.089552602,0.020776304,0.0118518048599999,-0.069020404,-1.2723188,0.0081865378,54530.0,28715.0,28750.0,22.5,14.0,-28.0,0,None
2023-01-03 15:55:45,303.023,0.0999999999999999,100.0,837.5,24240.5,4879.5,98.0,934.5,315.0,4856.9,86.08503800000001,4.5326508,0.0682331125,0.01571395275,-1.2767535,54.5375,0.07916585,0.02469814,-1.281712,0.6958693100000001,1.07792155,8.326791700000001,64.77777777777777,20.11111111111111,38.55555555555556,-37.55555555555556,-18.55555555555556,258.1111111111111,-1065.6666666666667,-1.4444444444444444,316.0,1014.9183333333332,-3.931267333333333,3184.111111111112,0.07916585,-0.0462209549999999,0.02469814,0.0054460075,-1.281712,-0.0073641164999999,54550.0,28659.0,28770.0,3.5,12.0,-28.5,0,None
2023-01-03 15:55:46,304.03100000000006,0.1019999999999981,100.0,1091.5,24092.5,4890.0,98.0,985.0,317.8,4868.2,86.116272,4.5479636,0.071253566,0.0120123774,-1.2814624,54.49400000000001,0.081948016,0.020684236,-1.286079,0.7359123200000001,1.13674806,7.4322372,55.2,14.45,34.75,-28.15,22.05,263.4,-1077.7,-19.6,317.0,1014.88665,-3.96299195,3185.4,0.081948016,0.044586210534,0.020684236,0.0202744617999999,-1.286079,0.0017731782,54500.0,28634.5,28720.0,2.0,12.0,-31.0,0,None
2023-01-03 15:55:47,305.05100000000004,0.1019999999999981,100.0,1036.0,24130.0,4807.5,98.0,1073.1,320.7,4882.2,86.155842,4.561490400000001,0.067364612,0.031718806,-1.2770122,54.528,0.077890252,0.040186264,-1.28161,0.5571104899999999,1.19799585,6.555295299999999,59.0,16.4,33.3,-53.0,-19.6,258.3,-1061.6,14.5,299.4,1014.8391,-4.0103982,3186.9,0.077890252,-0.022993422,0.040186264,0.0135723891999999,-1.28161,0.0101292779999999,54520.0,28650.0,28740.0,-7.5,12.5,-31.5,0,None
2023-01-03 15:55:48,306.0196666666667,0.1022222222222239,100.0,970.0,24114.0,4810.5,98.0,968.1111111111112,323.22222222222223,4830.111111111111,86.18667000000002,4.573686333333334,0.0557690339999999,0.0472470819999999,-1.286412,54.59,0.066179594,0.055386762,-1.291838,0.6008475666666667,1.1435208222222224,6.826629444444445,51.0,5.111111111111111,41.66666666666666,-49.11111111111112,1.2222222222222223,270.3333333333333,-1038.0,-33.0,308.0,1014.8666666666668,-3.983055555555555,3187.777777777778,0.066179594,-0.0037720228,0.055386762,0.0109796833999999,-1.291838,-0.0238131052,54595.0,28605.0,28815.0,1.0,8.0,-32.5,0,None
2023-01-03 15:55:49,307.00100000000003,0.1019999999999981,100.0,1062.5,24169.0,4885.0,97.0,1018.5,326.1,4888.9,86.17831200000002,4.5852902,0.066977164,0.0304714,-1.2865832,54.572,0.076909646,0.039250534,-1.2919855999999998,0.50515336,1.17819011,7.635538599999999,61.3,-14.5,35.8,-34.4,5.5,264.6,-1109.2,32.3,313.2,1014.8647,-3.9849764,3188.9,0.076909646,0.0176519682,0.039250534,-0.012947716,-1.2919855999999998,0.0368758119999999,54575.0,28587.5,28795.0,13.5,10.5,-36.0,0,None
2023-01-03 15:55:50,308.00700000000006,0.0999999999999999,100.0,1093.0,24148.5,4888.5,97.0,1087.5,329.2,4888.6,86.144346,4.5959912,0.065931886,0.02916909,-1.2745656,54.562,0.07598279,0.037626374,-1.279951,0.5020875300000001,1.22506298,6.7895921,52.2,-6.1,38.6,-44.7,-7.3,265.2,-1080.4,13.2,309.6,1014.8514,-3.998257799999999,3190.3,0.07598279,-0.0181611664,0.037626374,-0.008446723,-1.279951,0.0126979931999999,54560.0,28665.0,28780.0,12.5,14.0,-34.0,0,None
2023-01-03 15:55:51,308.9997777777778,0.1088888888888908,100.0,1028.5,24053.5,4896.0,97.0,1015.2222222222222,331.8888888888889,4872.444444444444,86.10166888888888,4.606136444444444,0.056188006,0.029733456,-1.2785926,54.584,0.066413618,0.0390919139999999,-1.2841292,0.5496934888888889,1.2234849111111112,6.876254777777778,45.5,22.22222222222222,42.66666666666666,-65.33333333333333,25.77777777777778,264.8333333333333,-1042.0555555555557,-23.05555555555556,318.94444444444446,1014.8535555555555,-3.9960287222222224,3191.4444444444443,0.066413618,0.0338781696,0.0390919139999999,0.0086097337,-1.2841292,-0.0095859196,54585.0,28650.0,28805.0,9.0,11.5,-33.0,0,None
2023-01-03 15:55:52,310.021,0.104000000000002,100.0,1131.5,24100.5,4893.0,97.0,1082.2,335.0,4844.2,86.045364,4.615796,0.073536648,0.040037004,-1.2793702000000002,54.588,0.082955776,0.048895596,-1.2846164000000002,0.54607212,1.2313369399999998,6.8897861,61.3,17.3,30.9,-51.2,-16.8,264.6,-1106.6,-7.5,302.9,1014.8497777777776,-3.999739555555556,3192.333333333333,0.082955776,-0.000492676,0.048895596,-0.0035777639999999,-1.2846164000000002,0.0219388872,54590.0,28629.0,28810.0,6.5,7.0,-37.5,0,None
2023-01-03 15:55:53,311.0375555555555,0.1155555555555514,100.0,1018.0,24056.5,4886.5,97.0,994.8888888888888,337.8888888888889,4855.777777777777,85.97883222222222,4.625307555555556,0.065552205,0.04112933,-1.27487575,54.595,0.0763336775,0.0499853,-1.28038975,0.6379055888888889,1.1355808222222223,6.782919333333333,62.22222222222222,-15.61111111111111,40.11111111111112,-57.0,31.0,272.6666666666667,-1031.4444444444443,-11.944444444444445,312.6111111111111,1014.8787777777776,-3.970924444444445,3193.6666666666665,0.0763336775,0.04505729225,0.0499853,-0.0187418632499999,-1.28038975,-0.0236403185,54595.0,28664.5,28815.0,19.0,6.0,-33.0,0,None
2023-01-03 15:55:54,312.057,0.0999999999999999,100.0,1063.5,24117.5,4889.5,97.0,1030.3,340.6,4873.4,85.90858999999999,4.6351426,0.093289508,0.01786776,-1.2862424,54.548,0.103525424,0.026859808,-1.2908978000000002,0.6106239,1.06889768,7.063727899999999,79.2,-6.0,25.1,-29.3,18.6,256.4,-1080.2,10.1,315.2,1014.8911,-3.9585701,3194.9,0.103525424,0.0069692051999999,0.026859808,-0.0068330852,-1.2908978000000002,-0.007486646,54545.0,28606.0,28765.0,20.5,8.0,-33.0,0,None
2023-01-03 15:55:55,313.05755555555555,0.1088888888888908,100.0,1056.5,24111.5,4889.5,97.0,1066.0,343.6666666666667,4890.333333333333,85.84867222222222,4.646938555555556,0.0904062475,0.015347075,-1.2736587499999998,54.53,0.10134413,0.023976418,-1.2781968,0.6598488666666666,1.0954147555555556,6.466620444444445,77.77777777777777,5.611111111111111,30.0,-30.88888888888889,11.555555555555555,260.77777777777777,-1073.1666666666667,22.27777777777778,321.77777777777777,1014.8896666666666,-3.959969555555555,3196.1666666666665,0.10134413,-0.0026192425999999,0.023976418,0.0073113676,-1.2781968,0.02246417,54530.0,28683.0,28750.0,6.5,18.5,-28.5,0,None
2023-01-03 15:55:56,314.0577777777778,0.1133333333333312,100.0,988.5,24096.0,4820.5,97.0,1040.3333333333333,346.44444444444446,4840.555555555556,85.8229111111111,4.659481555555556,0.076837578,0.0165854,-1.2694872,54.538,0.088344036,0.02486318,-1.2742552,0.6411133888888889,1.2316221777777778,7.017329,68.05555555555556,2.111111111111111,35.666666666666664,-44.61111111111112,-1.2777777777777777,262.77777777777777,-1032.4444444444443,1.0,314.27777777777777,1014.876277777778,-3.973385222222222,3197.3888888888887,0.088344036,-0.00705012,0.02486318,0.0025216611999999,-1.2742552,-0.0040880109999999,54540.0,28691.5,28760.0,1.0,19.5,-33.0,0,None
2023-01-03 15:55:57,315.062,0.1088888888888908,100.0,1030.5,24133.0,4899.5,97.0,990.4444444444443,349.3333333333333,4871.777777777777,85.8208,4.672340111111111,0.06751561,0.01405765,-1.27784925,54.54,0.07898426,0.0220409675,-1.282652,0.6062302111111112,1.027892933333333,5.884132222222222,49.44444444444444,3.7777777777777777,33.05555555555556,-41.333333333333336,4.444444444444445,258.0,-1043.5555555555557,-19.5,313.77777777777777,1014.8948333333332,-3.954904444444444,3198.111111111112,0.079096925,-0.04256706825,0.02202209,-0.013235602,-1.28271975,-0.01311231775,54545.0,28652.5,28765.0,-2.5,23.0,-30.0,0,None
2023-01-03 15:55:58,316.0308888888889,0.1088888888888908,100.0,1002.0,24083.0,4809.0,97.0,930.3333333333334,352.0,4873.777777777777,85.83631888888888,4.683913333333333,0.05863031,0.013399386,-1.2806457999999998,54.532,0.070066274,0.020784826,-1.2855136,0.6683300333333334,1.0779474777777776,8.470361777777777,63.55555555555556,-3.6666666666666665,41.77777777777778,-41.66666666666666,15.0,263.1111111111111,-1071.0,-1.1111111111111112,328.44444444444446,1014.93,-3.919713555555556,3199.555555555556,0.070066274,0.0325710124,0.020784826,0.0059334902,-1.2855136,-0.009243452398,54530.0,28624.0,28750.0,-1.0,19.0,-28.0,0,None
2023-01-03 15:55:59,317.0707777777777,0.1155555555555514,100.0,1040.5,24107.0,4881.5,97.0,973.3333333333334,354.6666666666667,4891.0,85.8564588888889,4.693337888888889,0.07018648,0.0153094039999999,-1.2772342,54.476,0.0814586,0.022396876,-1.2825904,0.6768237777777778,1.0491802333333335,7.846315555555555,55.77777777777778,16.055555555555557,37.66666666666666,-25.05555555555556,4.722222222222222,257.3333333333333,-1056.7777777777778,-0.1111111111111111,314.55555555555554,1014.9265555555556,-3.923181388888889,3200.611111111112,0.081427056,-0.0193840801999999,0.022657638,0.0120181024,-1.2827534,0.0005458917999999,54490.0,28645.5,28710.0,-1.0,14.5,-23.5,0,None
2023-01-03 15:56:00,318.0597777777777,0.1090000000000056,100.0,1026.5,24081.0,4891.5,97.0,1017.4444444444443,357.44444444444446,4872.555555555556,85.88302222222222,4.701385999999999,0.064023452,0.0116203956,-1.2707038,54.444,0.07473135,0.018738516,-1.2759042,0.5618824111111111,1.1064043444444445,5.8266977777777775,65.66666666666667,-3.0,39.77777777777778,-24.11111111111111,-17.333333333333332,256.77777777777777,-1075.888888888889,26.33333333333333,320.6666666666667,1014.9113333333332,-3.9384025555555553,3201.777777777778,0.07473135,-0.0298793228,0.018738516,0.013114064,-1.2759042,-0.00321973686,54445.0,28682.0,28665.0,2.0,18.5,-23.5,0,None
2023-01-03 15:56:01,318.98644444444443,0.1021111111111091,100.0,944.0,24059.5,4885.0,97.0,950.1111111111112,360.0,4887.111111111111,85.91228666666667,4.708202888888889,0.0563576075,0.0074597335,-1.267067,54.495000000000005,0.06683141,0.0142183775,-1.27289375,0.6913732888888888,1.2237684444444443,8.258426888888888,41.94444444444444,-7.944444444444445,46.16666666666666,-30.444444444444443,0.0555555555555555,260.3888888888889,-1046.1666666666667,4.055555555555555,329.94444444444446,1014.926111111111,-3.9234635555555553,3202.8888888888887,0.06683141,-0.024202605,0.0142183775,-0.00537636525,-1.27289375,-0.01868789,54485.0,28710.0,28705.0,6.5,15.5,-23.0,0,None
