00000_Time_epoch,00000_Time_boot_sec,00000_Span_Time_boot_sec,1_battery_remaining_avg,1_current_battery_avg,1_voltage_battery_avg,125_Vcc_avg,147_battery_remaining_avg,147_current_battery_avg,147_current_consumed_avg,165_Vcc_avg,168_direction_avg,168_speed_avg,178_pitch_avg,178_roll_avg,178_yaw_avg,182_altitude_avg,182_pitch_avg,182_roll_avg,182_yaw_avg,241_vibration_x_avg,241_vibration_y_avg,241_vibration_z_avg,27_xacc_avg,27_xgyro_avg,27_xmag_avg,27_yacc_avg,27_ygyro_avg,27_ymag_avg,27_zacc_avg,27_zgyro_avg,27_zmag_avg,29_press_abs_avg,29_press_diff_avg,29_temperature_avg,30_pitch_avg,30_pitchspeed_avg,30_roll_avg,30_rollspeed_avg,30_yaw_avg,30_yawspeed_avg,33_alt_avg,33_hdg_avg,33_relative_alt_avg,33_vx_avg,33_vy_avg,33_vz_avg,label,diagnosis
2023-01-01 06:06:40,157.27557142857145,-0.0542857142857177,100.0,90.0,25154.0,4888.0,99.0,87.16666666666667,35.0,4865.142857142857,-148.0434142857143,0.2513343142857143,-0.0036985695,-0.017251145,-1.19575025,31.985,0.0007759677249999,-0.0159609525,-1.21378575,0.02457385,0.0241136766666666,0.0350782933333333,-17.25,0.25,87.66666666666667,1.3333333333333333,4.166666666666667,255.3333333333333,-1044.9166666666667,-0.5,342.4166666666667,1022.0053333333334,-0.2490885083333333,2620.4166666666665,0.0007759677249999,0.0044196465,-0.0159609525,0.000498527,-1.21378575,-0.0009236210449999,32000.0,29046.0,80.0,-4.0,14.0,27.0,0,None
2023-01-01 06:06:41,158.14100000000002,0.0999999999999999,100.0,87.0,25151.5,4869.0,99.0,84.4,35.0,4872.6,-149.88136666666662,0.1923840111111111,-0.0034795281999999,-0.017511416,-1.1941280000000003,32.106,0.0007780349,-0.01625898,-1.2133766,0.024327368,0.0240391179999999,0.036318033,-17.3,0.5,87.9,1.6,3.9,255.6,-1046.1,-0.5,342.5,1021.9918,-0.2626171899999999,2622.6,0.0007780349,0.0045819992,-0.01625898,0.00052544677,-1.2133766,-0.00101443614,32090.0,29048.0,170.0,-4.0,14.0,28.0,0,None
2023-01-01 06:06:42,159.19245454545455,0.100000000000002,100.0,112.0,25126.5,4866.0,99.0,147.0,35.81818181818182,4868.181818181818,-150.38993636363637,0.2289972636363636,-0.0038372156,-0.016853938,-1.1939656,32.209999999999994,0.00057959016,-0.016148068,-1.2129982,0.0965706681818181,0.1780005281818182,0.4684903809090909,-22.90909090909091,0.3636363636363636,76.72727272727273,0.3636363636363636,2.8181818181818183,252.8181818181818,-1053.4545454545455,0.9090909090909092,339.0,1022.0033636363636,-0.2508096636363636,2625.7272727272725,0.00057959016,0.002469998,-0.016148068,-0.000108988572,-1.2129982,-0.00138479124,32205.0,29050.5,285.0,-3.5,14.0,29.5,0,None
2023-01-01 06:06:43,160.19144444444444,0.0999999999999974,100.0,130.5,25128.5,4871.0,99.0,131.0,36.0,4869.222222222223,-150.13378888888892,0.2913733,-0.0034368904,-0.01784522,-1.1956222,32.3,0.0006228475,-0.016260958,-1.2133942,0.1095834511111111,0.2802247222222223,0.6653764666666666,-20.55555555555556,0.2222222222222222,78.77777777777777,3.111111111111111,3.7777777777777777,257.44444444444446,-1046.4444444444443,-0.2222222222222222,342.22222222222223,1022.0067777777778,-0.2477517333333333,2628.222222222222,0.0006228475,0.00363993,-0.016260958,0.000865983,-1.2133942,0.008577364,32290.0,29049.5,370.0,-3.0,14.0,30.0,0,None
2023-01-01 06:06:44,161.147,0.102000000000001,100.0,1692.5,24358.0,4870.5,99.0,1479.3,38.3,4872.3,-149.90664999999998,0.36484398,0.0030925326,0.003070942,-1.2032992,32.628,0.0072912134,0.00413906,-1.2195353999999998,0.44586123,1.19227278,6.32435692,-5.1,31.8,55.2,-8.7,-28.1,238.1,-1233.0,7.8,302.9,1022.1726,-0.081632802,2631.2,0.0072912134,-0.0619750999999999,0.00413906,-0.035548384,-1.2195353999999998,0.0094507793999999,32540.0,29006.5,620.0,-5.5,20.5,96.0,0,None
2023-01-01 06:06:45,162.18099999999998,0.1039999999999991,100.0,1583.5,24341.5,4874.0,99.0,1684.7,43.0,4870.8,-151.8517,0.43882408,-0.0185844479999999,-0.0188928066,-1.1799874,34.514,-0.0131991434,-0.0193834295999999,-1.2029422,0.4711922800000001,1.5493846,6.1025031,-4.4,-55.2,70.8,-10.6,62.4,246.1,-1200.7,41.7,312.0,1021.7603,-0.49401562,2634.0,-0.0131991434,0.06809485,-0.0193834295999999,-0.0889127606,-1.2029422,0.0552073679999999,34255.0,29135.5,2335.0,18.5,-6.0,294.0,0,None
2023-01-01 06:06:46,163.16922222222223,0.1044444444444441,100.0,1267.5,24455.5,4866.0,99.0,1431.5555555555557,47.333333333333336,4871.777777777777,-154.76542222222224,0.4896557999999999,0.038607034,-0.048020914,-1.1648006000000002,37.496,0.042624638,-0.04600675,-1.2206624,0.4091007222222222,1.5370661111111112,6.215539111111111,1.6111111111111112,11.0,61.22222222222222,-18.22222222222222,10.11111111111111,229.16666666666663,-1039.9444444444443,-10.0,341.6666666666667,1021.3965555555556,-0.8577213444444444,2636.6666666666665,0.042624638,0.0201369292,-0.04600675,0.03437753,-1.2206624,0.005914958,37230.0,29005.5,5310.0,-11.5,-26.0,330.5,0,None
2023-01-01 06:06:47,164.161,0.104000000000002,100.0,923.5,24585.5,4873.0,99.0,1075.8,50.5,4872.0,-159.78934999999998,0.5204259199999999,0.0460846959999999,0.0448399679999999,-1.1813372,39.966,0.0521114419999999,0.0456793,-1.2348908,0.5448384099999999,1.5246607799999998,6.865527900000001,26.5,122.7,55.5,-34.1,25.3,264.7,-830.5,-41.8,331.9,1021.0455,-1.2087187,2639.6,0.0521114419999999,0.024421266,0.0456793,0.099460628,-1.2348908,-0.047338064,39825.0,28951.0,7905.0,-46.5,-28.5,215.5,0,None
2023-01-01 06:06:48,165.195,0.1019999999999981,100.0,722.0,24664.0,4882.5,99.0,1043.2,53.8,4866.7,-167.20441999999997,0.5206004200000001,0.050785538,0.076401082,-1.215877,40.798,0.056133422,0.07581413,-1.2659636,0.56583324,1.1006959099999998,4.3263582000000005,29.8,-49.8,47.6,-28.2,31.0,280.7,-958.6,-23.9,309.1,1020.9578,-1.2963983,2642.7,0.056133422,0.031271018,0.07581413,-0.0431695062,-1.2659636,-0.027114364,40785.0,28749.0,8865.0,-1.0,-14.0,61.0,0,None
2023-01-01 06:06:49,166.19700000000003,0.0999999999999999,100.0,1234.0,24439.0,4885.0,99.0,1187.4,56.8,4871.1,-34.88524,0.49534848,0.0830909379999999,0.02548270406,-1.2134222,40.83,0.089485054,0.026542404,-1.2587064,0.5816441200000001,1.5405653,6.2730713,44.2,-52.3,31.7,-49.7,58.1,257.5,-993.2,-4.3,313.8,1020.9078000000002,-1.3465548,2645.4,0.089485054,0.04582708,0.026542404,-0.0365633159999999,-1.2587064,-0.0098579548399999,40835.0,28796.5,8915.0,24.0,6.5,27.0,0,None
2023-01-01 06:06:50,167.1741111111111,0.1066666666666675,100.0,1248.0,24385.0,4880.5,99.0,1241.7777777777778,60.0,4865.555555555556,164.77783333333335,0.5014451333333333,0.0823222499999999,0.0322785575,-1.2240015,40.8175,0.0890041225,0.03422143,-1.2670845000000002,0.5110619555555554,1.8654387777777777,8.09315811111111,46.77777777777778,12.88888888888889,30.22222222222222,-39.44444444444444,-27.72222222222222,261.5,-1067.7777777777778,3.555555555555556,334.72222222222223,1020.9008888888887,-1.3534028333333334,2648.1666666666665,0.0890041225,-0.093724845,0.03422143,-0.021680302,-1.2670845000000002,-0.00419539325,40815.0,28748.0,8895.0,1.5,35.0,24.0,0,None
2023-01-01 06:06:51,168.1537,0.1020999999999986,100.0,1128.0,24446.5,4878.0,99.0,1061.2,63.0,4874.3,146.87256,0.5707534,0.0501653359999999,0.032731892,-1.2418367999999995,40.8,0.056816194,0.0337984479999999,-1.2825362,0.5116068100000001,1.36469144,7.786404299999999,25.7,7.7,43.2,-36.2,-26.7,260.0,-1051.5,-2.9,329.5,1020.9281,-1.3261172,2651.2,0.056816194,-0.072984732,0.0337984479999999,0.0461611194,-1.2825362,0.005470322,40790.0,28643.0,8870.0,-0.5,54.5,22.5,0,None
2023-01-01 06:06:52,169.17222222222222,0.1088888888888908,100.0,1113.5,24446.5,4875.0,99.0,1067.6666666666667,66.22222222222223,4866.111111111111,133.99738888888888,0.6616383333333332,0.0160124041999999,0.027342516,-1.2193196,40.724,0.0230833046,0.0286842259999999,-1.2573798,0.4912788000000001,1.7380208555555556,7.383390888888889,21.944444444444443,11.833333333333334,55.72222222222222,-32.0,-54.388888888888886,260.55555555555554,-1054.388888888889,8.11111111111111,327.72222222222223,1020.9454444444444,-1.3088628333333334,2654.333333333333,0.0230833046,-0.042114712,0.0286842259999999,0.020256602,-1.2573798,0.015901767,40715.0,28809.0,8795.0,-0.5,50.0,25.0,0,None
2023-01-01 06:06:53,170.166,0.1019999999999981,100.0,1196.0,24374.0,4874.0,99.0,1187.6,69.2,4872.3,123.79064,0.7495778600000002,0.0256029998,0.01786589974,-1.2146148,40.602,0.0319867482,0.0196570456,-1.2489388,0.47933011,1.39090832,5.3369398,16.1,-30.4,56.0,-32.1,25.4,255.8,-1091.3,9.8,318.0,1020.9647,-1.2895466,2657.2,0.0319867482,0.0082494319999999,0.0196570456,-0.021421218,-1.2489388,0.0034746779999999,40580.0,28847.5,8660.0,11.0,25.0,26.0,0,None
2023-01-01 06:06:54,171.1979,0.102000000000001,100.0,1204.0,24380.0,4862.5,99.0,1218.1,72.7,4866.9,116.25594,0.82721278,0.025827978,0.0070742804,-1.220924,40.51,0.0305774879999999,0.0084486054,-1.2523724,0.36370442,1.8222481,6.9896555,14.0,5.7,57.0,-35.5,-7.6,256.1,-1015.4,1.1,327.3,1020.9784000000002,-1.2758828999999998,2660.0,0.0305774879999999,0.0138667492,0.0084486054,0.0089502932,-1.2523724,-0.0047290985999999,40505.0,28826.5,8585.0,-6.0,22.5,28.5,0,None
2023-01-01 06:06:55,172.198,0.0999999999999999,100.0,1234.0,24333.0,4879.5,99.0,1219.6,76.3,4867.4,110.8413,0.90849072,-0.0030371015999999,0.0174749082,-1.2162814,40.456,0.00268134366,0.0191460768,-1.2450630000000005,0.3401488,1.9044934,7.9567808,10.5,-2.3,64.0,-39.5,-11.4,254.6,-1084.0,16.4,323.8,1020.9661,-1.2881875000000005,2663.0,0.00268134366,-0.0108080776,0.0191460768,-0.0101962579999999,-1.2450630000000005,0.0145844578,40445.0,28883.5,8525.0,-8.5,7.0,35.5,0,None
2023-01-01 06:06:56,173.218,0.102000000000001,100.0,1150.0,24365.0,4875.5,99.0,1172.9,79.5,4863.6,106.48872,0.96980046,0.0284053022,0.0207666252,-1.2231442,40.438,0.0337706848,0.0233415372,-1.2499056,0.4807757099999999,1.4387613999999995,7.396663500000001,13.2,35.6,60.0,-31.8,46.3,262.1,-1038.2,-38.0,333.9,1020.9566,-1.2976250000000005,2665.8,0.0337706848,0.075796216,0.0233415372,0.0065066282,-1.2499056,-0.037506918,40440.0,28811.5,8520.0,-12.5,-16.0,29.0,0,None
2023-01-01 06:06:57,174.21999999999997,0.0999999999999999,100.0,1129.5,24364.5,4874.5,99.0,1224.7,82.8,4861.1,102.28446,1.01842074,0.041110318,0.030930518,-1.2271262,40.374,0.046050494,0.0334332839999999,-1.2514949999999998,0.5120476500000001,1.20409667,6.8174823,17.1,-4.5,48.9,-52.7,8.4,255.2,-1054.1,15.6,317.2,1020.9737,-1.2806875,2668.8,0.046050494,0.02382092252,0.0334332839999999,-0.0312372819999999,-1.2514949999999998,0.0109926557999999,40365.0,28841.5,8445.0,-9.5,-10.0,29.5,0,None
2023-01-01 06:06:58,175.177,0.1044444444444441,100.0,1178.5,24323.0,4874.5,99.0,1166.0,86.0,4870.666666666667,98.51982222222225,1.0766881111111113,0.04461799,0.0310290479999999,-1.239604,40.316,0.049509296,0.034275014,-1.2625271999999998,0.4637216444444444,1.0558109444444446,5.338498333333333,28.83333333333333,-2.611111111111111,50.44444444444444,-47.333333333333336,10.5,247.88888888888889,-1026.4444444444443,-12.88888888888889,299.3888888888889,1020.9769444444444,-1.277256777777778,2671.6666666666665,0.049509296,0.002346243,0.034275014,-0.0081051042,-1.2625271999999998,-0.018285712,40315.0,28754.5,8395.0,-3.0,-1.5,31.0,0,None
2023-01-01 06:06:59,176.16199999999998,0.0999999999999999,100.0,1195.5,24326.0,4873.0,99.0,1210.0,89.2,4867.4,95.158006,1.1511814,0.042992158,0.026126212,-1.2517912,40.286,0.04830444,0.029509242,-1.2733036,0.4769579300000001,1.29253641,7.008076699999999,18.2,-0.4,45.1,-62.3,15.4,255.0,-1061.2,-3.0,315.2,1020.9434,-1.3108984,2674.5,0.04830444,-0.0263224656,0.029509242,0.001221198,-1.2733036,-0.0097098488,40285.0,28709.0,8365.0,-6.0,7.5,27.5,0,None
2023-01-01 06:07:00,177.16,0.0999999999999999,100.0,1338.5,24251.5,4874.0,99.0,1262.6,92.7,4870.1,92.469506,1.2327806000000003,0.031184222,0.032936068,-1.241542,40.246,0.037168826,0.036599236,-1.2603896,0.4476686099999999,1.6967665,6.990527800000001,24.8,1.0,48.5,-35.7,-10.8,268.0,-1080.0,12.5,319.5,1020.9586,-1.2954842999999998,2677.4,0.037168826,0.0039768339999999,0.036599236,0.0040656999999999,-1.2603896,0.004899506,40245.0,28788.0,8325.0,-2.5,9.5,31.5,0,None
2023-01-01 06:07:01,178.16,0.0999999999999999,100.0,1176.0,24312.5,4872.5,99.0,1186.0,96.2,4868.9,90.166324,1.316332,0.054905108,0.0159835472999999,-1.240241,40.232,0.06119991,0.0203198286,-1.2561,0.47395268,1.527353,6.893769799999999,19.6,-25.7,48.5,-40.3,32.2,265.0,-1030.7,7.6,328.7,1020.9503,-1.3039219000000002,2680.1,0.06119991,0.0647208475999999,0.0203198286,-0.0388658023999999,-1.2561,0.0124782251999999,40230.0,28805.5,8310.0,-2.5,13.0,32.0,0,None
2023-01-01 06:07:02,179.20020000000002,0.1061000000000006,100.0,1170.5,24314.5,4869.0,99.0,1187.6,99.5,4865.1,88.21571800000001,1.3999234,0.0323971588,0.02810282,-1.238667,40.214,0.038541914,0.032022884,-1.2527734,0.46873061,1.2899371600000002,6.898974300000001,4.2,29.7,50.2,-42.9,-56.6,254.6,-1039.0,-14.9,312.3,1020.9423,-1.3119374,2683.1,0.038541914,-0.099474624,0.032022884,0.01483278462,-1.2527734,-0.00473211758,40210.0,28819.0,8290.0,-18.0,40.0,29.0,0,None
2023-01-01 06:07:03,180.20433333333327,0.1044444444444441,100.0,1189.5,24281.5,4876.0,99.0,1125.0,102.66666666666669,4867.222222222223,86.58347222222221,1.4809292222222226,-0.03440270875,0.035260535,-1.25317975,40.1725,-0.02678107825,0.03826972,-1.2648705,0.4527171666666666,1.635070777777778,7.418539777777777,19.05555555555556,5.055555555555555,70.44444444444444,-48.11111111111112,17.666666666666668,273.27777777777777,-1025.3333333333333,-12.666666666666666,326.55555555555554,1020.9323333333332,-1.3217966666666667,2686.0,-0.02678107825,0.0100076472499999,0.03826972,0.0109724275,-1.2648705,-0.023085065,40160.0,28741.5,8240.0,-5.5,6.0,23.0,0,None
2023-01-01 06:07:04,181.1632,0.0999999999999999,100.0,1213.5,24278.5,4875.0,99.0,1228.4,105.8,4871.8,84.93133800000001,1.5379868,0.0404850928,0.035965216,-1.2384644000000002,40.094,0.0464696126,0.039441494,-1.2486317999999998,0.45235712,1.8049257,9.367985999999998,16.3,-6.0,54.1,-50.9,57.0,259.7,-1060.3,40.8,312.4,1020.928,-1.3262187,2688.5,0.0464696126,0.098214842,0.039441494,-0.00395466932,-1.2486317999999998,0.044296292,40070.0,28915.0,8150.0,-4.0,-2.0,25.0,0,None
2023-01-01 06:07:05,182.1854,0.1039999999999991,100.0,1192.5,24263.0,4876.0,99.0,1273.5,109.5,4871.3,83.24771999999999,1.591109,0.0425214659999999,0.0444106899999999,-1.2315576,40.044,0.047795876,0.047827546,-1.2402514,0.51212976,1.753847,9.1338559,9.6,14.9,51.8,-66.8,-17.7,250.7,-1066.1,-13.0,303.5,1020.9172,-1.3369922,2691.4,0.047795876,-0.0250387698,0.047827546,0.015942852,-1.2402514,-0.0217619608,40030.0,28862.0,8110.0,-8.5,19.0,27.0,0,None
2023-01-01 06:07:06,183.17377777777776,0.1045555555555558,100.0,1222.0,24255.0,4884.0,99.0,1256.5555555555557,113.0,4875.888888888889,81.77574111111112,1.651032,0.0122773634,0.0483944039999999,-1.2405098,40.006,0.0192547154,0.0519699839999999,-1.2473876000000002,0.4272248444444445,2.553938111111111,12.782427777777778,4.388888888888889,0.0555555555555555,55.44444444444444,-54.5,-24.77777777777778,256.55555555555554,-1090.611111111111,4.5,306.77777777777777,1020.902722222222,-1.351705611111111,2694.277777777778,0.0192547154,-0.0169415722,0.0519699839999999,0.0273437312599999,-1.2473876000000002,0.0015115707719999,39990.0,28841.0,8070.0,-4.0,27.0,22.0,0,None
2023-01-01 06:07:07,184.14,0.0999999999999999,100.0,1190.5,24272.5,4885.5,99.0,1183.6,116.2,4876.6,80.15745799999999,1.7114272,0.0264172442,0.035290708,-1.2156726,40.010000000000005,0.032604792,0.039575936,-1.2202516,0.4809829599999999,1.9960527,12.2492522,-10.1,-7.0,65.9,-63.7,-5.7,251.6,-1019.5,-11.3,314.8,1020.9181,-1.3360938,2697.1,0.032604792,-0.008539558,0.039575936,-0.0035016479999999,-1.2202516,0.001112942,40010.0,29004.5,8090.0,-3.0,24.0,19.5,0,None
2023-01-01 06:07:08,185.158,0.102000000000001,100.0,1308.5,24203.5,4882.0,99.0,1253.5,119.5,4878.4,78.48511800000001,1.7612888000000002,-0.0204935172,0.029659858,-1.2552926,39.92,-0.0134485972,0.033459526,-1.2573328,0.4721368499999999,2.0008423,10.4466212,0.4,-7.5,71.9,-69.7,-11141.06666666667,257.6,-1018.2,5.4,303.6,1020.9232,-1.3311248,2699.8,-0.0134485972,0.0076484559999999,0.033459526,-0.0144929838,-1.2573328,0.0100691091399999,39935.0,28809.5,8015.0,-5.0,30.0,18.5,1,27_ygyro_avg_drift_-397.6916666666667
2023-01-01 06:07:09,186.164,0.0999999999999999,100.0,1190.5,24249.0,4883.0,99.0,1121.9,122.8,4878.8,76.87566,1.8009153999999998,0.0114593848,0.039918518,-1.2289426,39.872,0.0168597586,0.043270106,-1.2288878,0.52946059,1.7924447,10.8633213,-22.7,11.5,69.4,-41.2,-11538.758333333335,256.5,-1069.7,17.5,308.6,1020.9186,-1.3356797,2702.4,0.0168597586,-0.0001845699999999,0.043270106,0.0187078821999999,-1.2288878,0.00511721,39870.0,28944.0,7950.0,-9.5,14.0,28.0,1,27_ygyro_avg_drift_-397.6916666666667
2023-01-01 06:07:10,187.162,0.0999999999999999,100.0,1199.0,24244.0,4882.5,99.0,1257.0,126.2,4879.6,75.266472,1.832151,-0.03191516394,0.046288444,-1.2596418,39.794,-0.0262004382,0.049321796,-1.2584844,0.53732994,1.9123878000000003,11.6777696,-0.6,-19.1,76.9,-55.9,-11936.450000000003,261.6,-1059.6,-80.2,308.8,1020.9686000000002,-1.2856093000000002,2705.1,-0.0262004382,-0.0159155722,0.049321796,-0.0225402742,-1.2584844,-0.0620497,39805.0,28860.0,7885.0,-3.0,21.5,25.5,1,27_ygyro_avg_drift_-397.6916666666667
2023-01-01 06:07:11,188.2061,0.1059999999999973,100.0,1284.0,24207.0,4883.0,99.0,1228.2,129.9,4869.6,73.658462,1.8557422,0.0180320432,0.0109438949799999,-1.2831614,39.67,0.02329961378,0.0145766662,-1.27981,0.51260683,1.9412796,10.3558878,-3.6,-9.7,53.2,-59.1,-12334.141666666668,261.6,-1060.4,18.2,327.4,1020.9740000000002,-1.2801797,2707.9,0.02324861178,0.099856084,0.0140393505,-0.0683351197999999,-1.2799612,0.0442523784,39695.0,28635.0,7775.0,17.0,-15.0,30.0,1,27_ygyro_avg_drift_-397.6916666666667
2023-01-01 06:07:12,189.2145555555556,0.1066666666666675,100.0,1297.0,24182.0,4878.5,99.0,1295.0,133.33333333333334,4878.888888888889,72.34337333333333,1.876267888888889,0.026872186,0.040766954,-1.275993,39.602,0.032093496,0.044307398,-1.2713072,0.5137271111111112,2.130895111111111,10.743903222222222,-2.888888888888889,10.38888888888889,49.333333333333336,-48.05555555555556,-12731.833333333336,270.05555555555554,-1092.1666666666667,0.4444444444444444,317.8888888888889,1020.9513888888888,-1.3027865000000003,2710.833333333333,0.032093496,-0.0615123939999999,0.044307398,-0.0022603939999999,-1.2713072,0.0064265724,39610.0,28721.5,7690.0,-12.0,-2.5,34.0,1,27_ygyro_avg_drift_-397.6916666666667
2023-01-01 06:07:13,190.16562500000003,0.1201250000000015,100.0,1209.0,24225.5,4873.0,99.0,1209.9375,136.5625,4872.0625,71.33091375000001,1.8970774375,0.0078786802499999,0.0493067375,-1.2564455,39.6075,0.01317038425,0.0529626725,-1.25090475,0.53206018125,1.980237,10.828032625000002,-19.3125,52.125,62.25,-45.0,-13129.525000000003,256.8125,-1055.625,19.9375,301.25,1020.9516875,-1.3025733125,2713.375,0.01317038425,-0.02183679375,0.0529626725,-0.0312176524999999,-1.25090475,0.0121980049999999,39605.0,28815.5,7685.0,-11.0,15.0,32.0,1,27_ygyro_avg_drift_-397.6916666666667
2023-01-01 06:07:14,191.141,0.0999999999999999,100.0,1045.5,24285.5,4874.0,99.0,1116.5,139.8,4875.0,70.239372,1.9206128,-0.00716105035,0.0383404025,-1.244634,39.5875,-0.00162152675,0.0410410525,-1.2379835,0.63182,1.218934777777778,9.345871999999998,-15.0,-51.0,73.44444444444444,-36.888888888888886,-13527.216666666669,268.1111111111111,-1070.6666666666667,1.4444444444444444,313.77777777777777,1020.9734444444445,-1.2807986666666666,2715.6666666666665,-0.00162152675,0.020323095,0.0410410525,-0.04066873125,-1.2379835,0.013415891,39580.0,28907.5,7660.0,8.0,23.5,30.5,1,27_ygyro_avg_drift_-397.6916666666667
2023-01-01 06:07:15,192.141,0.0999999999999999,100.0,1078.5,24263.0,4874.5,99.0,1111.0,142.9,4874.3,69.16236,1.9403453,-0.0044212724,0.0127143987399999,-1.2422993999999998,39.496,0.0007507872,0.0168663714,-1.235086,0.5880103222222222,1.1122077888888888,9.439061,-15.4,19.1,72.4,-36.3,-13924.908333333336,251.3,-1050.5,-1.4,323.6,1021.0068,-1.247617,2718.4,0.0007507872,-0.0114532299999999,0.0168663714,0.0021754127999999,-1.235086,0.00330598,39495.0,28925.0,7575.0,5.0,17.0,30.5,1,27_ygyro_avg_drift_-397.6916666666667
2023-01-01 06:07:16,193.1492,0.1019999999999981,100.0,1289.0,24150.0,4876.5,99.0,1195.3,146.2,4878.9,68.17291,1.9514998,-0.0075942719999999,0.0078501486,-1.2428784,39.374,-0.0028113032,0.0111549672,-1.2354428,0.4988034899999999,1.7849768999999998,13.2776976,-5.1,-0.4,74.0,-32.9,-14322.600000000002,245.9,-1052.8,6.8,328.1,1021.019,-1.2353826,2721.3,-0.0028113032,-0.079216008,0.0111549672,0.0112863452,-1.2354428,-0.001516153,39375.0,28920.5,7455.0,0.5,8.0,31.5,1,27_ygyro_avg_drift_-397.6916666666667
2023-01-01 06:07:17,194.1835,0.1040999999999996,100.0,1343.0,24142.0,4877.0,99.0,1256.6,149.7,4872.3,67.41445999999999,1.954024,0.0110579194,0.0321329199999999,-1.2399224,39.3,0.0154230298,0.034681306,-1.2324732,0.50991933,1.3117509,10.3690421,-5.4,22.6,67.4,-42.0,-14720.29166666667,261.9,-1031.6,-40.0,319.8,1020.9768,-1.2773435999999998,2723.8,0.0154230298,-0.051755206,0.034681306,0.02852206,-1.2324732,-0.0163664128,39305.0,28947.5,7385.0,-16.5,1.5,36.5,1,27_ygyro_avg_drift_-397.6916666666667
2023-01-01 06:07:18,195.161625,0.1223750000000016,100.0,1168.0,24205.5,4877.0,99.0,1155.125,152.875,4870.375,66.794895,1.955250875,0.0169539586,0.0198916944799999,-1.3043284,39.312,0.022180006,0.021182289,-1.2963011999999998,0.48193015,1.418384375,7.453105875,8.0625,-39.375,55.375,-34.6875,-15117.983333333335,264.5,-1033.8125,-36.25,327.875,1021.0018125,-1.2524218125000002,2726.625,0.021830546,0.0420386619999999,0.022072987,-0.0907550996599999,-1.2961942,-0.0488761502,39305.0,28556.5,7385.0,-2.0,-4.0,36.0,1,27_ygyro_avg_drift_-397.6916666666667
2023-01-01 06:07:19,196.2177,0.1040999999999996,100.0,1153.5,24230.0,4876.0,99.0,1161.0,156.4,4872.2,66.157679,1.9576161,0.035416244,0.025695896,-1.3241284,39.246,0.039751758,0.028392378,-1.3157698,0.4958793099999999,1.7089905,8.550234,-2.1,33.2,39.1,-29.3,-15515.675000000003,258.2,-1022.2,13.3,323.5,1020.9887,-1.2658280000000002,2729.2,0.039751758,-0.011184569,0.028392378,0.048066892,-1.3157698,0.0095762102,39250.0,28456.0,7330.0,-8.0,12.0,32.5,1,27_ygyro_avg_drift_-397.6916666666667
2023-01-01 06:07:20,197.22200000000004,0.0999999999999999,100.0,1260.0,24166.5,4878.5,99.0,1257.2,159.8,4871.8,65.72045200000001,1.9625904000000003,0.0096669303999999,0.0271147279999999,-1.2914088,39.190000000000005,0.015558915,0.029438582,-1.2819076,0.42481037,2.0947896000000004,9.6357876,-4.9,-11.0,50.7,-17.2,-15913.366666666669,259.1,-1069.4,33.2,313.7,1020.9881,-1.2661954000000002,2731.7,0.015558915,-0.0225070871999999,0.029438582,-0.0114397759999999,-1.2819076,0.0340555946,39190.0,28659.5,7270.0,-5.0,38.0,32.0,1,27_ygyro_avg_drift_-397.6916666666667
2023-01-01 06:07:21,198.19644444444444,0.1044444444444441,100.0,1289.0,24141.5,4877.0,98.11111111111111,1315.4444444444443,163.22222222222223,4876.777777777777,65.3355211111111,1.971564555555556,-0.0190797412,0.0198072899999999,-1.2608544000000002,39.19799999999999,-0.0125583561999999,0.022231732,-1.251576,0.4673593555555555,1.3777009777777778,7.876382444444445,-12.0,-31.33333333333333,76.77777777777777,-35.05555555555556,-16311.058333333336,255.38888888888889,-1061.6666666666667,9.166666666666666,320.1666666666667,1020.9561666666666,-1.298085888888889,2734.777777777778,-0.0125583561999999,0.028575944,0.022231732,-0.0081552378,-1.251576,0.0288177947999999,39200.0,28837.0,7280.0,2.5,29.5,32.5,1,27_ygyro_avg_drift_-397.6916666666667
2023-01-01 06:07:22,199.162,0.0999999999999999,100.0,1196.5,24181.0,4877.0,98.0,1236.4,166.5,4879.2,64.925448,1.9759652,0.0048607352,0.0113443096,-1.2559212,39.272000000000006,0.010544635,0.013404519,-1.2474150000000002,0.4280653,1.09191205,4.810302200000001,11.4,-1.3,70.3,-29.4,64.0,252.1,-1039.8,-13.2,332.1,1020.9662999999998,-1.2879141,2736.8,0.00455908625,0.0910594575,0.01338837625,0.0224006875,-1.24540175,-0.02018918175,39275.0,28850.5,7355.0,8.0,-4.0,27.5,0,None
2023-01-01 06:07:23,200.18400000000003,0.1039999999999991,100.0,1241.0,24150.0,4878.0,98.0,1239.0,170.1,4877.3,64.57198400000001,1.975621,0.0297535639999999,-0.0008889962999999,-1.2636808,39.25,0.03452602,0.0014647267,-1.2555502,0.48787951,1.3803515,6.3871926,9.6,15.2,54.7,-23.9,3.0,251.6,-1024.4,-8.6,333.5,1020.9693,-1.2848907,2739.4,0.03452602,0.012820995124,0.0014647267,0.050134793,-1.2555502,-0.0088944403999999,39250.0,28810.5,7330.0,-0.5,-4.0,29.5,0,None
2023-01-01 06:07:24,201.19433333333333,0.1066666666666675,100.0,1280.0,24139.5,4875.0,98.0,1303.5555555555557,173.66666666666666,4871.333333333333,64.40082666666666,1.9734585555555555,0.038134076,0.0138127543999999,-1.2687974,39.23,0.043952164,0.0157053678,-1.2609742000000002,0.3036505,1.4428264444444443,4.657102666666667,2.0,11.22222222222222,51.333333333333336,-24.88888888888889,-0.1111111111111111,257.1666666666667,-1058.2222222222222,20.11111111111111,332.3888888888889,1020.9737222222224,-1.2805165555555555,2742.333333333333,0.043952164,-0.002458162,0.0157053678,-0.012413438,-1.2609742000000002,0.022330164,39230.0,28769.0,7310.0,-6.0,6.0,30.0,0,None
2023-01-01 06:07:25,202.1882,0.1061000000000006,100.0,1126.5,24203.5,4882.5,98.0,1132.2,177.0,4876.6,64.37518800000001,1.9724498,0.030058402,-0.0038995718,-1.2242218,39.276,0.0358185979999999,-0.0009320778,-1.2175908,0.50339639,1.3212532,5.6387499000000005,8.2,-26.6,69.9,-31.0,4.1,244.6,-1035.4,26.5,330.5,1020.9588,-1.2955234999999996,2744.6,0.0358185979999999,0.019782251,-0.0009320778,-0.023603908,-1.2175908,0.02351083244,39270.0,29030.0,7350.0,-9.5,17.0,29.0,0,None
2023-01-01 06:07:26,203.205,0.0979999999999989,100.0,1144.5,24173.0,4882.5,98.0,1113.1,180.4,4872.8,64.50913599999998,1.973268,0.0259807,0.0054387519,-1.2270150000000002,39.288,0.031598046,0.0074299909999999,-1.2209214,0.5355838,1.4919988999999998,4.637156599999999,3.5,21.7,71.2,-27.1,2.5,246.8,-1076.4,-24.1,326.9,1020.9488,-1.3055391,2747.1,0.031598046,0.0345405399999999,0.0074299909999999,0.0320587118,-1.2209214,-0.03308474,39285.0,29008.5,7365.0,-24.5,19.5,28.0,0,None
2023-01-01 06:07:27,204.207,0.0999999999999999,100.0,1227.5,24141.0,4870.5,98.0,1134.6,183.4,4869.9,64.81285,1.9743386,0.032594168,0.0250913169999999,-1.2621124,39.272,0.03785416,0.0264939348,-1.2567558,0.4764926700000001,1.3180726,5.5383762,12.8,22.2,58.2,-41.4,1.3,254.5,-1047.5,-29.1,321.7,1020.9543,-1.3001171,2749.6,0.03785416,0.006205586,0.0264939348,0.026047230834,-1.2567558,-0.038337756,39270.0,28800.5,7350.0,-23.5,23.0,25.5,0,None
2023-01-01 06:07:28,205.221,0.102000000000001,100.0,1114.5,24199.5,4879.5,98.0,1125.6,186.6,4868.9,65.172518,1.9782126000000004,0.0092027253999999,0.031152196,-1.2840464,39.264,0.0144238427999999,0.032822686,-1.2789418,0.40283898,1.0679960300000002,4.005410899999999,10.2,-9.1,58.1,-34.3,-8.5,263.4,-1023.8,-20.3,319.4,1020.969,-1.2853203,2752.1,0.0145177428,-0.0086426534,0.032752846,-0.03456829,-1.278814,-0.0026432085999999,39265.0,28672.0,7345.0,0.5,24.0,28.5,0,None
2023-01-01 06:07:29,206.20022222222224,0.1044444444444441,100.0,1153.5,24161.0,4879.0,98.0,1106.2222222222222,189.44444444444449,4879.111111111111,65.41540444444445,1.9844487777777784,0.0227834775,-0.00732853575,-1.276025,39.245,0.0283369474999999,-0.00518913525,-1.2709345,0.4650108777777777,0.8603318444444443,2.9963941111111114,-2.555555555555556,-13.833333333333334,52.0,-31.27777777777778,9.61111111111111,252.44444444444449,-1036.7222222222222,-9.27777777777778,334.3333333333333,1020.9716666666668,-1.2826735555555553,2754.5,0.0283369474999999,0.0357801035,-0.00518913525,-0.0152191549999999,-1.2709345,-0.0029938392499999,39240.0,28718.0,7320.0,7.5,18.0,31.0,0,None
2023-01-01 06:07:30,207.1898,0.1040999999999996,100.0,1123.5,24193.5,4875.5,98.0,1103.9,192.7,4875.7,65.612658,1.988778,0.020544554,-0.0041531068,-1.2749034,39.216,0.02641089,-0.00221874966,-1.270693,0.50374629,0.99279237,3.544182,6.3,-15.1,57.7,-41.9,7.7,257.5,-1039.4,-16.8,339.0,1020.969,-1.2854218999999998,2756.9,0.02641089,0.02630477308,-0.00221874966,-0.0087057176,-1.270693,-0.0124296364,39215.0,28719.5,7295.0,-1.5,13.5,32.0,0,None
2023-01-01 06:07:31,208.22222222222223,0.1088888888888876,100.0,1182.5,24148.5,4875.0,98.0,1214.6666666666667,195.88888888888889,4874.777777777777,65.88610666666668,1.9907122222222224,0.033622768,0.0076006952,-1.2807192,39.212,0.0391329059999999,0.0104519452,-1.2778278,0.4290558222222222,0.8070520000000001,3.776322333333333,19.444444444444443,23.05555555555556,48.16666666666666,-25.83333333333333,-13.166666666666666,254.72222222222223,-1067.4444444444443,0.0,334.1111111111111,1020.9708333333332,-1.2834678333333334,2759.777777777778,0.0391329059999999,0.0068285455999999,0.0104519452,0.0253215311999999,-1.2778278,-0.0127865404,39210.0,28675.0,7290.0,-13.0,12.0,30.5,0,None
2023-01-01 06:07:32,209.1603333333333,0.1088888888888908,100.0,1151.0,24164.5,4877.5,98.0,1159.2222222222222,199.0,4873.0,66.18365666666666,1.9926843333333333,0.021562796,0.017916492,-1.27869,39.24,0.027605614,0.020160316,-1.2759436,0.556606388888889,0.756541488888889,4.403932999999999,9.61111111111111,6.833333333333333,55.61111111111112,-26.33333333333333,2.055555555555556,258.8333333333333,-1047.2777777777778,2.9444444444444446,325.8333333333333,1020.9535,-1.3008680555555554,2762.0,0.027605614,0.0125694441999999,0.020160316,0.0162486206,-1.2759436,-0.0049393582399999,39250.0,28679.5,7330.0,-5.0,13.0,31.5,0,None
2023-01-01 06:07:33,210.1656,0.1019000000000005,100.0,1151.0,24156.5,4875.0,98.0,1147.4,202.2,4871.1,66.49327299999999,1.9966592,0.023706042,0.01336877242,-1.27773,39.268,0.029861766,0.0152625633999999,-1.2753536,0.3806033,0.97169826,2.9162614000000007,14.3,-17.8,52.4,-36.1,1.7,258.5,-1021.9,12.7,332.1,1020.9568,-1.2975076,2764.4,0.029861766,0.007707788,0.0152625633999999,-0.0078544868,-1.2753536,0.0084290485999999,39270.0,28709.5,7350.0,4.0,15.5,28.5,0,None
2023-01-01 06:07:34,211.1917,0.1040999999999996,100.0,1126.5,24174.5,4879.5,98.0,1114.2,205.5,4873.5,66.77403199999999,2.0018186,0.0198350119999999,-0.00109662643,-1.247336,39.258,0.025774706,0.0022612406,-1.2454628,0.38344011,1.01227426,4.9399519,5.6,-4.9,62.2,-14.7,-15.9,247.4,-1070.1,41.0,330.2,1020.9598999999998,-1.2944688000000002,2767.0,0.025774706,0.0008342333999999,0.0022612406,-0.0032384582,-1.2454628,0.035588444,39255.0,28893.5,7335.0,0.5,19.5,28.5,0,None
2023-01-01 06:07:35,212.1872222222222,0.1044444444444441,100.0,1191.5,24133.0,4877.5,98.0,1147.2222222222222,208.66666666666663,4873.666666666667,67.05396666666667,2.005297111111111,0.0055581829,-0.00430969625,-1.259762,39.2525,0.0116829272499999,-0.00179866225,-1.25829275,0.4069020111111111,1.2726522222222223,4.343104111111111,-7.777777777777778,-0.2222222222222222,64.77777777777777,-28.22222222222222,13.055555555555555,252.11111111111111,-1037.1666666666667,-57.72222222222222,331.44444444444446,1020.9495555555555,-1.3049088333333332,2769.333333333333,0.0116829272499999,0.0083789025,-0.00179866225,0.01253445175,-1.25829275,-0.0672172325,39250.0,28785.0,7330.0,-2.0,13.0,30.0,0,None
2023-01-01 06:07:36,213.2,0.1060000000000002,100.0,1171.0,24143.0,4868.0,98.0,1153.3,211.6,4873.7,67.34977,2.0049630000000005,0.014812052,0.0112956846,-1.2828039999999998,39.27,0.021864826,0.012622239,-1.2829748,0.47912749,0.8968803800000001,3.3385513,2.8,14.6,57.2,-8.8,16.6,254.5,-1055.1,-5.5,334.0,1020.9557,-1.2985468,2771.8,0.021864826,0.01109288022,0.012622239,0.020792722,-1.2829748,-0.0018496786,39270.0,28642.0,7350.0,-3.0,6.0,26.5,0,None
2023-01-01 06:07:37,214.2341111111111,0.1088888888888877,100.0,1217.0,24119.0,4882.5,98.0,1196.888888888889,215.11111111111111,4881.333333333333,67.63985333333332,2.003092555555556,0.0289246879999999,-0.0026486564,-1.2574826,39.254000000000005,0.035747836,-0.0013761526,-1.2584464,0.3964377666666667,1.164965866666667,3.7598291111111113,15.27777777777778,-3.888888888888889,58.44444444444444,-24.61111111111111,-6.611111111111111,249.94444444444449,-1079.888888888889,14.833333333333334,331.3333333333333,1020.9639444444445,-1.2902735555555556,2774.333333333333,0.035747836,0.0089947742,-0.0013761526,-0.0279426718,-1.2584464,0.0161343444,39255.0,28772.0,7335.0,3.0,4.0,27.0,0,None
2023-01-01 06:07:38,215.19877777777776,0.1067777777777791,100.0,1164.0,24124.0,4886.5,98.0,1186.5555555555557,218.3333333333333,4879.666666666667,67.92645666666667,2.001767666666667,0.031069902,-0.0001656184,-1.2573512,39.252,0.038084428,0.0013455553,-1.2590146,0.4008641777777778,0.9112438666666668,2.876523666666666,2.1666666666666665,-22.944444444444443,54.22222222222222,-8.166666666666666,28.166666666666668,250.72222222222223,-1043.6666666666667,-7.055555555555555,325.72222222222223,1020.9560555555556,-1.298237888888889,2776.833333333333,0.038084428,0.021516443,0.0013455553,-0.019363718,-1.2590146,-0.0043111635999999,39250.0,28784.0,7330.0,1.0,9.0,30.5,0,None
2023-01-01 06:07:39,216.1963,0.1058999999999997,100.0,1143.5,24139.0,4883.0,98.0,1189.5,221.7,4880.7,68.25292600000002,2.0011196,0.0280119159999999,-0.016264208,-1.2556358,39.268,0.0349786839999999,-0.0138129704,-1.2576062,0.5201967200000001,1.02529561,3.8444798,17.1,7.9,54.7,-9.3,-11.5,247.0,-1045.0,12.9,332.3,1020.9498,-1.3044687,2778.9,0.0349786839999999,-0.0103937703999999,-0.0138129704,0.00765343,-1.2576062,-0.0112327966,39270.0,28799.0,7350.0,-10.5,15.0,27.0,0,None
2023-01-01 06:07:40,217.201,0.1066666666666643,100.0,1171.0,24091.0,4877.0,98.0,1208.6666666666667,225.0,4882.0,68.68208444444444,2.0011683333333337,0.0274558175,0.01149095275,-1.2557605,39.26,0.0350051225,0.01378424625,-1.25865675,0.4857395777777778,1.1859201666666666,5.106580111111111,2.333333333333333,37.888888888888886,57.833333333333336,-12.444444444444445,1.0,252.44444444444449,-1080.8333333333333,-20.77777777777778,330.3888888888889,1020.9518333333334,-1.3023176666666665,2781.333333333333,0.0350051225,0.01458706275,0.01378424625,0.0477980975,-1.25865675,-0.00536543775,39260.0,28784.5,7340.0,-25.5,12.0,27.5,0,None
2023-01-01 06:07:41,218.1675555555556,0.1066666666666675,100.0,1147.5,24129.5,4882.5,98.0,1169.5555555555557,228.22222222222223,4880.666666666667,69.16004333333332,2.002336777777777,0.020473414,0.02836285,-1.2583986,39.272,0.027194022,0.0307177179999999,-1.2612238000000002,0.500341088888889,0.8140198777777777,3.134530555555555,1.6666666666666667,14.444444444444445,56.94444444444444,-27.27777777777778,-15.333333333333334,267.0,-1066.7777777777778,-16.555555555555557,325.3333333333333,1020.946888888889,-1.307361166666667,2783.611111111112,0.027194022,-0.0169178246,0.0307177179999999,0.0265658509999999,-1.2612238000000002,-0.0189425244,39275.0,28763.5,7355.0,-13.0,17.0,29.5,0,None
2023-01-01 06:07:42,219.1641,0.1039999999999991,100.0,1206.0,24095.5,4881.0,98.0,1197.7,231.4,4880.0,69.564986,2.0049168,-0.080780699,0.011872416,-1.2848184,39.324,-0.0731802358,0.0138498644,-1.2879078,0.53448265,1.00380778,4.961989299999999,16.0,-70.0,73.6,2.8,-168.5,255.2,-1093.0,51.0,311.8,1020.9494,-1.3048828,2786.1,-0.0731802358,-0.16518651,0.0138498644,-0.082409518,-1.2879078,0.0548056939999999,39335.0,28635.5,7415.0,32.0,-17.0,46.0,0,None
2023-01-01 06:07:43,220.2105,0.1041000000000024,100.0,1283.5,24063.0,4864.5,98.0,1363.6,235.3,4867.7,69.946068,2.0086614,-0.1261499199999999,-0.033715756,-1.2250450000000002,39.894,-0.117627528,-0.030906864,-1.2293724,0.35995498,1.3741624,3.8339145,-12.5,17.4,117.1,2.7,71.3,232.8,-1114.9,24.7,301.7,1020.8938999999998,-1.3603906,2788.3,-0.117627528,0.064556774,-0.030906864,0.0224387604,-1.2293724,-0.0012760749999999,39960.0,28967.0,8040.0,65.0,-184.5,116.0,0,None
2023-01-01 06:07:44,221.225,0.0999999999999999,100.0,1400.0,24003.5,4874.5,98.0,1448.8,239.4,4872.4,70.412084,2.0122438,-0.111763082,-0.033900876,-1.2382126,40.968,-0.107083926,-0.033377932,-1.241113,0.32740766,1.0920272700000002,4.9598151,-16.6,-37.7,102.2,-13.0,-20.6,234.2,-1079.5,-41.3,312.3,1020.7911,-1.4633047,2790.8,-0.1076209574999999,-0.03750865075,-0.032901965,-0.032825425,-1.24097775,-0.02002251425,41045.0,28884.0,9125.0,88.0,-307.5,151.0,0,None
2023-01-01 06:07:45,222.225,0.0999999999999999,100.0,1518.5,23941.0,4879.5,98.0,1430.7,243.4,4873.8,70.926876,2.014988,-0.1166542559999999,-0.0410356652,-1.2438214,42.23,-0.112234248,-0.03861466,-1.2463282000000002,0.42485019,1.29606339,4.2564781,-19.0,48.3,111.1,-5.5,33.2,229.0,-1084.3,15.5,314.6,1020.6467,-1.6074921,2793.2,-0.112234248,0.0585250799999999,-0.03861466,0.055964378,-1.2463282000000002,0.0003248955999999,42325.0,28864.0,10405.0,88.5,-437.5,168.0,0,None
2023-01-01 06:07:46,223.17944444444444,0.1022222222222208,100.0,1388.0,24011.5,4866.5,98.0,1387.111111111111,247.0,4875.111111111111,71.44721666666666,2.017404555555556,-0.0750755375,0.0112140517499999,-1.2275865,43.4625,-0.0717053775,0.011851647,-1.230101,0.4159424777777778,1.1198803888888886,4.0762133333333335,-32.44444444444444,26.944444444444443,102.44444444444444,-13.666666666666666,31.33333333333333,246.0555555555556,-1052.2777777777778,-3.7777777777777777,314.3888888888889,1020.4592222222224,-1.7948091111111113,2795.222222222222,-0.0717053775,0.0222163925,0.011851647,0.021920265,-1.230101,0.0009534667499999,43710.0,28950.0,11790.0,113.0,-508.0,168.5,0,None
2023-01-01 06:07:47,224.1651,0.1039999999999991,100.0,1258.0,24049.0,4886.0,98.0,1281.1,250.5,4881.9,71.966756,2.0191951999999995,-0.093581594,0.0146529184,-1.2413339999999995,44.760000000000005,-0.090030688,0.0160262598,-1.2433508,0.4899268499999999,1.06487602,5.6537298,-42.6,-16.3,102.5,-19.3,-33.3,255.2,-1044.3,-26.7,321.2,1020.3187,-1.9354609,2797.8,-0.090030688,-0.040991384,0.0160262598,-0.030086896,-1.2433508,-0.0181389798,45145.0,28842.0,13225.0,155.5,-555.0,163.5,0,None
2023-01-01 06:07:48,225.20370000000003,0.1040999999999996,100.0,1294.5,24031.5,4880.0,98.0,1312.3,254.3,4877.8,72.45350599999999,2.0206868,-0.107287248,-0.00814865156,-1.2723866,46.116,-0.1021356119999999,-0.0056226468,-1.2746952,0.56495272,1.19595704,6.7183781,-45.5,2.7,101.9,-33.5,21.2,248.1,-1049.4,-28.8,331.9,1020.1554999999998,-2.098828,2800.0,-0.1021356119999999,0.03999413,-0.0056226468,-0.0212040079999999,-1.2746952,-0.041238718,46480.0,28666.5,14560.0,167.0,-627.5,162.0,0,None
2023-01-01 06:07:49,226.17822222222225,0.1022222222222239,100.0,1218.0,24049.5,4886.5,98.0,1194.7777777777778,257.6666666666667,4879.111111111111,72.87653111111112,2.0223926666666667,-0.077717298,0.029949926,-1.2659088,47.464,-0.072655622,0.0326096119999999,-1.2697648,0.5585697777777777,1.3563261111111111,5.984895888888889,-59.0,51.27777777777778,94.5,-20.88888888888889,31.72222222222222,252.5,-1027.7222222222222,24.05555555555556,313.94444444444446,1020.0440555555556,-2.210191111111111,2802.333333333333,-0.072655622,0.0127955478,0.0326096119999999,0.04644052,-1.2697648,0.0097930839999999,47500.0,28741.0,15580.0,174.0,-657.0,168.0,0,None
2023-01-01 06:07:50,227.154,0.102000000000001,100.0,874.0,24214.0,4878.5,98.0,958.6,260.7,4878.0,73.262765,2.0251198,-0.0220584559999999,0.010902438,-1.2570998,48.544,-0.0167150139999999,0.0124669995999999,-1.262397,0.7038427400000001,1.08260254,4.3788495,-63.9,-52.9,88.9,-33.5,161.6,14425.750000000004,-936.1,-6.2,321.0,1019.9104,-2.3438671,2804.9,-0.0167150139999999,0.1524797259999999,0.0124669995999999,-0.0630882386,-1.262397,-0.0134855571999999,48370.0,28764.0,16450.0,202.5,-667.5,134.0,1,27_ymag_avg_drift_202.47500000000005
2023-01-01 06:07:51,228.16,0.0999999999999999,100.0,1119.5,24107.5,4882.5,98.0,1047.1,263.3,4879.0,73.666154,2.0304904,0.127496634,0.0040566047999999,-1.2335782,48.754000000000005,0.130034862,0.0078894914,-1.2374242,0.8897749300000001,1.8967407,11.6126322,-43.0,54.8,33.9,-41.7,-3.9,14628.225000000004,-1015.3,53.1,350.4,1019.8448999999998,-2.4092421,2806.9,0.130034862,0.0007233136,0.0078894914,0.049503928,-1.2374242,0.0445157879999999,48760.0,28838.0,16840.0,174.5,-597.0,48.0,1,27_ymag_avg_drift_202.47500000000005
2023-01-01 06:07:52,229.18,0.1019999999999981,100.0,1146.0,24099.5,4880.0,98.0,1177.6,266.5,4884.1,74.00754799999997,2.0377504,0.061945766,0.045977304,-1.2336934,48.814,0.068605078,0.048676796,-1.233059,0.5104924200000001,1.03032198,7.087950699999999,-37.9,-5.0,55.7,-23.4,21.1,14830.700000000004,-1034.9,-64.2,319.4,1019.749,-2.5054765,2809.1,0.068605078,0.0394510379999999,0.048676796,-0.009597301,-1.233059,-0.05932585,48780.0,29004.5,16860.0,128.5,-455.0,31.0,1,27_ymag_avg_drift_202.47500000000005
2023-01-01 06:07:53,230.202,0.102000000000001,100.0,1219.0,24073.0,4872.5,98.0,1188.4,270.0,4877.2,74.26606999999998,2.0459672,0.1289784199999999,0.021209958,-1.2688566,48.95,0.1360720999999999,0.023534538,-1.2656082000000002,0.44280491,1.25691875,7.214816499999999,-29.1,-1.5,24.5,-33.6,54.5,15033.175000000003,-1042.8,-10.6,335.3,1019.7395,-2.5148671,2811.5,0.1360720999999999,0.0600908099999999,0.023534538,0.0105007466,-1.2656082000000002,-0.0078786892,48930.0,28749.0,17010.0,112.5,-348.5,20.0,1,27_ymag_avg_drift_202.47500000000005
2023-01-01 06:07:54,231.206,0.0999999999999999,100.0,1234.0,24062.0,4879.5,98.0,1225.6,273.5,4876.666666666667,74.433338,2.0540352000000004,0.14204582,0.040169252,-1.2640521999999998,48.98,0.1492291,0.04176795,-1.2583216,0.42355589,1.30610486,7.8958417,-4.8,11.4,18.0,-17.0,11.5,15235.650000000003,-1079.5,9.9,324.9,1019.7634999999998,-2.4909687000000003,2813.8,0.1492291,0.01035691,0.04176795,0.00501007008,-1.2583216,0.0101492108399999,48980.0,28800.0,17060.0,71.5,-209.0,16.5,1,27_ymag_avg_drift_202.47500000000005
2023-01-01 06:07:55,232.206,0.0999999999999999,100.0,1211.0,24045.5,4883.5,98.0,1175.6,276.8,4879.7,74.54373000000001,2.0631768,0.09933639,0.084914258,-1.2805198,48.978,0.109024418,0.084742214,-1.2739736000000002,0.39174131,1.7662536000000002,7.6474963,6.4,141.1,19.8,-37.1,-82.5,15438.125000000004,-1096.6,-7.1,318.0,1019.7554,-2.4988281,2816.0,0.109024418,-0.080820983,0.084742214,0.145139006,-1.2739736000000002,-0.0026519409999999,48980.0,28720.0,17060.0,45.5,-79.0,21.0,1,27_ymag_avg_drift_202.47500000000005
2023-01-01 06:07:56,233.206,0.0999999999999999,100.0,1035.5,24125.5,4880.0,98.0,1069.6,280.0,4878.4,74.65212000000001,2.0763082,0.0807955139999999,0.17448634,-1.2897728000000002,48.998,0.090414294,0.17178082,-1.2854202,0.5505130599999999,1.4748522699999995,9.4692926,19.2,-52.0,33.4,-70.1,53.2,15640.600000000004,-1036.7,-10.0,296.4,1019.7449,-2.5094062,2818.2,0.090414294,0.0303652255999999,0.17178082,-0.065015677,-1.2854202,-0.013361759,48990.0,28652.0,17070.0,118.0,-5.5,20.0,1,27_ymag_avg_drift_202.47500000000005
2023-01-01 06:07:57,234.206,0.0999999999999999,100.0,943.0,24181.5,4883.0,98.0,966.9,282.8,4878.4,74.73982600000002,2.093856,0.0700222,0.040907884,-1.2923826,48.978,0.077486934,0.040771824,-1.289397,0.60840932,1.30424618,7.236457899999999,20.5,-107.9,34.1,-59.3,-37.1,15843.075000000004,-1045.7,6.0,329.2,1019.7471000000002,-2.5072108,2820.3,0.077486934,-0.0364371479999999,0.040771824,-0.10559518,-1.289397,0.0031128859999999,48995.0,28604.5,17075.0,198.5,58.0,20.5,1,27_ymag_avg_drift_202.47500000000005
2023-01-01 06:07:58,235.206,0.0999999999999999,100.0,959.0,24146.5,4868.0,98.0,992.4,285.5,4876.7,74.85011999999999,2.1132746,0.073622028,-0.0405858828,-1.2875144,48.884,0.080387714,-0.0400045868,-1.2876822,0.65233147,1.2406768499999998,6.564560700000001,33.0,-110.9,38.8,-62.1,37.6,16045.550000000005,-1059.0,-22.4,344.7,1019.7606,-2.4937031,2822.5,0.080387714,0.023580538,-0.0400045868,-0.105774024,-1.2876822,-0.024695765,48910.0,28633.0,16990.0,179.0,64.0,16.5,1,27_ymag_avg_drift_202.47500000000005
2023-01-01 06:07:59,236.206,0.0999999999999999,100.0,938.5,24165.5,4885.5,98.0,951.5,288.1,4879.9,75.05157600000001,2.1323602,0.06458618,-0.082715694,-1.2872848,48.790000000000006,0.070924988,-0.0819884019999999,-1.2897262,0.56934313,1.5071638,9.9119083,14.1,80.1,34.1,-67.1,-18.0,16248.025000000003,-1097.0,-12.6,370.9,1019.8512,-2.4032031,2824.7,0.070924988,-0.0253379747999999,-0.0819884019999999,0.082188454,-1.2897262,-0.0122378658,48825.0,28619.0,16905.0,72.5,58.0,21.0,1,27_ymag_avg_drift_202.47500000000005
2023-01-01 06:08:00,237.206,0.0999999999999999,100.0,1058.5,24156.0,4887.5,98.0,1008.3,290.9,4879.1,75.305146,2.152618,0.0561207279999999,-0.0319818398,-1.2909224,48.64,0.063415022,-0.0350022176,-1.2940562,0.5790245,1.5760392,12.348247000000004,39.7,-81.4,35.3,-31.4,0.0,16450.500000000004,-1061.2,-5.7,341.8,1019.8439,-2.410375,2827.0,0.063415022,-0.017192376,-0.0350022176,-0.103454702,-1.2940562,-0.0068167546,48665.0,28589.0,16745.0,-7.5,45.0,31.5,1,27_ymag_avg_drift_202.47500000000005
2023-01-01 06:08:01,238.206,0.0999999999999999,100.0,1068.0,24103.0,4882.5,98.0,1040.6,293.7,4881.1,75.56794400000001,2.17269,0.048678712,-0.1334266,-1.289661,48.61,0.055846724,-0.13471248,-1.2908225999999998,0.58212649,1.3947873000000002,10.2695815,38.6,-7.0,40.1,-23.1,13.5,16652.975000000006,-1064.7,17.1,376.2,1019.8528,-2.4014688000000004,2829.2,0.055846724,0.013326786,-0.13471248,0.0087509859999999,-1.2908225999999998,0.0236759414,48610.0,28592.5,16690.0,-92.5,14.5,35.5,1,27_ymag_avg_drift_202.47500000000005
2023-01-01 06:08:02,239.208,0.0999999999999999,100.0,1104.0,24105.0,4874.5,98.0,1078.5,296.7,4880.2,75.77103799999999,2.1936144000000004,0.047393306,-0.078254438,-1.2595196000000002,48.614,0.054338142,-0.080655716,-1.2603406,0.58685904,1.3411197,7.881086100000002,33.6,70.6,43.7,-31.8,-14.3,16855.450000000004,-1041.0,11.0,362.8,1019.8412,-2.4130781,2831.4,0.054338142,-0.0115489889999999,-0.080655716,0.083355766,-1.2603406,0.00967003658,48620.0,28732.0,16700.0,-220.0,-27.5,32.5,1,27_ymag_avg_drift_202.47500000000005
2023-01-01 06:08:03,240.212,0.1019999999999981,100.0,1065.0,24119.5,4883.0,98.0,1101.3,299.7,4876.9,75.95794000000001,2.214709,0.036656432,0.001042253,-1.245694,48.63399999999999,0.0445283,-0.0027682787999999,-1.245181,0.5400250499999999,1.24023243,4.7071042,30.2,75.5,49.4,-10.6,-14.2,17057.925000000003,-1055.7,1.0,339.7,1019.8377,-2.4165312,2833.7,0.0445283,-0.02871533098,-0.0027682787999999,0.0987431239999999,-1.245181,4.00046000000015e-05,48630.0,28867.5,16710.0,-275.0,-49.5,32.0,1,27_ymag_avg_drift_202.47500000000005
2023-01-01 06:08:04,241.20625,0.1150000000000019,100.0,992.5,24153.0,4882.0,98.0,1041.5,302.5625,4876.5625,76.14390687500001,2.2341495625,0.0241771475,0.1335213625,-1.26510275,48.655,0.03176675,0.128673955,-1.263672,0.5711227875000001,1.263961125,6.315859250000001,25.666666666666664,124.95833333333334,45.66666666666667,-37.458333333333336,0.6666666666666661,281.58333333333337,-1037.8333333333337,-45.33333333333333,299.625,1019.8340833333332,-2.42049775,2835.875,0.03176675,0.02249984125,0.128673955,0.1214044849999999,-1.263672,-0.0097322779999999,48650.0,28778.0,16730.0,-228.5,-45.5,32.5,0,None
2023-01-01 06:08:05,242.1769,0.1040999999999996,100.0,1089.5,24107.5,4880.0,98.0,1078.1,305.3,4883.1,76.287416,2.2513254,0.098680966,0.0612329436,-1.2795039999999998,48.67399999999999,0.1057221519999999,0.059853446,-1.2764814,0.5520617999999999,1.26045716,7.513813199999999,29.9,-178.0,22.0,-25.5,132.8,268.0,-1053.2,-11.8,319.6,1019.8333,-2.4208281,2837.8,0.1057221519999999,0.1194269981999999,0.059853446,-0.1558278372,-1.2764814,-0.0113779738,48675.0,28684.0,16755.0,-110.0,-4.5,30.5,0,None
2023-01-01 06:08:06,243.209,0.1039999999999991,100.0,1017.5,24101.0,4863.5,98.0,1071.5,308.6,4872.6,76.35366600000002,2.2685844000000004,0.084223012,-0.0028049672,-1.2587106,48.666,0.092328588,0.0004513556139999,-1.2542468,0.5191513799999999,1.28687947,5.9869551,40.9,91.5,27.8,-10.1,-221.7,247.1,-1068.6,5.8,339.9,1019.8227,-2.4315077,2840.1,0.094145944,-0.1904049574,-0.000427218386,0.0531508879999999,-1.253952,0.0131030645999999,48665.0,28819.0,16745.0,-129.5,85.5,31.5,0,None
2023-01-01 06:08:07,244.1925555555556,0.1066666666666675,100.0,1138.0,24106.0,4878.0,98.0,1084.888888888889,311.55555555555554,4880.444444444444,76.41948888888889,2.285773111111112,-0.07946291,0.09563731,-1.263745,48.666,-0.0640714263999999,0.0958428039999999,-1.2613712,0.5745008222222221,1.404229,7.680141000000002,23.11111111111111,4.333333333333333,82.16666666666667,-35.05555555555556,45.55555555555556,287.0,-1071.4444444444443,-20.55555555555556,294.3333333333333,1019.8231111111112,-2.4310977777777776,2842.0,-0.0640714263999999,0.058390584,0.0958428039999999,0.025508382,-1.2613712,-0.0241732032,48670.0,28784.0,16750.0,-78.5,44.5,29.0,0,None
2023-01-01 06:08:08,245.187,0.0999999999999999,100.0,1055.0,24115.0,4862.5,98.0,1119.0,314.5,4884.4,76.462192,2.3007198000000004,-0.0479068532,0.0133483228,-1.2602226,48.684,-0.036095078,0.01447798816,-1.2602408,0.51848578,1.18644154,4.6922999,23.9,-68.9,72.5,-13.9,-82.6,261.7,-1050.3,19.6,327.7,1019.7739,-2.4804609,2844.2,-0.036095078,-0.072914434,0.01447798816,-0.0793487108,-1.2602408,0.0168522941999999,48680.0,28772.0,16760.0,2.0,-19.0,27.0,0,None
2023-01-01 06:08:09,246.199,0.102000000000001,100.0,1140.5,24086.0,4866.5,98.0,1150.4,317.7,4885.6,76.43799199999998,2.313767,-0.08922925,0.040042306,-1.2533206,48.726,-0.076725104,0.041942664,-1.256343,0.4188601500000001,1.01930714,4.6697677,3.1,29.4,94.0,-15.7,75.3,268.2,-1071.7,12.3,313.3,1019.7942,-2.4599921,2846.4,-0.076963544,0.0612397679999999,0.04206512,0.039156102,-1.2564928,-0.0126194321999999,48725.0,28795.5,16805.0,31.0,-125.0,23.0,0,None
2023-01-01 06:08:10,247.22300000000004,0.1039999999999991,100.0,1139.0,24056.0,4875.0,98.0,1174.7,321.2,4880.2,76.44220600000001,2.3262784,0.0797339099999999,0.0160704154,-1.237462,48.702000000000005,0.0880484928,0.0178533182,-1.242055,0.4015175999999999,1.56471536,7.617910099999999,-3.3,-17.4,44.95,-29.1,177.2,250.5,-1047.3,-12.25,325.4,1019.7832,-2.4713358,2848.4,0.0880484928,0.203358986,0.0178533182,-0.00814679,-1.242055,0.0198466894,48700.0,28882.5,16780.0,59.5,-152.5,23.0,0,None
2023-01-01 06:08:11,248.2192222222222,0.1044444444444441,100.0,1105.5,24086.0,4878.5,97.66666666666669,1099.3333333333333,324.1111111111111,4891.111111111111,76.43952777777776,2.336861111111112,0.086709082,0.02448176,-1.2363526,48.728,0.094872728,0.026734714,-1.2414034,0.4166794888888889,1.316997888888889,4.581391222222223,12.444444444444445,1.5555555555555556,34.0,-33.333333333333336,-104.11111111111111,255.5555555555556,-1053.3333333333333,-17.333333333333332,333.3333333333333,1019.7986666666668,-2.4553907777777777,2850.555555555556,0.094872728,-0.09273974,0.026734714,-0.0011317079999999,-1.2414034,-0.0191300658,48725.0,28892.5,16805.0,27.0,-47.5,27.0,0,None
2023-01-01 06:08:12,249.215,0.1039999999999991,100.0,1150.0,24056.5,4890.5,97.0,1146.6,327.5,4878.9,76.454718,2.3476226,0.033333242,0.021228826,-1.2475885999999998,48.712,0.046040066,0.022125692,-1.251978,0.48312241,1.18126133,4.6863132,5.4,-3.1,53.5,-20.6,18.6,257.8,-1079.3,-8.1,324.4,1019.7859,-2.4684765,2852.7,0.046226062,0.0023190708,0.022185294,0.0003090257999999,-1.2519338000000002,0.0060956809999999,48715.0,28827.0,16795.0,16.0,-15.0,22.0,0,None
2023-01-01 06:08:13,250.2014444444445,0.1044444444444441,100.0,1142.0,24049.0,4890.0,97.0,1129.888888888889,330.3333333333333,4866.444444444444,76.4763611111111,2.359125666666667,0.0493341175,0.0222160175,-1.25260275,48.715,0.0610995475,0.0229973474999999,-1.2566105,0.3538892888888889,1.2458015666666666,4.400197111111112,10.055555555555555,-1.6111111111111112,48.05555555555556,-8.444444444444445,7.555555555555555,261.1666666666667,-1068.6666666666667,-11.333333333333334,331.6111111111111,1019.8118333333332,-2.4425346666666665,2854.777777777778,0.0610995475,0.01909913975,0.0229973474999999,0.00120298125,-1.2566105,-0.029890195,48715.0,28799.5,16795.0,11.5,3.5,27.0,0,None
2023-01-01 06:08:14,251.195,0.1080000000000012,100.0,1054.0,24119.0,4877.0,97.0,1057.5,333.4,4883.7,76.49730200000002,2.3708334,0.0221256696666666,0.0106701712166666,-1.2662376666666668,48.705000000000005,0.0342446666666666,0.0108378850166666,-1.2694631666666667,0.53767237,1.14071957,6.3567429,19.55,-14.3,51.8,-22.6,-29.35,253.8,-1085.4,-2.55,335.3,1019.82205,-2.4322149000000004,2856.8,0.0342446666666666,-0.0134554916666666,0.0108378850166666,-0.0021169993333333,-1.2694631666666667,-0.0364170383333333,48705.0,28725.5,16785.0,9.5,19.5,29.0,0,None
2023-01-01 06:08:15,252.23477777777777,0.1066666666666675,100.0,1093.0,24062.0,4890.0,97.0,1045.3333333333333,336.44444444444446,4885.333333333333,76.53294333333332,2.3817762222222227,0.0434871425,7.612750000000109e-05,-1.283058,48.675,0.05527886,-0.00085044,-1.28523775,0.5054371222222223,1.711040111111111,10.867957666666666,31.77777777777778,-44.66666666666666,41.0,-43.22222222222222,73.22222222222223,250.88888888888889,-1054.888888888889,18.444444444444443,341.1111111111111,1019.8347777777778,-2.419479111111111,2858.8888888888887,0.05527886,0.083018175,-0.00085044,-0.02968111925,-1.28523775,0.02336092,48675.0,28640.5,16755.0,2.0,3.0,32.0,0,None
2023-01-01 06:08:16,253.1971111111111,0.1088888888888877,100.0,1085.0,24083.5,4885.0,97.0,1044.888888888889,339.22222222222223,4881.444444444444,76.59270444444445,2.3902396666666665,0.070616622,0.0252098961999999,-1.2744724,48.67,0.081417988,0.0240528222,-1.276325,0.5243892333333333,1.4514174444444443,9.253900111111111,18.83333333333333,80.61111111111111,31.666666666666668,-41.55555555555556,0.1666666666666666,258.8333333333333,-1054.888888888889,-14.22222222222222,337.6111111111111,1019.8031666666666,-2.450989611111111,2860.9444444444443,0.081417988,-0.0173028306,0.0240528222,0.082323841,-1.276325,0.00644427,48680.0,28687.5,16760.0,-28.0,25.0,30.0,0,None
2023-01-01 06:08:17,254.1951111111111,0.1133333333333344,100.0,1019.0,24101.0,4882.5,97.0,1018.7777777777778,342.1111111111111,4879.111111111111,76.70731333333335,2.40215,0.032151152,0.036402864,-1.2746822000000002,48.694,0.043325058,0.034227546,-1.2755436000000002,0.599866,1.3439571111111108,7.627624555555554,18.944444444444443,-31.0,42.0,-40.55555555555556,-47.833333333333336,258.05555555555554,-1060.5,4.833333333333333,321.3888888888889,1019.819,-2.435260166666667,2863.055555555556,0.04338439,-0.061559202,0.034738402,-0.043163196,-1.2755986,0.00640429132,48690.0,28684.5,16770.0,-12.5,39.5,28.0,0,None
2023-01-01 06:08:18,255.2058888888889,0.1088888888888877,100.0,1001.0,24123.0,4882.0,97.0,972.5555555555557,344.8888888888889,4881.111111111111,76.78084444444445,2.4157900000000003,0.0200140925,0.0400532075,-1.2803705,48.682500000000005,0.0313785575,0.0390956975,-1.2801885000000002,0.5960164444444445,1.4314833333333334,9.569498,31.944444444444443,-0.1666666666666666,46.5,-35.5,16.555555555555557,271.1666666666667,-1061.5555555555557,1.1666666666666667,326.6111111111111,1019.8280555555556,-2.426254388888889,2864.8888888888887,0.0313785575,0.0489891725,0.0390956975,0.000432214,-1.2801885000000002,-0.0184512225,48690.0,28669.0,16770.0,-1.0,27.0,27.0,0,None
2023-01-01 06:08:19,256.195,0.1088888888888909,100.0,1056.5,24095.0,4890.0,97.0,938.625,347.5,4881.444444444444,76.79019999999998,2.4283071111111107,0.0349972,0.0145941842,-1.2826376,48.642,0.045106336,0.0139417405999999,-1.282076,0.5734455625,1.725015375,12.163583375,27.5625,-12.25,46.75,-39.4375,-5.375,260.0,-1062.25,-36.375,331.9375,1019.8537777777776,-2.400503388888889,2867.0,0.045106336,0.0219895832,0.0139417405999999,-0.013628714,-1.282076,-0.029971896,48650.0,28660.5,16730.0,11.0,18.0,30.5,0,None
2023-01-01 06:08:20,257.1993,0.108099999999996,100.0,947.5,24130.5,4886.5,97.0,973.3,350.3,4880.5,76.796496,2.4398922,0.0614705839999999,0.002735576726,-1.2877554,48.604,0.070632398,0.0017448853,-1.2872098,0.6696911222222224,1.5611725555555551,13.497440000000005,46.25,-4.15,34.6,-34.6,34.05,258.05,-1045.8,16.45,347.05,1019.83875,-2.41544525,2869.0,0.0708073999999999,0.0205616947399999,0.0017902295399999,0.0036479738,-1.2871634,0.0048800645399999,48610.0,28609.5,16690.0,3.5,17.0,33.0,0,None
2023-01-01 06:08:21,258.27066666666667,0.111111111111111,100.0,942.0,24131.5,4888.5,97.0,960.8888888888888,353.0,4878.222222222223,76.86347666666666,2.4518276666666665,0.050542948,0.020947048,-1.2819774000000002,48.634,0.059694212,0.019752532,-1.281318,0.6681883777777777,1.6646169999999998,12.774788888888889,51.05555555555556,2.4444444444444446,33.55555555555556,-26.5,-26.5,256.55555555555554,-1054.7222222222222,-0.7222222222222222,330.94444444444446,1019.8299444444444,-2.4244443888888885,2871.333333333333,0.059694212,-0.038319538,0.019752532,0.0118783042,-1.281318,-0.0100116819999999,48630.0,28660.5,16710.0,-13.0,23.5,32.5,0,None
2023-01-01 06:08:22,259.25933333333336,0.1087777777777824,100.0,967.0,24135.5,4883.5,97.0,958.2222222222222,355.77777777777777,4881.555555555556,76.97186666666667,2.4646535555555555,0.0440839675,0.0167294875,-1.27616275,48.66,0.0533289225,0.0156667725,-1.27459825,0.6675455444444444,1.6327588888888889,11.943859777777778,26.0,-9.77777777777778,43.66666666666666,-31.55555555555556,39.11111111111112,261.1111111111111,-978.7777777777778,15.77777777777778,333.22222222222223,1019.8163333333332,-2.437916666666667,2873.4444444444443,0.0533289225,0.042860118,0.0156667725,-0.0013593562499999,-1.27459825,0.0061795924999999,48660.0,28689.5,16740.0,-12.0,23.5,30.5,0,None
2023-01-01 06:08:23,260.2325555555556,0.1066666666666643,100.0,963.0,24135.0,4884.5,97.0,1023.5555555555557,358.55555555555554,4885.333333333333,77.08772333333334,2.4781984444444447,0.0438947539999999,0.021364802,-1.2641639999999998,48.682,0.0530310819999999,0.0212597419999999,-1.262651,0.5982717111111111,1.678566888888889,8.577603444444442,36.72222222222222,32.77777777777778,44.16666666666666,-24.0,-21.0,261.6666666666667,-1065.111111111111,-11.666666666666666,334.6666666666667,1019.769277777778,-2.4850822777777783,2875.5,0.0530310819999999,-0.0238883944,0.0212597419999999,0.0390770138,-1.262651,-0.0092113442,48675.0,28771.0,16755.0,-21.5,22.0,25.0,0,None
2023-01-01 06:08:24,261.2053,0.1019999999999981,100.0,910.5,24152.5,4888.0,97.0,959.4,361.2,4882.8,77.198472,2.4914606,0.01894016,0.041772034,-1.2622448,48.728,0.028148958,0.04056274,-1.2604736,0.64059326,1.4207216,6.847245200000001,28.375,-2.5,53.125,-16.0,-16.625,267.875,-1082.625,2.75,324.5,1019.7773,-2.4770467,2877.2,0.028148958,-0.0154910979999999,0.04056274,0.0064873122,-1.2604736,-0.0260927602,48725.0,28786.5,16805.0,-12.5,16.5,26.0,0,None
2023-01-01 06:08:25,262.1948888888889,0.1066666666666706,100.0,885.0,24168.0,4872.0,97.0,891.8888888888889,363.6666666666667,4879.777777777777,77.24362444444442,2.503828555555556,0.033796766,0.035173814,-1.2826006,48.668,0.043035694,0.0344239599999999,-1.2802992,0.6520043888888889,1.592803222222222,11.820983888888888,26.72222222222222,-14.88888888888889,44.94444444444444,-43.0,37.5,260.94444444444446,-1073.0555555555557,-36.66666666666666,325.55555555555554,1019.854777777778,-2.399600555555556,2879.111111111112,0.043035694,0.0423308144,0.0344239599999999,-0.0120413595999999,-1.2802992,-0.024184556,48665.0,28668.0,16745.0,10.0,2.5,25.0,0,None
2023-01-01 06:08:26,263.17066666666665,0.1089999999999993,100.0,982.5,24109.5,4885.5,97.0,974.2222222222222,366.22222222222223,4877.444444444444,77.23708222222223,2.515505333333334,0.0606857074999999,0.0077884787499999,-1.27545275,48.565,0.0691189374999999,0.007219317725,-1.2728212499999998,0.6006646888888889,1.5233786666666664,12.590467777777778,24.0,-24.444444444444443,35.666666666666664,-33.94444444444444,25.88888888888889,252.16666666666663,-1056.0,16.944444444444443,335.1666666666667,1019.8455,-2.408806333333333,2881.0,0.06986976,0.036809561,0.007198245725,-0.036162055,-1.27297975,0.020734587,48560.0,28721.0,16640.0,13.0,13.0,34.0,0,None
2023-01-01 06:08:27,264.1992,0.1079999999999983,100.0,1001.0,24100.0,4887.5,97.0,1006.9,369.1,4879.3,77.260616,2.5279432,0.047133825,-0.000692882,-1.2643296666666668,48.555,0.0564348666666666,-0.0004709668333333,-1.2609466666666669,0.5709793999999999,1.6821099,10.1595331,25.7,12.4,46.9,-33.8,-32.4,254.0,-1053.9,16.4,341.2,1019.8133999999998,-2.4408593,2883.1,0.0564348666666666,0.00100757695,-0.0004709668333333,0.0119007233333333,-1.2609466666666669,-0.0122320176666666,48560.0,28774.5,16640.0,-10.0,19.0,34.0,0,None
