00000_Time_epoch,00000_Time_boot_sec,00000_Span_Time_boot_sec,1_battery_remaining_avg,1_current_battery_avg,1_voltage_battery_avg,125_Vcc_avg,147_battery_remaining_avg,147_current_battery_avg,147_current_consumed_avg,165_Vcc_avg,168_direction_avg,168_speed_avg,178_pitch_avg,178_roll_avg,178_yaw_avg,182_altitude_avg,182_pitch_avg,182_roll_avg,182_yaw_avg,241_vibration_x_avg,241_vibration_y_avg,241_vibration_z_avg,27_xacc_avg,27_xgyro_avg,27_xmag_avg,27_yacc_avg,27_ygyro_avg,27_ymag_avg,27_zacc_avg,27_zgyro_avg,27_zmag_avg,29_press_abs_avg,29_press_diff_avg,29_temperature_avg,30_pitch_avg,30_pitchspeed_avg,30_roll_avg,30_rollspeed_avg,30_yaw_avg,30_yawspeed_avg,33_alt_avg,33_hdg_avg,33_relative_alt_avg,33_vx_avg,33_vy_avg,33_vz_avg,label,diagnosis
2023-01-01 17:10:35,403.82428571428574,-0.0484285714285712,100.0,79.0,24966.0,4888.0,99.0,79.66666666666667,71.0,4876.285714285715,-138.35782857142857,0.2995035142857142,-0.0084859925,-0.0227573074999999,-1.1729315,27.52,-0.0045977825,-0.0171128724999999,-1.187175,0.02455851,0.0258854966666666,0.0362865983333333,-21.08333333333333,4.166666666666667,96.08333333333331,7.0,4.75,248.75,-1064.9166666666667,-0.0833333333333333,338.5833333333333,1021.3431666666668,-0.0414583333333333,3330.25,-0.0045977825,0.00542908275,-0.0171128724999999,0.00470235675,-1.187175,-0.00083737465,27530.0,29198.5,-60.0,3.0,7.0,-24.0,0,None
2023-01-01 17:10:36,404.7631,0.1079000000000007,100.0,78.0,24967.5,4871.0,99.0,109.8,71.0,4881.7,-139.09746,0.2959646000000001,-0.0085465466,-0.022755412,-1.1718482,27.476,-0.0044289042,-0.017062304,-1.186549,0.08631051,0.110288069,0.757005153,-13.65,4.5,92.25,0.95,3.85,241.85,-1061.05,-20.5,340.4,1021.3212500000002,-0.0632148424999999,3331.45,-0.0044289042,0.0076321274,-0.017062304,0.003431632174,-1.186549,-0.0024117370799999,27480.0,29201.0,-110.0,2.5,7.5,-24.0,0,None
2023-01-01 17:10:37,405.7804444444444,0.1066666666666643,100.0,119.0,24950.5,4885.0,99.0,128.0,71.66666666666667,4884.555555555556,-138.91264444444445,0.3651181111111111,-0.0091603507499999,-0.02275091,-1.173605,27.47,-0.004384043,-0.0167686575,-1.1871225,0.2458214333333333,0.2947091222222222,1.9326262222222224,-24.0,4.888888888888889,87.66666666666667,9.88888888888889,6.0,249.22222222222223,-1060.888888888889,1.6666666666666667,337.77777777777777,1021.3485555555555,-0.0360590255555555,3332.333333333333,-0.004384043,-0.00597430425,-0.0167686575,0.0132835687499999,-1.1871225,-0.0103880714999999,27480.0,29202.0,-110.0,3.0,8.0,-26.0,0,None
2023-01-01 17:10:38,406.7182222222222,0.1066666666666643,100.0,122.0,24945.5,4885.5,99.0,121.11111111111111,72.0,4881.0,-138.57198888888888,0.4448898222222222,-0.008985036,-0.022779062,-1.1755218,27.46400000000001,-0.0043093868,-0.016602204,-1.1873192,0.2642173666666667,0.2419227666666666,1.6986921111111113,-20.77777777777778,4.388888888888889,86.77777777777777,6.444444444444445,3.7777777777777777,248.61111111111111,-1081.611111111111,-10.055555555555555,336.3333333333333,1021.355,-0.0294574655555555,3333.4444444444443,-0.0043093868,0.002961685,-0.016602204,0.0057363338,-1.1873192,0.0133799318,27475.0,29195.0,-115.0,4.0,7.0,-25.0,0,None
2023-01-01 17:10:39,407.7359,0.1021000000000014,100.0,860.5,24708.5,4880.0,99.0,857.9,72.8,4884.0,-138.25957999999997,0.54221806,0.0015678395999999,-0.0211576139999999,-1.1781028,27.494,0.0064987656,-0.0156385439999999,-1.1877158,0.5686328599999999,0.49555214,3.6337165000000007,-26.2,8.9,74.2,-1.9,35.8,237.0,-1140.2,-9.9,323.2,1021.4675,0.0829609279999999,3334.8,0.0064987656,0.0671675762,-0.0156385439999999,0.0009308942,-1.1877158,-0.0027239768,27480.0,29193.5,-110.0,4.0,8.5,-24.5,0,None
2023-01-01 17:10:40,408.738,0.0999999999999999,100.0,1581.0,24359.0,4887.5,99.0,1590.4,76.9,4883.7,-138.86356,0.6343882200000001,-0.0065665728,0.007743016,-1.1885268,28.410000000000004,-0.0001344021999999,0.0130133857999999,-1.1959128,0.3377193399999999,1.39335632,4.5969037,21.2,32.6,70.6,0.1,10.2,244.1,-1222.2,-28.6,287.4,1021.2906,-0.0937578229999999,3335.9,-0.0001344021999999,0.009588014,0.0130133857999999,-0.0097953265999999,-1.1959128,-0.016789118,28095.0,29164.5,505.0,2.5,5.0,107.0,0,None
2023-01-01 17:10:41,409.74660000000006,0.1021000000000014,100.0,1736.0,24233.5,4890.0,99.0,1923.2,81.6,4880.8,-141.34586,0.7033429,0.0495978299999999,-0.0409557189999999,-1.2062366,31.216,0.053999576,-0.03524726106,-1.2191012,0.4260844099999999,1.2450293499999998,5.140984400000001,40.2,-68.8,47.7,4.8,27.0,241.4,-1152.9,4.5,292.0,1020.9017,-0.48293748,3337.3,0.053999576,-0.0112255319999999,-0.03524726106,-0.0598941,-1.2191012,0.0030732888,30640.0,29022.5,3050.0,30.5,-15.0,242.0,0,None
2023-01-01 17:10:42,410.7514444444445,0.1067777777777791,100.0,1049.5,24445.0,4878.0,99.0,1505.0,86.55555555555556,4880.777777777777,-146.03267777777776,0.7385166888888889,0.087962418,-0.06473358,-1.1968292000000005,34.64399999999999,0.094117254,-0.055643328,-1.2124924,0.4826527111111111,1.5231747777777778,7.654229888888888,65.55555555555556,-130.05555555555554,41.77777777777778,-14.77777777777778,34.666666666666664,239.38888888888889,-940.0555555555557,27.166666666666668,326.27777777777777,1020.5564999999998,-0.827981738888889,3338.4444444444443,0.094117254,0.0477102716,-0.055643328,-0.002726042,-1.2124924,0.0074511078,34100.0,29045.5,6510.0,2.0,-34.5,280.5,0,None
2023-01-01 17:10:43,411.7215,0.0998999999999966,100.0,1091.5,24469.0,4870.5,99.0,1256.2,90.2,4878.1,-155.64518,0.75257777,0.112850588,-0.23904178,-1.323489,36.842,0.1228723599999999,-0.2273180399999999,-1.3364058,0.66183963,1.3617694,9.6624258,99.8,-35.8,17.0,8.5,30.4,178.3,-1039.5,-286.2,369.6,1020.2993,-1.08525777,3339.5,0.1228723599999999,0.0384398476,-0.2273180399999999,-0.0165086475999999,-1.3364058,-0.3181815799999999,36580.0,28677.0,8990.0,-105.0,-60.0,143.5,0,None
2023-01-01 17:10:44,412.7275000000001,0.1021000000000014,100.0,1385.5,24361.0,4885.0,99.0,1339.1,93.6,4885.3,-170.64443999999995,0.7978686199999999,0.063453066,-0.23257814,-1.6942043999999998,38.24,0.077040976,-0.23167014,-1.7074664000000002,0.74704752,1.3256288,10.154422899999998,114.8,18.9,-66.0,81.6,53.2,175.4,-1067.7,-365.2,364.2,1020.014,-1.370492,3340.7,0.077040976,0.0607621699999999,-0.23167014,-0.0112790842,-1.7074664000000002,-0.3555662,37995.0,26562.5,10405.0,-274.0,-118.5,93.0,0,None
2023-01-01 17:10:45,413.7398999999999,0.0999999999999999,100.0,1372.0,24345.5,4886.5,99.0,1302.3,97.3,4881.1,172.53575999999998,0.93282736,0.051185128,-0.2170298199999999,-2.0573176,39.776,0.06083508,-0.2212192,-2.0669472,0.70602242,1.3321710999999998,12.52815,21.8,38.7,-167.7,146.9,-0.1,145.0,-1081.7,-355.2,353.9,1019.8629,-1.5215702999999996,3342.0,0.06083508,-0.014508128,-0.2212192,0.0013388939999999,-2.0669472,-0.3750661799999999,39510.0,24517.0,11920.0,-383.0,-121.5,100.5,0,None
2023-01-01 17:10:46,414.7638999999999,0.104000000000002,100.0,1319.0,24351.5,4891.5,99.0,1321.2,100.9,4882.3,159.36567999999997,1.1556840000000002,-0.091593576,-0.16865578,-2.443044,41.322,-0.081723696,-0.17758796,-2.4471912,0.7382476600000001,1.4633534,10.969626,-69.45,-0.05,-204.25,120.7,-47.8,91.9,-1050.7,-375.35,355.6,1019.6775,-1.7069803499999998,3343.1,-0.081723696,-0.054220896,-0.17758796,0.168501838,-2.4471912,-0.39956932,41050.0,22376.5,13460.0,-426.5,-78.5,103.5,0,None
2023-01-01 17:10:47,415.7799999999999,0.0999999999999999,100.0,1109.0,24418.5,4880.5,99.0,1114.5,104.2,4881.2,150.82194,1.4172796,-0.17349584,-0.0822559659999999,-2.7521510000000005,42.862,-0.1654711999999999,-0.092736804,-2.7536035999999995,0.7261283999999999,1.3572413333333333,12.239102333333332,-82.2,57.7,-212.7,127.7,-23.5,45.6,-1018.4,-195.9,376.4,1019.5494,-1.8351562,3344.4,-0.1654711999999999,-0.158139368,-0.092736804,0.02845193734,-2.7536035999999995,-0.199181812,42605.0,20411.0,15015.0,-487.5,-86.0,113.5,0,None
2023-01-01 17:10:48,416.7859,0.1019999999999981,100.0,987.5,24432.0,4883.5,99.0,1083.1,107.4,4881.7,145.4164,1.6776518,-0.14341994,-0.076942164,-2.7962202,44.332,-0.1396249,-0.086990288,-2.7993662,0.8791421555555555,1.3864263333333335,11.402085444444443,-117.2,-66.1,-228.2,125.0,42.0,33.5,-1030.8,49.4,358.0,1019.4401,-1.9444687000000005,3345.5,-0.1396249,0.0906629824,-0.086990288,-0.0157616488,-2.7993662,0.0397688394,44075.0,19925.5,16485.0,-558.5,-171.5,122.0,0,None
2023-01-01 17:10:49,417.8019000000001,0.0999999999999999,100.0,1494.0,24254.5,4882.0,99.0,1590.4,111.2,4881.2,141.52522,1.9323138000000004,-0.1218310199999999,-0.14156098,-2.7926242,45.81,-0.12014686,-0.14761326,-2.7961936,0.80718602,1.6733533,13.172662,-136.8,-38.9,-241.7,128.4,7.3,7.0,-1063.9,-48.2,357.5,1019.0646,-2.3199375,3346.6,-0.12014686,0.0003798639999999,-0.14761326,-0.0017657728,-2.7961936,-0.0305912902,45540.0,20019.0,17950.0,-557.5,-231.5,122.5,0,None
2023-01-01 17:10:50,418.7999,0.0999999999999999,100.0,1210.0,24317.5,4885.0,99.0,1553.7,115.6,4879.0,138.22898,2.1970092,-0.11763856,-0.17549928,-2.8316282,47.58200000000001,-0.1158883399999999,-0.1794217599999999,-2.8364036,0.8417010300000001,1.9147873,13.712148,-138.7,-25.6,-242.1,152.7,1.4,-17.6,-1031.5,-21.3,344.9,1018.8462000000002,-2.5383048,3347.5,-0.1158883399999999,-0.090757912,-0.1794217599999999,-0.00383412,-2.8364036,-0.0300839794,47275.0,19775.5,19685.0,-564.5,-239.0,122.5,0,None
2023-01-01 17:10:51,419.8,0.0999999999999999,100.0,1411.5,24247.5,4869.0,99.0,1478.4,119.7,4880.5,135.2068,2.4761708,-0.112163,-0.1900719,-2.8559002,49.268,-0.11082704,-0.19327782,-2.8600562,0.76329983,1.6750481999999998,15.037472999999997,-130.1,-11.7,-249.2,156.7,5.7,-22.9,-1093.2,1.9,358.0,1018.7175,-2.6668905,3348.7,-0.11082704,0.021253272,-0.19327782,0.0006099489999999,-2.8600562,0.0136593959999999,49005.0,19613.5,21415.0,-568.5,-238.5,105.0,0,None
2023-01-01 17:10:52,420.7996999999999,0.0999999999999999,100.0,1456.0,24209.5,4870.5,99.0,1663.7,124.0,4879.7,132.34847999999997,2.7644448,-0.078543244,-0.18050608,-2.8509458000000003,50.762,-0.076368572,-0.18539196,-2.8511928,0.86049509,2.1084775,13.331568100000002,-120.4,25.4,-255.6,159.4,55.3,-15.1,-1020.2,22.7,342.3,1018.5636,-2.8208203000000003,3349.8,-0.076368572,0.06841702222,-0.18539196,0.02237367,-2.8511928,0.0006298985999999,50500.0,19671.0,22910.0,-579.5,-212.0,110.5,0,None
2023-01-01 17:10:53,421.76988888888894,0.1044444444444441,100.0,1346.5,24246.5,4877.0,99.0,1389.3333333333333,128.33333333333334,4877.111111111111,129.6186111111111,3.0570178888888893,-0.0717029949999999,-0.1778138749999999,-2.8565132500000003,52.1875,-0.0703427175,-0.182442975,-2.8521765,0.8397803111111111,1.8705304444444448,14.112106666666667,-125.44444444444444,18.33333333333333,-265.22222222222223,143.22222222222223,-30.0,-17.22222222222222,-1052.5555555555557,35.111111111111114,337.0,1018.4836666666664,-2.900763888888889,3350.777777777778,-0.0703427175,-0.057755005,-0.182442975,0.024316235,-2.8521765,0.06288436975,52065.0,19642.0,24475.0,-551.0,-187.0,123.5,0,None
2023-01-01 17:10:54,422.7439,0.0999999999999999,100.0,943.0,24368.0,4887.0,99.0,1183.2,131.8,4872.5,127.2408,3.3233688,-0.0817829699999999,-0.14850398,-2.813149,53.528,-0.079353622,-0.15358594,-2.8055996,0.79248062,1.4343213,12.22134,-106.7,12.7,-249.1,148.6,26.0,12.1,-1103.9,29.8,359.1,1018.4283,-2.956172,3351.9,-0.079353622,0.0107014919999999,-0.15358594,0.017835518,-2.8055996,0.05072839,53570.0,19933.0,25980.0,-553.5,-177.0,138.5,0,None
2023-01-01 17:10:55,423.764,0.1060000000000002,100.0,1070.5,24320.5,4886.5,99.0,1373.5,135.5,4883.0,125.19662,3.5774485999999994,-0.067163736,-0.1488434599999999,-2.7677958,55.022000000000006,-0.066715506,-0.15581748,-2.7557998,0.79494385,1.3555953,14.891689,-102.1,-11.85,-258.9,186.15,11.2,21.35,-1105.35,37.35,355.05,1018.1384,-3.24601185,3353.2,-0.066715506,-0.007867008,-0.15581748,-0.0322218399999999,-2.7557998,0.054681916,55055.0,20235.5,27465.0,-530.5,-206.5,139.0,0,None
2023-01-01 17:10:56,424.798,0.0999999999999999,100.0,1271.0,24273.5,4889.0,99.0,1246.0,139.1,4881.5,123.47034000000004,3.8206294,-0.05151563,-0.17034326,-2.7485454,56.552,-0.0510721699999999,-0.17604632,-2.732778,0.8038784499999998,1.3252597,11.9033125,-83.2,-11.2,-256.3,181.8,-31.8,20.3,-1030.0,28.4,349.6,1018.0271,-3.3576093,3354.0,-0.0510721699999999,0.1106292359999999,-0.17604632,0.10206592,-2.732778,0.0219141272,56585.0,20350.5,28995.0,-515.0,-223.0,98.5,0,None
2023-01-01 17:10:57,425.7655555555555,0.1022222222222239,100.0,1028.5,24363.0,4878.5,99.0,1157.0,142.33333333333334,4889.333333333333,121.94836666666669,4.062153666666667,-0.061685364,-0.17593536,-2.7262498,57.266,-0.060992542,-0.18231168,-2.7063358,0.8986472555555554,1.63353,12.027563333333331,-90.11111111111111,23.11111111111111,-249.66666666666663,155.22222222222223,-1.6666666666666667,22.444444444444443,-1013.4444444444443,-4.0,349.44444444444446,1018.0217777777776,-3.3627602222222226,3354.8888888888887,-0.060992542,-0.044982408,-0.18231168,0.1701089519999999,-2.7063358,-0.01723564,57275.0,20493.0,29685.0,-496.0,-227.5,42.0,0,None
2023-01-01 17:10:58,426.75,0.1039999999999963,100.0,1479.5,24183.0,4894.0,99.0,1195.7,145.2,4885.5,120.71652000000002,4.2829906,-0.074248922,-0.1581463,-2.7145202,57.416,-0.073038228,-0.16412916,-2.6919862,0.82712114,1.4513749,12.511996,-84.6,47.1,-249.7,160.2,15.5,35.7,-1049.4,33.4,355.2,1018.0125,-3.3720311,3356.1,-0.073038228,-0.030482036,-0.16412916,-0.002640456,-2.6919862,0.048110962,57415.0,20572.5,29825.0,-504.0,-217.5,22.5,0,None
2023-01-01 17:10:59,427.762,0.0999999999999999,100.0,1199.5,24275.0,4893.0,99.0,1093.1,148.5,4885.1,119.66932,4.491757400000001,-0.068631634,-0.14482354,-2.6818686,57.504,-0.06682939,-0.1517038,-2.6555922,0.78040267,1.19286232,11.713825,-80.5,-0.7,-242.5,141.9,-9.5,48.0,-1041.1,22.2,352.1,1017.9985000000004,-3.3859295,3356.7,-0.06682939,0.0285694262,-0.1517038,0.028747474,-2.6555922,0.011093934,57500.0,20793.5,29910.0,-505.0,-234.5,7.0,0,None
2023-01-01 17:11:00,428.7780000000001,0.1020000000000038,100.0,1154.5,24281.5,4891.5,99.0,1151.7,151.7,4844.3,118.82738,4.6801772,-0.076532348,-0.1446645999999999,-2.6768904,57.572,-0.075077294,-0.15087192,-2.647589,0.7453155499999999,1.3755349,12.221191,-63.95,7.45,-236.3,159.65,14.45,52.3,-1046.5,13.9,359.9,1017.9278500000004,-3.45670305,3357.8,-0.075077294,-0.0361274734,-0.15087192,0.034304586,-2.647589,-0.0004197348,57570.0,20826.5,29980.0,-515.0,-247.5,1.5,0,None
2023-01-01 17:11:01,429.78600000000006,0.0999999999999999,100.0,913.0,24317.0,4821.5,99.0,940.9,154.7,4883.5,118.1241,4.8497232,0.00389489,-0.014267638,-2.6020008,57.70399999999999,0.005145766,-0.0218645819999999,-2.5708580000000003,0.8229217,1.6229928999999998,12.319194299999998,-55.5,306.5,-253.9,143.1,137.1,100.2,-1081.2,226.2,334.8,1017.9035,-3.4809452,3359.1,0.005145766,0.1313226262,-0.0218645819999999,0.34177031252,-2.5708580000000003,0.21011198,57710.0,21267.5,30120.0,-495.5,-287.5,-3.5,0,None
2023-01-01 17:11:02,430.7522222222222,0.1044444444444441,100.0,930.5,24363.0,4889.5,99.0,874.0,156.77777777777777,4871.222222222223,117.49085555555556,4.983739777777779,0.0264913525,0.163622025,-2.326867,57.705,0.02504114,0.15706395,-2.29192825,0.873770875,2.083146125,14.6179625,0.4444444444444444,-1.5555555555555556,-223.88888888888889,99.22222222222224,-32.44444444444444,221.0,-1069.7777777777778,276.0,286.6666666666667,1018.0366666666666,-3.347847,3359.555555555556,0.02504114,-0.0162272925,0.15706395,0.0849419424999999,-2.29192825,0.2995517,57680.0,23041.0,30090.0,-299.5,-423.0,-6.5,0,None
2023-01-01 17:11:03,431.752,0.1079999999999983,100.0,1111.5,24258.5,4888.5,99.0,1131.9,159.8,4851.4,116.8691,5.089830200000001,0.1381210693333333,-0.0362369466666666,-2.2026541666666666,57.56,0.1338519448333333,-0.0350644433333333,-2.158367833333333,0.71836608,1.4525855,15.244479000000002,0.0,-315.95,-213.65,75.55,226.55,213.45,-1064.55,23.3,300.0,1017.9513,-3.43326155,3360.5,0.1338519448333333,0.2151159166666666,-0.0350644433333333,-0.28293715,-2.158367833333333,0.0260485475,57545.0,23654.5,29955.0,-141.0,-474.0,-6.5,1,27_xacc_avg_constant_0
2023-01-01 17:11:04,432.77,0.1044444444444441,100.0,1273.0,24189.5,4874.5,98.22222222222224,1335.5555555555557,163.44444444444446,4839.888888888889,116.2543,5.183185111111111,0.23193595,-0.1657350249999999,-2.1814115,57.620000000000005,0.2305878,-0.157904875,-2.1298505,0.559936388888889,1.117919977777778,9.553280444444445,0.0,44.22222222222222,-244.22222222222223,96.66666666666669,-3.6666666666666665,167.22222222222223,-1068.4444444444443,7.0,300.0,1017.8542222222222,-3.530425333333333,3361.4444444444443,0.2305878,-0.0134035,-0.157904875,0.05764515,-2.1298505,-0.0043739025,57645.0,23796.5,30055.0,-107.0,-288.0,-4.0,1,27_xacc_avg_constant_0
2023-01-01 17:11:05,433.756,0.1019999999999981,100.0,1237.0,24193.0,4881.5,98.0,1274.8,166.8,4882.2,115.60394,5.2813934,0.2282774799999999,-0.1587995,-2.1856886,57.786,0.23379742,-0.1522596999999999,-2.1313432,0.6678263999999999,1.2212345,10.5957343,0.0,-11.1,-241.8,76.2,29.1,158.5,-1036.2,-2.2,306.9,1017.8207999999998,-3.5636483999999995,3362.3,0.23379742,0.06546403,-0.1522596999999999,-0.0298792079999999,-2.1313432,0.0113140552,57810.0,23790.5,30220.0,-78.5,-120.5,-22.0,1,27_xacc_avg_constant_0
2023-01-01 17:11:06,434.782,0.1020000000000038,100.0,1104.0,24281.5,4891.5,98.0,1175.5,170.4,4841.8,114.83942000000002,5.3958936,0.23751438,-0.113961192,-2.1962592,57.912,0.24781934,-0.108805968,-2.1386686,0.63491767,1.4404465,13.148177099999998,0.0,53.95,-251.0,113.45,-49.5,178.65,-1055.7,-15.45,297.3,1017.7401,-3.64442575,3363.2,0.24781934,-0.095566222,-0.108805968,0.1060040419999999,-2.1386686,-0.0185401902,57945.0,23727.0,30355.0,-34.0,10.0,-32.5,1,27_xacc_avg_constant_0
2023-01-01 17:11:07,435.784,0.0999999999999999,100.0,1008.5,24317.5,4898.0,98.0,1006.7,173.3,4885.3,113.97918,5.519010799999999,0.1374308199999999,-0.11524984,-2.199073,58.03399999999999,0.15027682,-0.1112779399999999,-2.1380856,0.86610922,1.5129062000000002,14.071067,0.0,-17.6,-217.1,101.5,-55.5,174.8,-1085.9,-4.1,324.8,1017.7311,-3.6534375,3364.0,0.15027682,-0.0423411288,-0.1112779399999999,0.0011694254,-2.1380856,0.0050728197999999,58050.0,23764.5,30460.0,-0.5,48.0,-38.5,1,27_xacc_avg_constant_0
2023-01-01 17:11:08,436.7523333333333,0.1044444444444441,100.0,727.5,24372.5,4824.5,98.0,925.0,175.88888888888889,4891.0,113.14648888888888,5.640136444444445,0.12372486,-0.109806844,-2.1997341999999995,58.08,0.13639452,-0.107357696,-2.1349194,0.9771260444444444,1.6588850000000002,14.658165555555556,0.0,17.22222222222222,-216.5555555555556,110.88888888888889,-1.4444444444444444,171.11111111111111,-1022.5555555555557,-2.4444444444444446,326.44444444444446,1017.7384444444446,-3.646154444444445,3364.8888888888887,0.13639452,-0.091625472,-0.107357696,0.067894978,-2.1349194,-0.0090667152,58080.0,23781.0,30490.0,2.0,46.0,-48.0,1,27_xacc_avg_constant_0
2023-01-01 17:11:09,437.7218000000001,0.1002000000000009,100.0,935.5,24327.0,4886.0,98.0,819.4,178.3,4852.2,112.38531999999998,5.7642404,0.0935931939999999,-0.11335598,-2.2083396,58.054,0.104712528,-0.1115425,-2.1398794000000003,0.9814814599999998,1.8546191,15.242677,0.0,-4.0,-203.9,103.3,-33.3,175.5,-1039.3,-4.6,326.9,1017.7646,-3.6198438,3365.7,0.104712528,0.014436174,-0.1115425,0.0479310899999999,-2.1398794000000003,-0.00751753,58070.0,23743.0,30480.0,11.5,53.5,-42.0,1,27_xacc_avg_constant_0
2023-01-01 17:11:10,438.7219999999999,0.0999999999999999,100.0,1127.0,24210.5,4895.0,98.0,883.9,180.8,4851.6,111.77152,5.8788894,0.088835308,-0.102557356,-2.2097374,58.00599999999999,0.099782486,-0.101748852,-2.138688,1.01666752,1.8558202,15.362057000000002,0.0,1.4,-199.4,101.1,35.7,176.7,-1029.8,-10.4,337.6,1017.7439,-3.6405312,3366.0,0.099782486,0.022353724,-0.101748852,0.0206736019999999,-2.138688,-0.0146261472,58015.0,23753.5,30425.0,9.0,38.0,-32.0,1,27_xacc_avg_constant_0
2023-01-01 17:11:11,439.7219999999999,0.0999999999999999,100.0,827.5,24399.0,4896.0,98.0,1019.2,183.4,4895.2,111.26064,5.986312599999999,0.108567476,-0.10755642,-2.2056716,57.936,0.1187021,-0.10602558,-2.1319516,1.01164488,1.7252427999999995,14.86366,0.0,20.1,-206.8,83.0,1.0,173.0,-1077.6,10.8,326.9,1017.7799,-3.6046796,3366.6,0.1187021,-0.0163145319999999,-0.10602558,0.0375783899999999,-2.1319516,0.005102649,57965.0,23766.0,30375.0,2.5,10.0,-38.0,1,27_xacc_avg_constant_0
2023-01-01 17:11:12,440.7219999999999,0.0999999999999999,100.0,999.0,24325.5,4894.5,98.0,961.8,186.0,4891.9,110.8083,6.087209,0.1395574,-0.112470768,-2.204458,57.912,0.1487532,-0.110580144,-2.1289614,1.03032851,1.7607288,13.995868000000002,0.0,-9.9,-210.1,96.5,36.2,185.8,-948.4,7.6,327.1,1017.7848,-3.5997421000000003,3367.0,0.1487532,-0.0330685557999999,-0.110580144,-0.01426202,-2.1289614,-0.0172832918,57910.0,23802.5,30320.0,-3.0,-8.0,-30.5,1,27_xacc_avg_constant_0
2023-01-01 17:11:13,441.7219999999999,0.0999999999999999,100.0,1018.0,24261.0,4896.0,98.0,976.1,188.8,4892.0,110.3523,6.1860046,0.13160532,-0.09706128,-2.2230596,57.894000000000005,0.14158388,-0.0939194399999999,-2.1453968,0.93203742,1.354774,12.101866899999996,0.0,11.1,-215.4,62.1,-28.8,180.9,-1106.5,-17.5,316.1,1017.8464,-3.5381716999999995,3367.1,0.14158388,0.0013820531999999,-0.0939194399999999,0.01009440838,-2.1453968,-0.0185230976,57910.0,23726.0,30320.0,0.5,5.5,-29.5,1,27_xacc_avg_constant_0
2023-01-01 17:11:14,442.7219999999999,0.0999999999999999,100.0,1013.5,24257.0,4881.5,98.0,1022.9,191.6,4889.0,109.86196000000002,6.281698599999999,0.11237722,-0.0696565079999999,-2.2279274,57.824,0.1243740799999999,-0.066218564,-2.1473838,0.86609675,1.5478595999999998,11.101518000000002,0.0,32.5,-213.8,82.4,-6.1,187.3,-1043.0,-4.9,323.0,1017.8607,-3.5238359000000004,3367.3,0.1243740799999999,-0.0476430819999999,-0.066218564,0.0099280439999999,-2.1473838,-0.01193577,57835.0,23703.5,30245.0,4.0,17.5,-23.0,1,27_xacc_avg_constant_0
2023-01-01 17:11:15,443.7219999999999,0.0999999999999999,100.0,973.5,24290.5,4819.0,98.0,894.7,194.2,4846.1,109.36214,6.3660356,0.083600964,-0.099396866,-2.2382006,57.788,0.095353042,-0.095350948,-2.1551827999999995,0.99498342,1.51631,14.173609,0.0,-32.1,-205.2,119.6,25.1,180.5,-999.6,-7.3,344.4,1017.858,-3.5265702000000005,3367.9,0.095353042,-0.0004392799999999,-0.095350948,-0.0284496819999999,-2.1551827999999995,0.0070877618,57795.0,23666.5,30205.0,28.0,13.0,-13.0,1,27_xacc_avg_constant_0
2023-01-01 17:11:16,444.7219999999999,0.0999999999999999,100.0,919.0,24344.0,4891.5,98.0,948.7,196.9,4891.5,108.91245999999998,6.4399868,0.07945891,-0.1043712619999999,-2.2372644,57.786,0.091496958,-0.099858786,-2.1516282,0.91617685,1.4139355999999998,12.485822999999998,0.0,16.4,-200.2,56.2,40.3,171.2,-1011.2,-2.9,332.1,1017.8706,-3.5139453,3368.0,0.091496958,0.0244355488,-0.099858786,-0.0002521499999999,-2.1516282,0.0077565482,57790.0,23677.5,30200.0,21.0,1.0,-17.0,1,27_xacc_avg_constant_0
2023-01-01 17:11:17,445.7219999999999,0.0999999999999999,100.0,1173.5,24136.0,4889.0,98.0,1116.8,199.6,4850.4,108.54356,6.506800000000001,0.1041533139999999,-0.082301464,-2.2348464,57.79,0.117224598,-0.079548766,-2.1467144,0.9321803,1.4269015,12.4528367,119.2,26.8,-209.2,72.4,40.4,184.5,-1026.7,11.6,321.9,1017.7995,-3.584906,3368.0,0.117224598,0.058550436,-0.079548766,0.067108092,-2.1467144,0.00758659478,57780.0,23676.0,30190.0,-2.5,-7.5,-18.0,0,None
2023-01-01 17:11:18,446.7219999999999,0.0999999999999999,100.0,1102.5,24264.0,4887.5,98.0,1052.7,202.8,4897.0,108.17476000000002,6.5691232,0.12714002,-0.097471878,-2.2397738000000005,57.842,0.13905198,-0.094302846,-2.1489036,0.82924057,1.4865418,12.999246,115.5,-20.7,-221.3,57.3,26.1,176.3,-993.1,-4.1,323.9,1017.7971,-3.587406,3368.4,0.13905198,-0.041025266,-0.094302846,-0.0288505100799999,-2.1489036,0.00707245898,57815.0,23694.5,30225.0,4.0,-24.5,-18.5,0,None
2023-01-01 17:11:19,447.7219999999999,0.0999999999999999,100.0,922.0,24239.0,4898.5,98.0,924.1,205.4,4897.777777777777,107.78232,6.632420999999999,0.12665938,-0.089311188,-2.2384062,57.886,0.13927042,-0.08488154,-2.145503,1.03630393,1.5578006000000002,12.072000999999998,64.4,41.2,-217.6,119.7,-52.2,173.8,-1175.8,-9.4,318.2,1017.8133,-3.571289,3368.7,0.13927042,-0.0122095244,-0.08488154,0.0748094159999999,-2.145503,-0.0006608462,57890.0,23692.5,30300.0,7.0,0.5,-18.5,0,None
2023-01-01 17:11:20,448.7219999999999,0.0999999999999999,100.0,935.5,24305.5,4891.5,98.0,996.4,208.0,4894.9,107.38006000000004,6.695828000000001,0.11285092,-0.073829066,-2.2396302,57.858,0.1268302,-0.0700257619999999,-2.1442282,0.92617264,1.5737525,12.717485,79.7,-12.4,-213.4,111.0,-40.8,184.7,-1157.4,-1.6,311.1,1017.8148,-3.5697734,3369.0,0.1268302,0.0162297239999999,-0.0700257619999999,-0.014741874,-2.1442282,-0.0061261289999999,57865.0,23717.0,30275.0,14.0,4.5,-22.5,0,None
2023-01-01 17:11:21,449.7219999999999,0.0999999999999999,100.0,1067.5,24278.5,4886.5,98.0,990.3,211.0,4896.0,106.9688,6.753563,0.1041404339999999,-0.0813075859999999,-2.2511604,57.828,0.11841052,-0.077301156,-2.152687,0.8760669199999999,1.4498938,11.8930587,100.8,2.2,-212.8,89.5,17.5,180.3,-1014.3,-14.6,318.3,1017.8581,-3.5263904000000004,3369.0,0.11841052,-0.026361122,-0.077301156,-0.0072216546,-2.152687,-0.0187674424,57835.0,23696.5,30245.0,23.5,3.5,-21.0,0,None
2023-01-01 17:11:22,450.7219999999999,0.0999999999999999,100.0,841.0,24301.0,4826.5,98.0,914.4,213.5,4853.4,106.56214,6.806634400000002,0.080277052,-0.074582298,-2.260425,57.802,0.094410374,-0.0707096959999999,-2.1595462000000003,0.96371263,1.4424014,11.6407622,100.2,23.3,-209.9,45.3,-9.4,181.6,-1078.1,-6.5,328.3,1017.8832,-3.5013281000000007,3369.0,0.094410374,-0.0342785299999999,-0.0707096959999999,-0.018321134,-2.1595462000000003,-0.006447508948,57815.0,23640.0,30225.0,25.5,15.5,-15.5,0,None
2023-01-01 17:11:23,451.7219999999999,0.0999999999999999,100.0,719.0,24361.5,4894.5,98.0,873.9,216.0,4849.3,106.21896,6.852231200000001,0.051890092,-0.0751578719999999,-2.2709940000000004,57.754,0.06668186,-0.071603234,-2.1674782,1.0340535400000002,1.4299708,12.354566,60.1,6.8,-199.2,82.4,-3.2,182.9,-1097.4,-13.3,333.1,1017.8914,-3.4932500000000006,3369.1,0.06668186,-0.029900976,-0.071603234,-0.0320332199999999,-2.1674782,-0.0049318931999999,57765.0,23597.5,30175.0,19.0,18.5,-16.0,0,None
2023-01-01 17:11:24,452.7219999999999,0.0999999999999999,100.0,960.5,24236.5,4889.0,98.0,908.0,218.5,4875.0,105.94948000000002,6.8853864,0.0746467725,-0.04919609,-2.27009725,57.74,0.08854681,-0.045678262,-2.1635494,1.03859452,1.2758641000000002,10.5584113,92.4,42.4,-205.1,63.1,57.6,186.3,-1023.1,15.3,330.9,1017.8734,-3.5111561999999994,3369.2,0.0886076624999999,0.04497201,-0.0462557225,0.029352505,-2.1640745000000003,-0.006456301,57735.0,23583.5,30145.0,-0.5,2.5,-15.5,0,None
2023-01-01 17:11:25,453.7219999999999,0.0999999999999999,100.0,1013.0,24293.5,4885.0,98.0,881.5,220.9,4887.8,105.68196,6.9057794,0.076091704,-0.053139544,-2.2836368,57.742,0.0878994,-0.05089349,-2.1740384,1.0089661199999995,1.42633,11.6588174,50.4,-47.1,-210.2,90.0,-4.2,179.5,-1076.1,-22.5,325.1,1017.8843,-3.5003438,3369.0,0.0878994,0.023873804,-0.05089349,-0.0090468439999999,-2.1740384,-0.005788006,57745.0,23584.0,30155.0,16.5,1.0,-10.5,0,None
2023-01-01 17:11:26,454.7219999999999,0.0999999999999999,100.0,859.0,24264.5,4888.5,98.0,1020.1,223.7,4894.2,105.40714,6.9159192,0.044324294,-0.08008239,-2.2721748,57.724,0.05718107,-0.07630173,-2.1610238,0.7742704,1.2838736000000002,11.5473003,84.5,21.0,-193.4,31.7,-16.4,182.1,-1102.4,13.8,331.0,1017.8557,-3.5287265,3369.3,0.05718107,0.0055355279999999,-0.07630173,-0.033090962,-2.1610238,0.017544268,57715.0,23575.0,30125.0,28.0,-6.0,-21.5,0,None
2023-01-01 17:11:27,455.7219999999999,0.0999999999999999,100.0,1096.5,24273.0,4829.0,98.0,811.0,226.1,4891.2,105.19304,6.921328,0.073989934,-0.059629454,-2.2770292,57.8,0.085774156,-0.0568884979999999,-2.1639150000000003,0.9740144899999998,1.547503,11.265381,48.4,25.5,-207.5,70.4,57.3,183.0,-995.9,-17.5,341.5,1017.8525000000002,-3.5321484999999995,3369.6,0.085774156,0.0680231279999999,-0.0568884979999999,0.041681186,-2.1639150000000003,-0.0233729593999999,57785.0,23637.0,30195.0,2.5,-8.5,-10.5,0,None
2023-01-01 17:11:28,456.7219999999999,0.0999999999999999,100.0,841.5,24244.0,4830.0,98.0,916.0,228.7,4853.9,105.01001999999998,6.924657599999999,0.0528946839999999,-0.056438064,-2.2844360000000004,57.806,0.06510813,-0.054224272,-2.16889,0.87808402,1.4124985,10.6052236,54.7,1.7,-202.0,50.4,-1.1,179.8,-1043.4,2.7,325.5,1017.8537,-3.5307187,3369.8,0.06510813,-0.01049125,-0.054224272,0.0136722559999999,-2.16889,0.0005818128599999,57810.0,23562.5,30220.0,8.5,0.5,-23.0,0,None
2023-01-01 17:11:29,457.7219999999999,0.0999999999999999,100.0,708.5,24386.0,4900.5,98.0,872.9,231.0,4864.8,104.833,6.924395799999999,0.0541265259999999,-0.0462540739999999,-2.296928,57.802,0.065350178,-0.043780698,-2.1802900000000003,1.09851329,1.4680776999999998,11.2310314,22.7,16.8,-199.3,39.1,-9.8,193.2,-1033.9,-14.3,325.9,1017.8322,-3.5522655,3369.7,0.065350178,-0.0566734326,-0.043780698,0.05182962,-2.1802900000000003,-0.0133513844,57800.0,23540.0,30210.0,6.5,0.5,-21.5,0,None
2023-01-01 17:11:30,458.7219999999999,0.0999999999999999,100.0,849.0,24330.0,4898.0,98.0,905.8,233.6,4882.6,104.65914,6.918713,0.072688356,-0.038841398,-2.2830426000000004,57.826,0.083709824,-0.036135644,-2.1642638,0.85885629,1.5204791,12.4978404,54.6,5.0,-206.3,42.8,14.6,190.1,-1130.5,17.9,317.4,1017.8177,-3.5667655000000003,3370.0,0.083709824,0.036853314,-0.036135644,0.0031371648,-2.1642638,0.0329533936,57810.0,23572.0,30220.0,9.0,-8.0,-22.5,0,None
2023-01-01 17:11:31,459.7219999999999,0.0999999999999999,100.0,748.5,24304.5,4887.0,98.0,716.5,235.7,4884.1,104.47384,6.9088764,0.049027402,-0.07413385,-2.2772352,57.870000000000005,0.059220206,-0.069752788,-2.1568426,1.12819557,1.7834361999999997,11.250674299999998,15.7,1.6,-196.9,14.9,-74.0,178.2,-1047.6,-3.1,338.7,1017.8615,-3.5231873,3370.1,0.059220206,-0.01859686,-0.069752788,0.038625832,-2.1568426,-0.004878294,57870.0,23625.5,30280.0,26.5,4.5,-15.5,0,None
2023-01-01 17:11:32,460.7228,0.1000999999999976,100.0,718.5,24392.5,4897.0,98.0,610.3,237.6,4896.9,104.31016,6.8973586,0.026662916,-0.028333882,-2.2779502,57.794,0.036847312,-0.025132026,-2.1570878,1.04575152,1.7827250999999995,11.0491426,-10.4,38.5,-185.0,-12.5,5.4,195.1,-1012.8,2.4,336.4,1017.9319,-3.4525545,3370.3,0.036847312,-0.0293984684,-0.025132026,0.087727014,-2.1570878,0.015636772,57820.0,23640.0,30230.0,12.0,24.0,-18.5,0,None
2023-01-01 17:11:33,461.739,0.1019999999999981,100.0,669.0,24316.0,4825.5,98.0,784.7,239.6,4850.9,104.19414000000002,6.8752972,-0.014984448,-0.0259684232,-2.2870568,57.678,-0.005831988784,-0.02356259618,-2.164331,1.0302663,1.7049972999999998,10.2913769,32.5,-54.3,-178.3,36.4,-8.3,192.7,-1049.5,-18.3,333.3,1017.8771,-3.507414,3370.3,-0.005831988784,-0.038868422,-0.02356259618,-0.011112354,-2.164331,-0.021578263646,57700.0,23626.0,30110.0,28.5,12.0,-18.0,0,None
2023-01-01 17:11:34,462.7669000000001,0.104000000000002,100.0,781.0,24327.0,4885.0,98.0,961.6,242.0,4884.8,104.13368,6.8389118,0.040170505,-0.071484748,-2.2823062000000003,57.73,0.0485189984,-0.068947648,-2.157689,0.9493769,1.385250777777778,10.073161555555556,73.5,-5.35,-189.25,38.15,76.65,182.15,-1046.85,28.5,335.55,1017.80945,-3.5750741500000003,3370.6,0.0485189984,0.206258988,-0.068947648,-0.0297813199999999,-2.157689,0.0283695356,57700.0,23600.0,30110.0,10.5,-44.5,-17.5,0,None
2023-01-01 17:11:35,463.7849,0.0999999999999999,100.0,1030.5,24260.5,4889.0,98.0,1093.4,244.9,4882.6,104.09698,6.803444799999999,0.14555152,-0.069888642,-2.2714098,57.802,0.1523199599999999,-0.067494852,-2.1465240000000003,0.92359809,1.4665123999999998,11.875322700000002,114.9,-1.2,-224.6,87.7,38.5,182.4,-1096.6,-0.7,313.4,1017.7472,-3.637367,3370.7,0.1523199599999999,0.07349824,-0.067494852,-0.0928475666,-2.1465240000000003,0.0112307210399999,57780.0,23718.5,30190.0,-14.5,-63.0,-32.0,0,None
2023-01-01 17:11:36,464.783,0.0999999999999999,100.0,1222.0,24137.5,4891.0,98.0,1153.2,248.1,4882.2,104.01146,6.779910599999999,0.16752814,-0.1121108879999999,-2.2649384,57.992,0.17672454,-0.1100950399999999,-2.138141,0.90671194,1.5879357,13.354919,138.4,-37.8,-229.9,71.3,49.2,166.5,-1007.3,13.0,309.8,1017.6609,-3.7237578,3371.0,0.17672454,0.084702972,-0.1100950399999999,-0.0448369659999999,-2.138141,-0.004882738,57940.0,23728.0,30350.0,15.5,-47.5,-28.0,0,None
2023-01-01 17:11:37,465.78690000000006,0.0999999999999999,100.0,1009.5,24204.5,4897.0,98.0,1032.3,251.0,4840.7,103.86902,6.7730196,0.15288744,-0.13928908,-2.2679722,58.086,0.16455256,-0.135524,-2.1409944,0.8930397600000001,1.5962562,14.494542999999998,126.2,-6.8,-227.2,69.3,1.3,159.3,-1048.8,-1.5,326.6,1017.6807,-3.703789,3370.9,0.16455256,0.0152016261999999,-0.135524,0.011828839,-2.1409944,-0.018223796,58075.0,23743.0,30485.0,27.5,-11.5,-44.0,0,None
2023-01-01 17:11:38,466.791,0.1019999999999981,100.0,914.0,24284.5,4895.5,98.0,912.0,253.8,4872.3,103.69268,6.783193799999999,0.13188348,-0.110885266,-2.2712936,58.062,0.1465313,-0.1079410339999999,-2.1459712,1.0282895499999998,1.4890797999999998,12.630466,88.3,38.1,-221.3,102.8,-34.9,173.9,-1071.3,1.6,324.7,1017.7644,-3.6201406,3371.0,0.1465313,0.024363416,-0.1079410339999999,0.0478692682,-2.1459712,-0.0012881892,58085.0,23701.5,30495.0,6.5,23.0,-48.0,0,None
2023-01-01 17:11:39,467.8029,0.0999999999999999,100.0,890.0,24279.0,4882.0,98.0,901.9,256.2,4887.1,103.49930000000002,6.803331200000001,0.1161918999999999,-0.074281648,-2.2783018,57.944,0.1308642,-0.073075266,-2.1543302,1.0928478499999998,1.7353815,16.156232,124.4,34.4,-220.3,75.4,-24.0,176.5,-1008.9,-11.0,312.7,1017.7926999999996,-3.5918516,3371.0,0.1308642,-0.0193359171999999,-0.073075266,-0.0176507978,-2.1543302,-0.008603371,57975.0,23676.0,30385.0,4.0,42.0,-38.0,0,None
2023-01-01 17:11:40,468.7752222222222,0.1044444444444441,100.0,1007.5,24208.5,4812.0,98.0,930.0,258.77777777777777,4892.333333333333,103.28271111111113,6.828210444444444,0.0918673775,-0.08344765,-2.28182275,57.8625,0.10615575,-0.0819504875,-2.158089,1.1213443444444444,1.5570138888888887,13.841133333333334,126.11111111111111,-40.44444444444444,-212.88888888888889,44.11111111111112,13.0,176.55555555555554,-1013.1111111111112,3.4444444444444446,321.55555555555554,1017.8308888888888,-3.553802222222222,3371.0,0.1067187,-0.11164149,-0.08256063,0.05320911,-2.158258,-0.0128452395,57875.0,23641.0,30285.0,16.0,31.5,-26.0,0,None
2023-01-01 17:11:41,469.773,0.1060000000000002,100.0,716.0,24359.5,4895.5,98.0,782.4,261.0,4872.2,103.07662,6.852607000000001,0.090354626,-0.07684227,-2.2773634,57.816,0.103407712,-0.07397988,-2.1543498,1.14807831,1.80736,14.768548,59.0,45.0,-206.1,62.4,19.65,178.2,-1061.1,-10.0,327.95,1017.92495,-3.45947255,3371.0,0.103407712,0.03578191,-0.07397988,0.10895856,-2.1543498,-1.7032000000000155e-06,57830.0,23665.5,30240.0,6.5,35.5,-17.0,0,None
2023-01-01 17:11:42,470.803,0.0999999999999999,100.0,625.5,24353.5,4881.0,98.0,654.2,262.9,4844.7,102.87752,6.8734106,0.0398812979999999,-0.033213432,-2.2918942,57.666,0.053316974,-0.031347786,-2.168182,1.33972851,1.8865227,16.512605,61.0,10.5,-195.7,47.4,-59.0,182.8,-1093.6,-7.0,336.7,1017.9172,-3.4672343000000003,3371.0,0.053316974,0.02400911,-0.031347786,-9.93599999999928e-06,-2.168182,-0.01968866834,57675.0,23582.5,30085.0,16.5,43.5,-7.0,0,None
2023-01-01 17:11:43,471.803,0.0999999999999999,100.0,684.0,24362.5,4886.5,98.0,695.6,264.8,4856.7,102.69868,6.8823718,0.0348674999999999,-0.046210502,-2.2896102000000003,57.65,0.046807166,-0.0447724859999999,-2.1655464,1.27415949,1.62773,15.931486,55.4,24.5,-191.6,43.4,11.3,183.8,-1138.3,-2.7,332.4,1017.9535,-3.4309375,3370.6,0.046807166,0.024886368,-0.0447724859999999,0.05911269,-2.1655464,-0.00454083438,57655.0,23589.5,30065.0,13.5,1.5,-14.5,0,None
2023-01-01 17:11:44,472.803,0.0999999999999999,100.0,1001.5,24281.0,4885.5,98.0,754.0,266.9,4872.0,102.55704,6.878527799999999,0.038614658,-0.01547585706,-2.295706,57.57000000000001,0.0489012459999999,-0.0141390889999999,-2.1717446,1.1634139300000002,1.6874683,13.129341000000002,45.8,-12.1,-193.4,12.3,3.2,198.9,-1058.8,-7.2,327.3,1017.9943,-3.3902108,3370.5,0.0489012459999999,0.0377677779999999,-0.0141390889999999,-0.065042126,-2.1717446,-0.00299412,57575.0,23568.0,29985.0,11.0,-5.5,0.5,0,None
2023-01-01 17:11:45,473.803,0.0999999999999999,100.0,746.5,24293.0,4816.0,98.0,898.6,269.1,4887.5,102.40496,6.862789400000001,0.0432433859999999,-0.0443378539999999,-2.2727308,57.554,0.053502314,-0.042538932,-2.1487452,1.09994072,1.5736405999999998,12.374091,110.7,-15.0,-191.4,-4.2,73.0,189.2,-1091.2,51.7,333.2,1017.9095,-3.4749453000000003,3370.0,0.053502314,0.031760142,-0.042538932,0.025515884,-2.1487452,0.033099922,57545.0,23664.0,29955.0,4.5,-33.0,-2.0,1,27_xgyro_avg_constant_-15.0
2023-01-01 17:11:46,474.803,0.0999999999999999,100.0,873.0,24272.0,4887.5,98.0,877.1,271.7,4887.9,102.23922000000002,6.843702599999999,0.115834676,-0.031572264,-2.2563248,57.626,0.12395018,-0.030113478,-2.1312424,1.08097426,1.6526464,12.5850818,64.5,-15.0,-214.6,22.1,59.2,200.4,-1087.3,-6.0,319.8,1017.9138,-3.470671699999999,3370.0,0.12395018,0.068137838,-0.030113478,-0.0026126699999999,-2.1312424,-0.0173426699999999,57615.0,23796.5,30025.0,-14.0,-45.0,-6.5,1,27_xgyro_avg_constant_-15.0
2023-01-01 17:11:47,475.803,0.0999999999999999,100.0,834.5,24320.5,4812.0,98.0,738.9,273.9,4894.2,102.0476,6.826846399999999,0.107189526,-0.029366336,-2.2625008,57.69200000000001,0.115955196,-0.0261396299999999,-2.1369784,1.1303362,1.841168,15.156624,48.4,-15.0,-210.4,21.7,-26.1,195.3,-1005.7,-13.0,322.8,1017.9099,-3.4746171,3369.9,0.115955196,-0.060931968,-0.0261396299999999,0.00205154,-2.1369784,-0.012405692,57685.0,23758.5,30095.0,10.0,-8.5,-10.5,1,27_xgyro_avg_constant_-15.0
2023-01-01 17:11:48,476.803,0.0999999999999999,100.0,878.0,24310.5,4877.0,98.0,740.4,275.9,4879.3,101.81368,6.8118958,0.0675327759999999,-0.0293732879999999,-2.2721548,57.73199999999999,0.077775768,-0.025939358,-2.147001,1.1102638,1.6111801999999995,17.645346999999997,67.7,-15.0,-203.4,17.7,-25.8,205.2,-1068.5,7.7,325.1,1017.8429,-3.5414140000000005,3369.9,0.077775768,-0.102723786,-0.025939358,0.041956055,-2.147001,-0.0047756078,57730.0,23694.5,30140.0,26.0,18.5,-15.0,1,27_xgyro_avg_constant_-15.0
2023-01-01 17:11:49,477.803,0.0999999999999999,100.0,847.5,24275.0,4895.0,98.0,800.5,278.2,4866.6,101.57968000000002,6.7955126,0.04996017,-0.0204972244599999,-2.2593278,57.752,0.061163166,-0.0168305732,-2.1343602,1.0426152600000005,1.6222469000000004,13.594319100000002,46.6,-15.0,-194.4,26.1,22.2,198.4,-1065.8,1.4,336.0,1017.8665,-3.5180625,3369.8,0.061163166,0.027137558,-0.0168305732,0.002154654,-2.1343602,0.015301387,57750.0,23776.5,30160.0,26.0,9.0,-20.5,1,27_xgyro_avg_constant_-15.0
2023-01-01 17:11:50,478.803,0.0999999999999999,100.0,814.5,24315.5,4890.5,98.0,855.6,280.4,4856.8,101.35776,6.774687599999998,0.06001274,-0.02056277,-2.2722416,57.776,0.07068646,-0.017085664,-2.1483982,0.93772208,1.6128632,11.799009,67.9,-15.0,-202.6,19.8,8.6,203.6,-1058.1,-28.1,324.4,1017.8342,-3.5502501000000004,3369.8,0.07068646,0.0009744918,-0.017085664,-0.0119257816,-2.1483982,-0.0278043779999999,57775.0,23692.5,30185.0,35.5,-2.5,-16.0,1,27_xgyro_avg_constant_-15.0
2023-01-01 17:11:51,479.803,0.0999999999999999,100.0,745.5,24284.0,4820.0,98.0,790.6,282.7,4883.1,101.15158,6.751190599999999,0.035950888,-0.069286684,-2.294286,57.828,0.0455336539999999,-0.065913212,-2.17095,1.06910791,1.6306389000000003,12.809814999999997,55.4,-15.0,-193.1,6.6,-41.9,180.7,-1066.8,-10.8,337.1,1017.8125,-3.5717656000000004,3369.2,0.0455336539999999,-0.0163336699999999,-0.065913212,-0.06357335,-2.17095,-0.0141161436,57825.0,23574.5,30235.0,48.0,-6.0,-22.0,1,27_xgyro_avg_constant_-15.0
2023-01-01 17:11:52,480.803,0.0999999999999999,100.0,780.5,24332.5,4884.5,98.0,793.9,284.9,4897.3,100.98324,6.728172199999999,0.025761916,-0.076901956,-2.2897938,57.83,0.037068392,-0.074120178,-2.1659978000000004,1.03060297,1.4019885,12.318641,33.5,-15.0,-191.3,21.9,59.8,166.2,-975.2,11.5,336.3,1017.858,-3.5266014999999995,3369.1,0.037068392,0.032740902,-0.074120178,0.0153841976,-2.1659978000000004,0.0118137426,57835.0,23590.0,30245.0,4.5,-5.5,-26.5,1,27_xgyro_avg_constant_-15.0
2023-01-01 17:11:53,481.803,0.0999999999999999,100.0,596.0,24408.5,4891.5,98.0,655.9,286.8,4893.5,100.86682,6.7056692,0.047968044,-0.0500300519999999,-2.2872570000000003,57.804,0.0584819479999999,-0.048123966,-2.164487,1.1931863000000005,1.7349254000000005,12.4569439,33.0,-15.0,-199.8,17.7,-28.9,190.9,-1149.7,-15.8,334.9,1017.9088,-3.4759139,3369.1,0.0584819479999999,0.12463766,-0.048123966,0.0149313314,-2.164487,-0.015615516,57810.0,23597.5,30220.0,-15.5,16.5,-9.5,1,27_xgyro_avg_constant_-15.0
2023-01-01 17:11:54,482.803,0.0999999999999999,100.0,665.0,24331.5,4894.0,98.0,679.6,288.7,4896.4,100.75683999999998,6.681638999999999,0.031481934,-0.0099675036,-2.2898596,57.720000000000006,0.042212222,-0.0086131154,-2.1679118,1.2683171999999998,1.6760381,14.48613,25.7,-15.0,-190.9,42.2,10.7,201.8,-1019.5,2.9,323.5,1017.9105999999998,-3.4739764,3369.0,0.042212222,0.0634127405999999,-0.0086131154,0.057264454,-2.1679118,0.0041502441999999,57730.0,23578.5,30140.0,-29.5,15.5,-15.0,1,27_xgyro_avg_constant_-15.0
2023-01-01 17:11:55,483.803,0.0999999999999999,100.0,709.0,24356.0,4888.5,98.0,731.1,290.7,4847.0,100.63814,6.654120799999999,0.056893694,0.0116331683,-2.2833594,57.67,0.0662946,0.0131533644,-2.1618536,1.2379874999999998,1.6347082999999998,15.295126,22.4,-15.0,-199.3,18.7,46.8,208.1,-1061.6,-3.4,325.4,1017.9082,-3.4763672,3369.1,0.0662946,0.088119612,0.0131533644,-0.0015634219999999,-2.1618536,-0.0138335263999999,57670.0,23615.0,30080.0,-12.0,-8.0,-7.5,1,27_xgyro_avg_constant_-15.0
2023-01-01 17:11:56,484.803,0.0999999999999999,100.0,594.0,24330.0,4890.0,98.0,722.2,292.7,4848.0,100.4934,6.622696,0.05348967,-0.0220546866,-2.2848002000000003,57.702,0.0615381519999999,-0.0187417664,-2.162882,1.179874,1.5458921,13.96385,36.8,-15.0,-201.3,23.4,17.5,193.3,-1074.3,-2.0,320.9,1017.8839,-3.5005858000000005,3369.1,0.0615381519999999,-0.06244218,-0.0187417664,-0.041213756,-2.162882,-0.0057683193,57700.0,23610.0,30110.0,26.0,-13.0,-8.5,1,27_xgyro_avg_constant_-15.0
2023-01-01 17:11:57,485.803,0.0999999999999999,100.0,848.5,24335.5,4884.5,98.0,700.1,294.7,4894.4,100.31976,6.5909148,0.05235704,-0.04003239,-2.2833228,57.746,0.0607526,-0.035158918,-2.1614178,1.15481333,1.6552886999999998,14.196613,33.1,-15.0,-199.9,8.1,16.1,185.9,-1048.0,3.2,323.1,1017.8798,-3.5046327,3369.0,0.0607526,-0.08030455,-0.035158918,0.03009658014,-2.1614178,-0.0165591382,57745.0,23617.0,30155.0,29.0,-1.0,-17.0,1,27_xgyro_avg_constant_-15.0
2023-01-01 17:11:58,486.803,0.0999999999999999,100.0,675.5,24354.0,4896.0,98.0,699.3,296.5,4893.3,100.14947999999995,6.5610034,0.030818934,-0.0240751539999999,-2.2915454,57.74,0.040231388,-0.0206600625999999,-2.169175,1.3056344,1.6021956,13.219473000000002,32.3,-15.0,-195.1,21.5,-25.6,191.0,-1077.7,-17.9,318.5,1017.8424,-3.5419767000000006,3369.0,0.040231388,-0.0641142059999999,-0.0206600625999999,0.055019304,-2.169175,-0.0174245628,57735.0,23580.5,30145.0,24.5,9.0,-18.0,1,27_xgyro_avg_constant_-15.0
2023-01-01 17:11:59,487.803,0.0999999999999999,100.0,879.0,24319.0,4830.5,98.0,843.8,298.8,4894.2,100.003678,6.530622399999999,0.033032948,-0.044995034,-2.2856642000000003,57.786,0.04253877,-0.041750006,-2.162783,1.1204016799999998,1.5206494,11.9716037,41.1,-27.4,-196.2,43.3,40.0,184.0,-1055.3,5.3,329.9,1017.8161,-3.5684217000000005,3369.0,0.04253877,-0.00358581,-0.041750006,-0.059160932,-2.162783,0.01327031004,57785.0,23600.0,30195.0,31.0,-13.0,-21.5,0,None
2023-01-01 17:12:00,488.803,0.0999999999999999,100.0,819.5,24269.0,4895.5,98.0,830.3,301.0,4892.5,99.901616,6.501085399999999,0.049401204,-0.061042458,-2.2840284,57.794,0.058465412,-0.057811522,-2.1622138,1.084389011111111,1.4292354444444446,10.834345555555554,23.6,-14.0,-197.9,26.5,43.2,184.1,-1069.0,-2.3,325.0,1017.8484999999998,-3.5360701,3369.0,0.058465412,0.0323853408,-0.057811522,0.007654542,-2.1622138,-0.012390054,57795.0,23621.0,30205.0,14.0,-9.0,-20.0,0,None
2023-01-01 17:12:01,489.803,0.0999999999999999,100.0,982.0,24278.0,4893.0,98.0,849.1,303.2,4849.5,99.82348999999998,6.4755482,0.073863488,-0.08250861,-2.2750318,57.812,0.083686684,-0.0801042699999999,-2.1538866,1.05929522,1.5445749999999998,12.7054619,110.5,2.1,-206.0,32.9,32.4,175.7,-1039.2,14.2,330.4,1017.726,-3.6585234,3369.0,0.083686684,0.06366832,-0.0801042699999999,-0.01573099,-2.1538866,0.0310778685999999,57800.0,23654.5,30210.0,7.0,-15.5,-24.5,0,None
2023-01-01 17:12:02,490.77366666666666,0.1023333333333324,100.0,1040.5,24246.5,4903.0,98.0,948.5555555555557,306.0,4898.888888888889,99.75668000000002,6.457472666666665,0.1225359499999999,-0.0908629075,-2.260514,57.936,0.13650112,-0.0907916499999999,-2.1398062,0.9805098222222222,1.2712553333333334,10.220002,114.88888888888889,-8.0,-222.22222222222223,79.33333333333333,36.888888888888886,175.77777777777777,-1059.888888888889,15.333333333333334,316.8888888888889,1017.7028888888888,-3.681684,3369.0,0.13650112,0.0338245780659999,-0.0907916499999999,-0.0456117441999999,-2.1398062,0.0166405524,57930.0,23733.0,30340.0,0.5,-28.0,-36.5,0,None
2023-01-01 17:12:03,491.7418,0.1020000000000038,100.0,838.0,24249.0,4903.0,98.0,944.0,308.7,4892.7,99.673958,6.450155,0.12637128,-0.099837144,-2.2522404000000003,57.98199999999999,0.1360434599999999,-0.097470306,-2.1332694000000005,0.9291821,1.4858251,13.316149,121.4,9.1,-218.9,60.2,-0.8,173.1,-1071.3,-2.9,317.6,1017.7331,-3.6513515,3368.9,0.1360434599999999,-0.005683606,-0.097470306,0.0066594233999999,-2.1332694000000005,-0.0127308558,57975.0,23792.0,30385.0,9.0,-2.0,-34.0,0,None
2023-01-01 17:12:04,492.7579,0.1019999999999981,100.0,821.0,24312.5,4891.5,98.0,818.5,310.9,4848.1,99.57007,6.452298600000001,0.1041095279999999,-0.08530307,-2.2756276000000004,57.9675,0.1149198925,-0.0843584325,-2.1587475,1.11875768,1.6970799,14.111546999999998,88.9,49.2,-222.8,26.5,-64.4,189.0,-1092.5,-34.9,340.2,1017.8012,-3.5832654999999995,3369.0,0.115192594,-0.10747647,-0.0824811759999999,0.043689561,-2.1592756,-0.0258413764,57980.0,23637.0,30390.0,8.0,34.5,-33.5,0,None
2023-01-01 17:12:05,493.788,0.104000000000002,100.0,975.5,24194.5,4825.5,98.0,899.5,313.5,4872.7,99.463192,6.458775999999999,0.074760554,-0.066025724,-2.2646724000000003,57.86,0.087644822,-0.065578256,-2.14939,0.94986626,1.5544342,13.184028,100.45,6.2,-208.05,96.0,45.55,180.1,-998.3,27.3,319.0,1017.7783,-3.60632025,3369.0,0.087644822,0.046164638,-0.065578256,-0.0100145258,-2.14939,0.0095894413999999,57865.0,23674.5,30275.0,10.0,22.0,-26.0,0,None
2023-01-01 17:12:06,494.7651111111112,0.1022222222222176,100.0,921.0,24278.0,4891.5,98.0,917.5555555555557,315.8888888888889,4873.555555555556,99.36962444444444,6.467764222222221,0.1106327159999999,-0.0791668679999999,-2.256584,57.848,0.12164586,-0.078144022,-2.1426778,0.9354028888888888,1.475555222222222,11.662,96.11111111111111,-13.333333333333334,-215.5555555555556,60.11111111111112,47.11111111111112,182.11111111111111,-1050.6666666666667,-1.5555555555555556,324.77777777777777,1017.8088888888888,-3.5755901111111106,3369.0,0.12164586,0.044123988,-0.078144022,-0.0111427245999999,-2.1426778,0.0042175242,57850.0,23731.5,30260.0,11.0,0.0,-23.0,0,None
2023-01-01 17:12:07,495.7406666666668,0.1111111111111111,100.0,876.5,24267.0,4900.0,98.0,878.1111111111111,318.55555555555554,4860.111111111111,99.27091833333331,6.480200333333334,0.098232894,-0.078073238,-2.2565804,57.812,0.108565582,-0.077204144,-2.144216,0.9893526222222222,1.422973,11.420650555555556,117.33333333333331,12.444444444444445,-208.88888888888889,57.0,-33.611111111111114,179.05555555555554,-1061.111111111111,-8.333333333333334,331.55555555555554,1017.8501666666666,-3.5343921666666667,3369.0,0.108565582,-0.0350584182,-0.077204144,0.0104303556,-2.144216,-0.0006629583999999,57815.0,23715.0,30225.0,16.5,11.5,-18.0,0,None
2023-01-01 17:12:08,496.754,0.1133333333333376,100.0,877.0,24243.5,4900.0,98.0,896.0,321.0,4880.944444444444,99.17365055555554,6.494263666666666,0.087805212,-0.07434911,-2.2550894,57.754,0.098632424,-0.073924036,-2.1431574,0.9921955666666666,1.449776888888889,12.44873111111111,131.33333333333334,16.444444444444443,-209.88888888888889,27.77777777777778,14.22222222222222,177.22222222222223,-1115.3333333333333,0.7777777777777778,318.0,1017.8556666666668,-3.5288278888888893,3369.0,0.098632424,0.0058321052,-0.073924036,0.0056723632,-2.1431574,-0.0010447129999999,57760.0,23726.5,30170.0,16.5,7.0,-14.0,0,None
2023-01-01 17:12:09,497.7095555555556,0.1066666666666643,100.0,949.0,24204.5,4902.0,98.0,916.1111111111112,323.3333333333333,4889.333333333333,99.08852333333334,6.508505222222222,0.0944691075,-0.08342045,-2.2537234999999995,57.735,0.10557463,-0.08350125,-2.1425037500000004,0.9976188555555556,1.4246394444444443,12.313811111111113,101.22222222222224,-26.55555555555556,-210.0,38.333333333333336,41.11111111111112,172.61111111111111,-983.7222222222222,13.5,314.5,1017.8409444444444,-3.543654555555556,3368.777777777778,0.10557463,-0.0773677275,-0.08350125,0.01143126875,-2.1425037500000004,-0.00746435725,57735.0,23727.5,30145.0,15.5,-5.0,-15.0,0,None
2023-01-01 17:12:10,498.75,0.1100000000000022,100.0,1118.0,24224.0,4820.5,97.0,987.8,326.1,4880.3,99.006865,6.524401900000001,0.1083296316666666,-0.09075586,-2.253956833333333,57.75666666666666,0.1192843333333333,-0.0906260583333333,-2.143959166666667,0.9582410999999998,1.5346727,12.816489999999998,99.1,7.35,-213.25,64.95,6.0,178.75,-1132.8,-10.3,329.45,1017.8474,-3.53700375,3368.6,0.1192843333333333,0.0666117133333333,-0.0906260583333333,0.0352097082166666,-2.143959166666667,-0.0060321765,57760.0,23705.0,30170.0,13.0,-7.0,-15.0,0,None
2023-01-01 17:12:11,499.77400000000006,0.1044444444444441,100.0,894.0,24283.5,4891.0,97.0,977.2222222222222,328.8888888888889,4898.555555555556,98.92540111111114,6.544004888888889,0.1021857125,-0.08966537,-2.24960325,57.7375,0.1135270499999999,-0.0892336,-2.1406105,0.9497633444444444,1.5527065555555557,11.789173444444444,93.88888888888889,1.3333333333333333,-215.22222222222223,55.77777777777778,14.22222222222222,174.33333333333334,-1040.4444444444443,3.7777777777777777,327.44444444444446,1017.8704444444444,-3.513793222222222,3368.333333333333,0.1135270499999999,0.0336966725,-0.0892336,0.0012249274999999,-2.1406105,-0.00865567375,57740.0,23728.5,30150.0,11.0,2.0,-14.5,0,None
2023-01-01 17:12:12,500.7428888888888,0.1088888888888845,100.0,967.5,24204.0,4894.0,97.0,956.7777777777778,331.44444444444446,4866.555555555556,98.85627,6.5641227777777775,0.1004634319999999,-0.0785655999999999,-2.2505036,57.71999999999999,0.1120238399999999,-0.079250968,-2.1422654000000003,1.031418688888889,1.3344142222222224,10.562251555555555,102.83333333333331,29.944444444444443,-214.77777777777777,40.61111111111112,2.2777777777777777,176.83333333333334,-1103.7777777777778,5.611111111111111,323.1111111111111,1017.8756111111112,-3.5089843888888885,3368.111111111112,0.1120238399999999,0.0133003079999999,-0.079250968,0.0136197842,-2.1422654000000003,0.0043335732,57720.0,23733.5,30130.0,9.0,5.5,-8.5,0,None
2023-01-01 17:12:13,501.738,0.1020000000000038,100.0,777.5,24324.0,4889.5,97.0,837.5,334.0,4850.4,98.786582,6.585950800000002,0.08924898,-0.073487284,-2.2560734000000005,57.718,0.100761514,-0.073891178,-2.1483854,0.99128957,1.4776854999999998,13.160218,71.5,20.1,-208.0,72.1,-25.1,175.4,-1110.6,-22.1,314.6,1017.9010999999998,-3.4834374,3368.0,0.100761514,0.000258838,-0.073891178,-0.007681014,-2.1483854,-0.018718233,57720.0,23688.0,30130.0,7.5,10.5,-10.0,0,None
2023-01-01 17:12:14,502.7600000000001,0.1039999999999963,100.0,889.0,24239.0,4825.5,97.0,810.5,336.2,4893.1,98.721364,6.6057984,0.0842907074999999,-0.0676624875,-2.26920175,57.7075,0.096042275,-0.068599055,-2.16254,1.15486391,1.7424342,15.023601,69.1,-17.5,-207.9,56.5,18.9,190.2,-989.1,-7.1,334.9,1017.8698,-3.5146249000000003,3368.1,0.094701846,0.052936442,-0.068979564,-0.000256828,-2.1632322,0.007562042,57705.0,23603.5,30115.0,11.5,0.5,-15.0,0,None
2023-01-01 17:12:15,503.782,0.1020000000000038,100.0,1086.5,24228.5,4890.0,97.0,1057.0,339.0,4863.7,98.654422,6.623961399999999,0.1058297039999999,-0.089552136,-2.2411936,57.722,0.1175786679999999,-0.0909828199999999,-2.133482,0.88761363,1.6535458000000005,14.122469,122.7,-11.35,-214.0,33.6,90.55,173.85,-1015.6,27.85,322.45,1017.8321,-3.5525271500000004,3368.0,0.1175786679999999,0.0248961601999999,-0.0909828199999999,-0.1063566882,-2.133482,0.005099128,57735.0,23783.0,30145.0,10.0,-27.5,-7.0,0,None
2023-01-01 17:12:16,504.77177777777774,0.1022222222222176,100.0,955.0,24263.0,4886.0,97.0,860.6666666666666,341.55555555555554,4874.333333333333,98.58381666666666,6.6438658888888895,0.13590655,-0.091436685,-2.25526025,57.8025,0.147129175,-0.0928892325,-2.1495665,1.073197111111111,1.6085222222222224,14.559173333333332,68.66666666666667,5.555555555555555,-225.88888888888889,105.88888888888889,-0.1111111111111111,175.66666666666666,-1017.5555555555557,-22.88888888888889,320.77777777777777,1017.837,-3.547413222222223,3367.8888888888887,0.147129175,-0.0181715849999999,-0.0928892325,-0.032873695,-2.1495665,-0.017599354475,57805.0,23674.0,30215.0,8.5,-6.0,-21.0,0,None
2023-01-01 17:12:17,505.764,0.1060000000000002,100.0,990.5,24150.0,4891.5,97.0,1207.5,344.6,4874.4,98.514672,6.6652424,0.1167984399999999,-0.079555658,-2.2458406,57.754,0.12917708,-0.080614738,-2.1408512,0.83289148,1.3353742,13.49264,108.5,39.35,-227.95,87.45,-50.3,181.9,-1138.25,22.45,306.4,1017.83735,-3.5471211,3367.85,0.12917708,0.0806114692,-0.080614738,0.014088342,-2.1408512,0.0008599548,57735.0,23780.0,30145.0,17.5,-4.0,-28.0,0,None
2023-01-01 17:12:18,506.7900000000001,0.1020000000000038,100.0,1414.5,23993.5,4893.0,97.0,1119.2,347.7,4893.1,98.43752,6.6887402,0.111362806,-0.1002225579999999,-2.2390028,57.746,0.125720864,-0.099362894,-2.1342678,0.90715343,1.7547932000000004,13.292334,119.1,38.2,-217.3,83.8,63.6,174.0,-1024.5,-4.3,313.7,1017.9042000000002,-3.4802499999999994,3367.7,0.125720864,0.0151091068,-0.099362894,-0.0298670879999999,-2.1342678,-0.0052497122,57715.0,23755.0,30125.0,1.5,3.0,-15.5,0,None
2023-01-01 17:12:19,507.804,0.0999999999999999,100.0,1048.5,24148.5,4824.0,97.0,982.7,350.7,4888.4,98.360546,6.713545600000001,0.12803316,-0.079804838,-2.2475632,57.7,0.1415530399999999,-0.08050331,-2.1452032,0.97520534,1.4795193,14.243249,102.3,-65.6,-221.1,85.9,-33.7,181.7,-1141.1,-24.0,320.2,1017.8869,-3.4975234,3367.5,0.1415530399999999,-0.0791652876,-0.08050331,-0.104202988,-2.1452032,-0.0158562872,57730.0,23683.5,30140.0,33.0,14.0,-2.5,0,None
2023-01-01 17:12:20,508.804,0.0999999999999999,100.0,973.0,24204.5,4898.0,97.0,889.2,353.1,4880.8,98.289468,6.7380054000000005,0.072395398,-0.1101517,-2.257508,57.726,0.087521264,-0.10924724,-2.1550704,1.03187778,1.6980311,14.291404,60.7,17.3,-203.4,113.0,-51.5,163.4,-1032.7,13.5,333.9,1017.8695,-3.5148983,3367.4,0.087521264,-0.0418504204,-0.10924724,0.0476090088,-2.1550704,0.0125006715999999,57715.0,23694.5,30125.0,22.5,15.5,-11.5,0,None
2023-01-01 17:12:21,509.804,0.0999999999999999,100.0,966.0,24185.0,4888.5,97.0,958.1,355.6,4865.6,98.24204999999998,6.7609368000000005,0.088106692,-0.109928268,-2.241769,57.720000000000006,0.103201122,-0.111346002,-2.1396498,1.1909669,1.7009188000000002,13.275905,140.4,20.3,-211.4,117.7,87.4,164.9,-1022.6,9.1,333.7,1017.8237,-3.5609218999999994,3367.2,0.103201122,0.155268754,-0.111346002,0.011829016,-2.1396498,0.0132664679999999,57735.0,23750.0,30145.0,-6.5,-17.5,-19.5,0,None
2023-01-01 17:12:22,510.804,0.0999999999999999,100.0,1223.0,24045.0,4901.5,97.0,1144.0,358.5,4851.8,98.211886,6.7840554,0.1496961,-0.099561912,-2.2325326,57.774,0.1623016199999999,-0.101866678,-2.1314234,0.98499999,1.7729567000000004,14.212815,151.7,29.8,-227.4,77.2,2.4,172.2,-1004.8,-8.4,305.9,1017.8188,-3.565734199999999,3367.0,0.1623016199999999,0.001291908,-0.101866678,0.0582417559999999,-2.1314234,0.0102594289999999,57770.0,23784.0,30180.0,-5.0,-18.0,-23.5,0,None
2023-01-01 17:12:23,511.804,0.0999999999999999,100.0,1229.5,24072.5,4899.5,97.0,1100.9,361.9,4892.4,98.1712,6.810658600000001,0.15477698,-0.09753886,-2.2434656000000004,57.788,0.16777638,-0.099883432,-2.1437184,0.8978142,1.6409142,13.251945,127.5,-26.5,-232.3,106.1,0.2,179.3,-1051.5,0.5,306.1,1017.8339,-3.550578,3367.0,0.16777638,-0.0667362294,-0.099883432,0.01574473028,-2.1437184,-0.03236361,57800.0,23709.0,30210.0,12.5,-2.5,-16.0,0,None
2023-01-01 17:12:24,512.804,0.0999999999999999,100.0,973.0,24224.0,4900.5,97.0,1029.9,364.7,4894.8,98.115728,6.840347800000001,0.14010834,-0.1201349999999999,-2.2411366,57.80799999999999,0.154278,-0.12142816,-2.1420848,0.94329271,1.6875676,14.215977,121.6,-11.9,-226.4,84.5,-13.0,168.0,-1024.2,-0.7,323.6,1017.8211,-3.563281,3366.8,0.154278,0.0502551439999999,-0.12142816,-0.01446487,-2.1420848,0.022564121,57815.0,23732.5,30225.0,13.0,4.5,-21.5,0,None
2023-01-01 17:12:25,513.804,0.0999999999999999,100.0,1213.5,24123.0,4887.5,97.0,1175.1,367.7,4893.3,98.056364,6.872836600000001,0.14557424,-0.1149114599999999,-2.2347184,57.8,0.1601455,-0.11709196,-2.1363008,0.9614025,1.5904682,14.935526,145.3,30.1,-228.1,114.4,1.8,165.0,-1020.0,8.2,319.6,1017.8057,-3.5788516,3366.8,0.1601455,0.045961278,-0.11709196,-0.002540922,-2.1363008,-0.000292978,57775.0,23764.5,30185.0,8.0,3.0,-27.0,0,None
2023-01-01 17:12:26,514.804,0.0999999999999999,100.0,1255.0,24031.0,4826.5,97.0,1334.6,371.4,4893.2,97.99898600000002,6.907480600000001,0.15188342,-0.11184018,-2.2379862,57.75599999999999,0.16578782,-0.11461108,-2.1399942,0.8356698100000001,1.4267884000000002,12.9110159,143.7,-3.8,-231.4,104.0,-12.2,164.1,-1118.2,-5.7,308.5,1017.8438,-3.5406953000000003,3366.7,0.16578782,-0.037922568,-0.11461108,-0.0040270819999999,-2.1399942,-0.0103064402,57760.0,23728.0,30170.0,12.0,2.0,-15.0,0,None
2023-01-01 17:12:27,515.8041000000001,0.0999999999999999,100.0,1336.0,24100.0,4898.0,97.0,1214.3,374.8,4849.1,97.93806000000002,6.943675799999999,0.15563734,-0.11814146,-2.2441958,57.798,0.1700421,-0.1210088199999999,-2.1480726,0.95829164,1.6113803,15.485077,148.2,6.7,355.65,99.2,22.1,170.0,-1058.6,17.7,318.9,1017.8123,-3.5721092000000008,3366.4,0.1700421,0.055183829,-0.1210088199999999,0.0138021837999999,-2.1480726,-0.0153687778,57815.0,23698.0,30225.0,8.5,2.0,-20.5,1,27_xmag_avg_constant_355.65
2023-01-01 17:12:28,516.804,0.0999999999999999,100.0,1218.5,24056.0,4898.0,97.0,1282.4,378.3,4850.0,97.875096,6.981518600000001,0.15670986,-0.11609638,-2.236762,57.788,0.17059926,-0.11953258,-2.1418696,0.8771350199999999,1.5538318,13.883722999999998,148.0,15.8,355.65,101.0,-1.9,169.6,-1017.0,-10.1,308.8,1017.8607,-3.523781,3366.3,0.17059926,-0.013539521,-0.11953258,0.0237163764,-2.1418696,-0.0031467118,57775.0,23725.0,30185.0,10.5,9.5,-17.5,1,27_xmag_avg_constant_355.65
2023-01-01 17:12:29,517.804,0.0999999999999999,100.0,959.5,24198.0,4891.5,97.0,1178.2,381.8,4891.9,97.808862,7.0205822,0.14278112,-0.111893698,-2.2340562,57.742,0.15710422,-0.1152866119999999,-2.1402798,0.97188332,1.5856262,14.232075,162.7,9.1,355.65,95.9,-15.7,171.0,-1086.1,23.5,314.9,1017.8543000000002,-3.5300312,3366.5,0.15710422,0.0079636305999999,-0.1152866119999999,0.02955435,-2.1402798,-0.0023800764,57755.0,23748.5,30165.0,4.5,8.5,-11.0,1,27_xmag_avg_constant_355.65
2023-01-01 17:12:30,518.804,0.0999999999999999,100.0,1352.0,24061.0,4885.5,97.0,1125.3,384.9,4877.1,97.73982,7.059717000000001,0.1597945,-0.091584378,-2.2309708,57.782,0.17508856,-0.094663216,-2.138274,0.98615292,1.5854946,14.529383,136.4,25.8,355.65,95.3,34.4,177.7,-1010.9,-3.5,317.0,1017.8576,-3.5269296,3366.3,0.17508856,0.0222354002,-0.094663216,0.086852296,-2.138274,0.00663250842,57775.0,23736.0,30185.0,0.5,6.5,-14.5,1,27_xmag_avg_constant_355.65
2023-01-01 17:12:31,519.804,0.0999999999999999,100.0,1120.0,24074.0,4901.5,97.0,1188.5,388.2,4894.1,97.662752,7.0978162,0.1440362599999999,-0.079233774,-2.2393662,57.718,0.15787308,-0.0832809039999999,-2.1470245999999995,0.8828776100000001,1.3527221000000005,13.141491000000002,124.9,2.0,355.65,81.2,-17.2,184.7,-1040.3,-20.0,309.9,1017.9336,-3.4508671,3366.4,0.15787308,-0.06253652,-0.0832809039999999,0.0112288174,-2.1470245999999995,0.0061182165999999,57685.0,23685.0,30095.0,23.5,16.5,-18.0,1,27_xmag_avg_constant_355.65
