00000_Time_epoch,00000_Time_boot_sec,00000_Span_Time_boot_sec,1_battery_remaining_avg,1_current_battery_avg,1_voltage_battery_avg,125_Vcc_avg,147_battery_remaining_avg,147_current_battery_avg,147_current_consumed_avg,165_Vcc_avg,168_direction_avg,168_speed_avg,178_pitch_avg,178_roll_avg,178_yaw_avg,182_altitude_avg,182_pitch_avg,182_roll_avg,182_yaw_avg,241_vibration_x_avg,241_vibration_y_avg,241_vibration_z_avg,27_xacc_avg,27_xgyro_avg,27_xmag_avg,27_yacc_avg,27_ygyro_avg,27_ymag_avg,27_zacc_avg,27_zgyro_avg,27_zmag_avg,29_press_abs_avg,29_press_diff_avg,29_temperature_avg,30_pitch_avg,30_pitchspeed_avg,30_roll_avg,30_rollspeed_avg,30_yaw_avg,30_yawspeed_avg,33_alt_avg,33_hdg_avg,33_relative_alt_avg,33_vx_avg,33_vy_avg,33_vz_avg,label,diagnosis
2023-01-03 18:20:05,207.944,0.5099999999999909,80.0,59.5,23144.0,4863.5,99.0,63.0,42.0,4874.5,-152.87995,0.1221875,-0.0016538491666666,-0.0100041410833333,-1.2432561666666666,29.17083333333333,0.0022939143333333,-0.0054099414999999,-1.2386964166666663,0.027480855,0.02616081,0.040871485,-16.0,3.5,70.5,-6.5,5.0,258.0,-1072.0,0.5,337.5,1019.176,-0.14140625,3175.5,0.0022939143333333,0.0051550678333333,-0.0054099414999999,0.0034844359166666,-1.2386964166666663,-0.0001571323141666,29165.0,28903.0,-95.0,3.5,15.0,-28.5,0,None
2023-01-03 18:20:06,208.964,0.5100000000000051,80.0,86.0,23129.0,4866.0,99.0,255.5,42.5,4874.0,-155.47585,0.14743625,-0.0015388069999999,-0.0095110017499999,-1.2435841666666665,29.08,0.00242283575,-0.0050107424166666,-1.23865025,0.14562888,0.22023669,1.1381770249999998,-16.0,-2.0,72.0,-7.0,9.0,255.5,-1064.5,-5.5,336.0,1019.188,-0.1292969,3177.5,0.00242283575,0.0019059744166666,-0.0050107424166666,0.0062446635833333,-1.23865025,0.0174588031,29075.0,28902.0,-185.0,5.5,15.5,-29.5,0,None
2023-01-03 18:20:07,210.0145,0.5300000000000011,80.0,1288.5,22796.0,4870.5,99.0,809.5,43.5,4878.5,-156.32815,0.19181475,0.0116377601666667,-0.0098984200833333,-1.2451986666666666,29.0475,0.0161876923333333,-0.00391588225,-1.2386089166666667,0.60174345,0.4508776499999999,2.50591815,-23.0,5.0,41.0,-29.0,-25.0,252.0,-1126.5,14.5,345.0,1019.4095,0.09156249,3179.5,0.0161876923333333,0.0613661736666666,-0.00391588225,0.0094809705833333,-1.2386089166666667,-0.0001539959166666,29105.0,28915.5,-155.0,0.5,21.5,5.5,0,None
2023-01-03 18:20:08,211.075,0.5305000000000035,79.0,1762.5,22676.0,4870.0,99.0,1639.5,47.5,4877.0,-160.36939999999998,0.24404275,-0.014524388,-0.0039498313333332,-1.2502698333333333,30.093333333333334,-0.0097595441666667,0.000950669475,-1.2391864166666666,0.3475762,1.3537184999999998,3.8134965,-4.5,-18.0,46.0,-3.0,-56.0,218.5,-1228.0,19.0,241.0,1019.0795,-0.2385547,3181.5,-0.0097595441666667,-0.0592864838333333,0.000950669475,-0.0014358315833333,-1.2391864166666666,-0.0372151391666666,30480.0,28884.0,1220.0,-4.5,25.0,182.0,0,None
2023-01-03 18:20:09,212.1545,0.539999999999992,78.0,1733.0,22650.5,4872.0,99.0,1690.0,52.5,4877.0,-161.50985,0.30126815,-0.0223094936666666,-0.0096028361666666,-1.2529266666666667,33.14833333333333,-0.0173745696666666,-0.0049044883333333,-1.2693655,0.3530135,1.265389,4.1815155,-4.0,12.5,54.5,9.5,62.0,259.5,-1153.0,50.5,302.5,1018.7415,-0.57589845,3183.0,-0.0173745696666666,0.0330487552833333,-0.0049044883333333,-0.015748445,-1.2693655,0.0435712149999999,33590.0,28664.0,4330.0,1.5,-14.0,290.0,0,None
2023-01-03 18:20:10,213.2045,0.5200000000000102,77.0,1292.0,22733.0,4870.5,99.0,1483.5,58.0,4866.5,-157.82420000000002,0.35709795,0.0106779697666666,-0.0088884782499999,-1.2380770833333334,36.61333333333333,0.0142436053333333,-0.0034450532499999,-1.26623125,0.413228,1.455489,2.1765465,-23.0,22.0,63.0,-25.5,-1.5,245.0,-940.0,-8.5,305.5,1018.393,-0.9243751,3185.5,0.0142436053333333,0.0204465326666667,-0.0034450532499999,-0.0027619391666667,-1.26623125,-0.0066672726666667,36845.0,28734.0,7585.0,-3.5,-15.5,231.5,0,None
2023-01-03 18:20:11,214.2145,0.5099999999999909,77.0,1140.5,22756.0,4870.0,99.0,1144.0,61.0,4879.5,-158.30515000000003,0.35623165,0.0137549579166666,0.0051055587499999,-1.2354208333333334,38.33,0.018937372075,0.0115226263333333,-1.2595331666666665,0.64665485,0.88527985,1.8714825,-5.5,24.5,63.5,-27.5,14.5,253.5,-926.0,5.5,328.5,1018.134,-1.1835155,3186.5,0.018937372075,0.0641426710833333,0.0115226263333333,0.0593686241666666,-1.2595331666666665,0.0085117433333333,38400.0,28793.0,9140.0,-17.0,-17.0,62.5,0,None
2023-01-03 18:20:12,215.225,0.5,76.0,1213.0,22736.0,4870.0,99.0,1217.5,64.0,4870.0,-160.1177,0.34021045,0.0225997643333333,0.0454943958333333,-1.24504275,38.88416666666666,0.027278825,0.0497570891666666,-1.2645045833333333,0.30701375,1.471158,7.090258,-13.5,4.5,53.5,-8.5,-2.0,253.5,-1052.5,-20.0,290.5,1018.0435,-1.2741405,3188.5,0.027278825,-0.0343329696666666,0.0497570891666666,0.0175357383333333,-1.2645045833333333,-0.0480850724999998,38915.0,28739.0,9655.0,-8.0,5.5,7.5,0,None
2023-01-03 18:20:13,216.2755,0.5300000000000011,76.0,1217.5,22732.0,4874.0,99.0,1226.0,68.0,4874.0,-163.77949999999998,0.30667015,0.0220767866666666,0.0333340383333333,-1.2824259166666667,39.133333333333326,0.0277583375,0.0388232008333333,-1.2969089166666667,0.37405925,1.0861302,5.4026215,16.0,-47.5,47.5,-7.5,-5.0,254.0,-1052.0,-14.0,287.0,1018.0055,-1.311836,3190.5,0.0277583375,0.0171709475,0.0388232008333333,-0.0161273388916666,-1.2969089166666667,-0.0300795643333333,39145.0,28563.5,9885.0,12.5,15.0,-18.0,0,None
2023-01-03 18:20:14,217.335,0.5300000000000011,75.0,1215.5,22707.5,4872.0,99.0,1224.5,71.0,4875.5,-171.7958,0.2503144499999999,0.0288738966666666,0.0233108033333333,-1.3029405833333334,39.23833333333333,0.0338920583333332,0.0298035091666666,-1.3126263333333332,0.50704785,0.9135285,5.6720055,8.5,26.5,35.5,-63.5,2.0,263.5,-1041.0,-3.5,309.0,1017.9855,-1.3320705,3192.5,0.0338920583333332,0.0110502288333333,0.0298035091666666,0.0145077053333333,-1.3126263333333332,-0.003275255,39240.0,28480.5,9980.0,12.0,21.0,-28.5,0,None
2023-01-03 18:20:15,218.135,0.539999999999992,75.0,1244.5,22666.5,4874.0,99.0,1199.0,74.0,4871.0,175.6051,0.2074036,0.03257174,0.0364324666666666,-1.294092,39.28,0.0381883933333333,0.0420307433333333,-1.299853666666667,0.3413427,0.8622301,6.200683,2.0,-10.0,41.5,-51.5,16.5,265.0,-981.0,20.0,278.0,1017.9935,-1.324492,3194.5,0.0381883933333333,-0.0001821739999999,0.0420307433333333,0.0190950366666666,-1.299853666666667,0.0364976699999999,39280.0,28550.0,10020.0,11.0,28.0,-31.0,0,None
2023-01-03 18:20:16,218.8955,0.5100000000000051,74.5,1251.5,22677.0,4875.0,99.0,1269.5,77.0,4879.0,151.42635,0.1800701,0.0247588883333332,0.0255197441666666,-1.2821441666666666,39.28833333333333,0.0295302199999999,0.0310541024999999,-1.2845010833333332,0.6359519,0.9570974,6.5614875,20.0,-16.5,51.5,-56.0,34.5,269.0,-1071.5,25.5,320.5,1017.988,-1.329805,3196.0,0.0295302199999999,-0.0072264458333333,0.0310541024999999,-0.0078725215,-1.2845010833333332,0.0226952633333332,39290.0,28637.5,10030.0,18.5,34.5,-31.5,0,None
2023-01-03 18:20:17,219.935,0.519999999999996,74.0,1209.0,22684.5,4881.0,99.0,1228.0,80.0,4877.5,117.06425,0.19499875,0.0190973095833333,0.00038356575,-1.2633990833333333,39.27333333333334,0.0239260978333333,0.0073129005833333,-1.2624163333333334,0.4438587,1.2555445,6.175838000000001,17.5,41.0,67.5,-30.5,-16.0,262.0,-1077.5,-12.5,326.0,1018.0005,-1.316797,3198.0,0.0239260978333333,-0.0296777799999999,0.0073129005833333,-0.0133167071666666,-1.2624163333333334,0.0144354169999999,39275.0,28776.0,10015.0,13.0,42.0,-27.0,0,None
2023-01-03 18:20:18,220.955,0.5100000000000051,74.0,1156.5,22624.5,4805.5,99.0,1181.5,83.5,4881.0,96.35075,0.24940555,0.00209573025,0.0202014416666666,-1.2906415833333331,39.26,0.0079193622499999,0.02553009,-1.2879159166666665,0.5404916,1.1559339999999998,6.014016,4.0,28.0,57.5,-3.0,4.0,274.0,-1097.5,3.0,312.0,1018.013,-1.304453,3200.0,0.0079193622499999,0.0058381346666666,0.02553009,0.0141366345,-1.2879159166666665,-0.0476471426999999,39260.0,28624.0,10000.0,3.5,34.0,-28.5,0,None
2023-01-03 18:20:19,221.965,0.5,73.0,1151.0,22639.0,4864.5,99.0,1156.5,87.0,4880.5,84.87020000000001,0.31064645,-0.0090965217499999,0.0117002075,-1.302266,39.266666666666666,-0.0038388709166666,0.0166451316666666,-1.2974878333333333,0.3848692999999999,0.97448225,5.1778285,2.0,21.5,56.0,-45.0,12.5,257.0,-1022.5,-13.5,294.5,1018.005,-1.3125785,3201.5,-0.0038388709166666,-0.0202004266666666,0.0166451316666666,0.0010660069999999,-1.2974878333333333,0.0109764844166666,39260.0,28566.5,10000.0,8.5,24.0,-29.5,0,None
2023-01-03 18:20:20,222.976,0.5104999999999933,73.0,1184.0,22626.5,4793.5,99.0,1195.5,90.0,4805.0,76.73464,0.37117515,0.0081892675833333,0.0071281684999999,-1.3002239166666667,39.24166666666667,0.0135219347499999,0.0120341194999999,-1.2925479166666665,0.31133875,1.16573785,4.661922,-5.5,-55.0,51.0,-36.0,25.0,259.0,-1075.5,7.0,307.5,1018.0215,-1.29625,3203.5,0.0135219347499999,0.029616105,0.0120341194999999,-0.0213244314999999,-1.2925479166666665,0.0070464891666666,39245.0,28592.5,9985.0,15.0,9.0,-28.5,0,None
2023-01-03 18:20:21,223.9855,0.5,73.0,1186.5,22666.5,4872.0,99.0,1157.0,93.5,4866.0,72.03526500000001,0.4206521,0.0164573791666666,-0.0083276949166666,-1.2923310833333337,39.20666666666666,0.0221025683333333,-0.0023400897499999,-1.2824146666666665,0.4618811,1.1193744,3.5389505000000003,3.5,-15.0,41.0,-40.0,-5.0,240.5,-1083.0,-20.0,299.0,1018.0315,-1.2860935,3205.0,0.0221025683333333,-0.0027240822499999,-0.0023400897499999,0.0017062729166667,-1.2824146666666665,-0.0056872435,39205.0,28655.5,9945.0,6.0,12.0,-24.5,0,None
2023-01-03 18:20:22,224.9855,0.5,72.0,1189.0,22596.0,4861.0,99.0,1183.0,97.0,4886.0,70.160315,0.4646711999999999,0.0043123398166666,-0.0055546741658332,-1.3138184166666669,39.21583333333333,0.0106525980833333,0.0006595044,-1.3009737499999998,0.5466185,0.9125179,2.75059,-16.5,6.5,45.0,-4.0,27.0,265.5,-1050.0,-34.5,311.0,1018.0265,-1.2913670000000002,3207.5,0.0106525980833333,0.0005990186666666,0.0006595044,-0.0127785774999999,-1.3009737499999998,-0.0041689255,39215.0,28545.0,9955.0,-0.5,8.0,-24.5,0,None
2023-01-03 18:20:23,225.9855,0.5,72.0,1215.5,22627.5,4872.0,99.0,1212.5,100.0,4882.0,69.11988,0.5005884,0.0139326449999999,-0.0093196801666666,-1.3171866666666667,39.22166666666666,0.0204478675,-0.0034438809666666,-1.302307,0.308468,0.9576419,3.5597955,9.5,44.0,41.0,-40.5,-40.0,270.0,-1100.0,-23.5,334.0,1018.0215,-1.29625,3208.5,0.0204478675,-0.00408285825,-0.0034438809666666,0.0235066624999999,-1.302307,-0.0196020616666666,39220.0,28544.5,9960.0,-11.0,0.0,-26.5,0,None
2023-01-03 18:20:24,226.9855,0.5,72.0,1264.5,22551.5,4795.0,99.0,1218.0,103.5,4886.5,68.63154,0.5325229,0.0208966641666666,0.0272805291666666,-1.3399129166666668,39.23,0.0267848991666666,0.03227136,-1.3223594166666666,0.33207925,1.218571,3.1857745,-5.5,-16.5,25.5,-12.5,-27.5,277.5,-1103.0,7.0,299.5,1018.0435,-1.274375,3210.5,0.0267848991666666,0.0216152731666666,0.03227136,0.0122775275,-1.3223594166666666,0.0143260591666666,39230.0,28420.0,9970.0,-1.0,1.0,-26.5,0,None
2023-01-03 18:20:25,227.9855,0.5,71.0,1224.0,22628.5,4879.5,99.0,1217.5,107.0,4800.0,68.563715,0.56898625,0.0286242791666666,0.0004930669166666,-1.32806775,39.22333333333333,0.0341590933333333,0.0063958063166666,-1.3062165833333337,0.32636815,1.01753565,2.791745,1.5,0.5,34.0,-38.5,-19.0,275.5,-1074.5,-5.5,358.0,1018.01,-1.307422,3212.5,0.0341590933333333,-0.0167444108333333,0.0063958063166666,-0.0122420541666667,-1.3062165833333337,-0.0137541744999999,39225.0,28519.0,9965.0,5.5,12.5,-24.0,0,None
2023-01-03 18:20:26,228.9855,0.5,71.0,1504.0,22546.0,4884.0,99.0,1334.0,110.0,4884.5,68.95552,0.61018495,-0.0679745033333333,0.0146368141666666,-1.3224655833333334,39.32083333333333,-0.0600659708333333,0.0203872433333333,-1.2975457499999998,0.36988845,1.101508,3.12853,-18.0,64.5,65.5,-35.5,-230.5,248.5,-1212.0,28.0,294.0,1017.993,-1.32418,3214.0,-0.0600659708333333,-0.1960615499999999,0.0203872433333333,0.0153919974999999,-1.2975457499999998,0.0449904108333333,39300.0,28558.5,10040.0,5.5,-0.5,3.0,0,None
2023-01-03 18:20:27,229.9855,0.5,71.0,1344.0,22523.0,4798.0,99.0,1420.5,114.5,4820.5,69.76905,0.6567909000000001,-0.1808841416666666,0.0088049225,-1.29681875,40.1875,-0.1719545,0.0128691439999999,-1.2687245833333334,0.45150205,1.2164077,7.322006,-30.0,10.0,114.0,-24.0,17.5,262.0,-1074.0,-33.0,276.0,1017.8805,-1.4367964999999998,3215.5,-0.1719545,0.0047324268333333,0.0128691439999999,-0.0026056093333333,-1.2687245833333334,0.0119231428333333,40165.0,28736.0,10905.0,54.5,-155.0,82.5,0,None
2023-01-03 18:20:28,230.995,0.5095000000000027,70.0,1585.0,22495.0,4868.5,99.0,1525.5,118.5,4872.5,70.98096000000001,0.6989124,-0.1466356166666666,0.0075196015166666,-1.3062806666666669,41.385,-0.1407294333333333,0.0101464573333332,-1.2750205,0.3815322,0.98677695,3.8752685,-37.5,-48.0,95.5,-22.5,45.5,267.5,-1160.0,0.0,346.5,1017.716,-1.6016795,3217.5,-0.1407294333333333,0.0247825641333333,0.0101464573333332,-0.00244943,-1.2750205,0.0051869996666666,41345.0,28693.5,12085.0,105.5,-313.5,103.0,0,None
2023-01-03 18:20:29,232.005,0.5,70.0,1433.0,22468.0,4814.0,99.0,1559.0,123.0,4805.0,71.97174000000001,0.73445425,-0.1487866333333333,0.0026636365,-1.3041598333333333,43.12583333333333,-0.1454716833333333,0.0059925403333332,-1.2722120833333337,0.46190255,1.3360120000000002,6.122721,-34.5,-57.5,108.0,-32.0,-73.0,241.0,-1076.5,-13.5,302.0,1017.529,-1.7885545,3219.5,-0.1454716833333333,-0.0265004884999999,0.0059925403333332,-0.0066546763333333,-1.2722120833333337,0.0016090976666666,43090.0,28709.5,13830.0,140.5,-437.0,161.5,0,None
2023-01-03 18:20:30,233.005,0.5,69.5,1335.5,22563.0,4882.5,99.0,1409.0,127.0,4891.5,72.665475,0.7638003499999999,-0.1868339749999999,-0.0122205966666666,-1.3249506666666666,45.04166666666666,-0.183309,-0.0072348629999999,-1.292457,0.4383135,1.1375095000000002,5.314994,-78.5,51.5,120.5,0.5,-70.5,255.5,-1124.0,-41.0,286.0,1017.3425,-1.975,3220.5,-0.183309,0.0080034806666666,-0.0072348629999999,0.0152346125,-1.292457,-0.0276330375,45005.0,28594.0,15745.0,157.5,-560.0,158.0,0,None
2023-01-03 18:20:31,234.005,0.5,69.0,1272.0,22503.5,4885.0,99.0,1448.0,131.0,4888.5,72.8792,0.78654535,-0.1853250833333333,0.0162585429166666,-1.3349935,46.88583333333332,-0.1817862999999999,0.0203760241666666,-1.3024199166666666,0.6035956,1.4520369999999998,8.61162,-92.5,27.5,114.0,-29.0,-26.5,261.0,-1098.5,15.5,292.0,1017.122,-2.195547,3222.5,-0.1817862999999999,0.0245319958333333,0.0203760241666666,0.0088933709999999,-1.3024199166666666,-0.014840826,46850.0,28538.5,17590.0,172.0,-673.5,159.5,0,None
2023-01-03 18:20:32,235.005,0.5,69.0,1361.5,22549.5,4882.5,99.0,1354.0,134.5,4815.5,72.543385,0.8024101,-0.1934551166666666,0.0201126408333333,-1.33074175,48.70166666666667,-0.1904455583333333,0.0239801316666666,-1.2965069166666665,0.5819566,1.5855895,6.840173,-114.5,33.0,116.5,-40.5,57.5,226.5,-1033.0,-9.0,237.5,1016.86,-2.457695,3224.5,-0.1904455583333333,-0.0046009825,0.0239801316666666,-0.0060162171666666,-1.2965069166666665,0.0165292435833332,48670.0,28571.0,19410.0,199.5,-765.0,158.5,0,None
2023-01-03 18:20:33,236.005,0.5,69.0,1509.5,22439.5,4882.5,99.0,1306.5,138.0,4882.5,71.66828000000001,0.8163044500000001,-0.1739296,0.0331141725,-1.3329321666666667,50.58416666666666,-0.1720386666666666,0.0382799041666666,-1.2976044166666667,0.6829035,1.6426195,10.557625000000002,-119.0,60.5,101.0,-16.5,67.5,-5922.0666666666675,-1089.5,-11.5,308.0,1016.5855,-2.7318745,3225.5,-0.1720386666666666,0.0412258166666666,0.0382799041666666,0.0221113283333333,-1.2976044166666667,0.0173336059166666,50545.0,28567.0,21285.0,220.5,-845.5,155.0,1,27_ymag_avg_drift_-219.5916666666667
2023-01-03 18:20:34,237.275,0.2600000000000023,68.5,1593.0,22481.5,4877.0,99.0,1591.8,144.8,4881.6,70.266244,0.8384351000000001,-0.1426671888888888,0.0374959027777777,-1.335765833333333,52.93666666666667,-0.1412140333333333,0.0424899422222222,-1.298080277777778,0.5898221199999999,1.51971,9.3428812,-107.9,7.5,102.1,-55.1,20.1,-6141.658333333335,-1053.5,-10.1,277.2,1016.2578,-3.0600309999999995,3227.8,-0.1412140333333333,0.0324585811111111,0.0424899422222222,0.0037261998888889,-1.298080277777778,-0.00114215,52963.333333333336,28560.666666666668,23703.33333333333,253.66666666666663,-908.3333333333334,151.0,1,27_ymag_avg_drift_-219.5916666666667
2023-01-03 18:20:35,238.117,0.1019999999999981,68.0,1415.0,22524.5,4881.0,99.0,1338.9,148.8,4856.2,69.404606,0.86124484,-0.106364372,0.033542366,-1.3401588,54.966,-0.10578776,0.039813156,-1.3003095999999998,0.6533692200000001,1.6714823000000003,9.4968932,-119.0,5.1,85.7,-48.9,81.8,-6361.250000000001,-1050.4,2.9,304.6,1016.1648,-3.1528827000000006,3229.5,-0.10578776,0.0740142732,0.039813156,-0.0048084046,-1.3003095999999998,-0.0010441601999999,55405.0,28562.0,26145.0,265.0,-928.0,148.0,1,27_ymag_avg_drift_-219.5916666666667
2023-01-03 18:20:36,239.1253,0.1001000000000004,68.0,1136.5,22514.0,4870.0,99.0,1146.4,152.2,4867.7,68.60423400000002,0.90110572,0.0528592936,0.043590614,-1.3331178,56.67,0.051755223,0.05093461,-1.2901422,0.7438704,1.22669299,8.334108599999999,-107.7,20.2,38.8,-45.4,164.6,-6580.841666666667,-1052.9,-0.4,320.7,1016.0835,-3.2341326,3231.1,0.051755223,0.2193025179999999,0.05093461,0.0309748672,-1.2901422,0.0036702231999999,56995.0,28621.0,27735.0,241.0,-830.5,128.0,1,27_ymag_avg_drift_-219.5916666666667
2023-01-03 18:20:37,240.1279,0.0999999999999999,68.0,1048.5,22624.5,4871.0,99.0,988.7,155.1,4871.8,68.21053200000001,0.95991192,0.11160528,0.0502396459999999,-1.3353916,57.696000000000005,0.11022214,0.059499254,-1.2858748,0.72128864,1.3580990000000002,6.5653587,-76.6,0.1,23.4,-31.0,11.7,-6800.433333333334,-958.2,1.3,307.4,1015.902,-3.4156171,3232.6,0.11022214,-0.005339146,0.059499254,-0.0113847568,-1.2858748,-0.0026281,57795.0,28650.5,28535.0,203.5,-661.0,20.0,1,27_ymag_avg_drift_-219.5916666666667
2023-01-03 18:20:38,241.16,0.104000000000002,68.0,1082.5,22550.0,4808.5,99.0,1084.0,158.4,4846.7,67.717882,1.02623254,0.1110385033333333,0.0400277883333333,-1.3165871666666666,57.88,0.1127342383333333,0.0517229049999999,-1.2583716666666669,0.5921069699999999,1.8319759,13.796399,-52.75,10.45,29.05,-43.05,-5.95,-7020.0250000000015,-1055.95,22.4,315.5,1015.82815,-3.4895780000000003,3234.4,0.1127342383333333,-0.0078796636666666,0.0517229049999999,0.0126070456666666,-1.2583716666666669,0.0064005845,57885.0,28817.0,28625.0,161.5,-504.5,-20.5,1,27_ymag_avg_drift_-219.5916666666667
2023-01-03 18:20:39,242.12933333333336,0.1022222222222208,68.0,1141.5,22594.5,4877.0,98.77777777777776,1145.4444444444443,161.33333333333334,4856.666666666667,66.98065555555557,1.0952074444444446,0.0916246725,0.0431405475,-1.3190985000000002,57.9825,0.0959523475,0.0560146725,-1.253787,0.4982552111111111,2.029578555555555,13.872222222222222,-32.333333333333336,2.0,28.88888888888889,-57.333333333333336,27.22222222222222,-7239.616666666668,-1098.888888888889,-19.88888888888889,310.0,1015.7621111111112,-3.5555206666666663,3236.111111111112,0.0959523475,0.033293681,0.0560146725,0.0034270087499999,-1.253787,-0.023851757,58000.0,28808.5,28740.0,130.5,-383.0,-29.0,1,27_ymag_avg_drift_-219.5916666666667
2023-01-03 18:20:40,243.108,0.1039999999999991,68.0,1428.5,22504.0,4869.5,98.0,1323.1,164.6,4888.5,66.14266199999999,1.158702,0.1173371519999999,0.05058239,-1.3061328,58.206,0.120643978,0.062931588,-1.2373624,0.47455566,1.67548091,10.6719233,-41.8,11.6,22.0,-56.6,-17.4,-7459.208333333334,-1103.8,21.0,307.7,1015.7441,-3.5737185999999994,3237.5,0.120643978,-0.0192454762,0.062931588,0.039785454,-1.2373624,0.039051635,58320.0,28930.0,29060.0,107.0,-241.5,12.0,1,27_ymag_avg_drift_-219.5916666666667
2023-01-03 18:20:41,244.148,0.104000000000002,68.0,1357.5,22455.5,4885.0,98.0,1331.0,168.4,4868.8,65.14446799999999,1.2183632,0.114442616,0.0396437439999999,-1.315907,58.902,0.118069326,0.0525033499999999,-1.2457444,0.44015772,1.8919586,8.614238400000001,-30.1,0.45,17.9,-34.75,41.1,-7678.800000000001,-1099.05,-40.25,299.0,1015.67045,-3.647168,3239.25,0.118069326,0.0479963391999999,0.0525033499999999,0.01018357,-1.2457444,-0.0429487599999999,59085.0,28813.5,29825.0,73.5,-118.0,35.5,1,27_ymag_avg_drift_-219.5916666666667
2023-01-03 18:20:42,245.16600000000005,0.0999999999999999,68.0,1150.5,22509.5,4886.5,98.0,1113.9,172.0,4883.8,64.072844,1.2732682,0.1202798799999999,0.0186964324,-1.3522172,59.566,0.1241698,0.031838146,-1.2813772,0.42955568,1.22059745,7.1783685,-5.1,-30.1,13.2,-57.8,-43.5,-7898.391666666668,-1003.5,4.9,324.9,1015.6504,-3.6673203,3240.6,0.1241698,-0.0342884284,0.031838146,-0.032137804,-1.2813772,-0.0136019688,59635.0,28647.0,30375.0,38.5,-7.0,-8.5,1,27_ymag_avg_drift_-219.5916666666667
2023-01-03 18:20:43,246.1665,0.100199999999998,68.0,1147.5,22559.5,4809.5,98.0,1184.8,175.2,4878.6,63.209956,1.3253612,0.04151938,0.0008842328,-1.3678894,59.61800000000001,0.047081252,0.013828096,-1.2991106,0.55235789,1.11282688,9.8009159,13.2,34.0,31.4,-49.6,-21.7,-8117.983333333334,-1055.2,-12.5,314.1,1015.6247,-3.6928905,3242.4,0.047081252,-0.0426985039999999,0.013828096,0.0295690487999999,-1.2991106,-0.03317098,59615.0,28525.0,30355.0,7.0,23.5,-32.5,1,27_ymag_avg_drift_-219.5916666666667
2023-01-03 18:20:44,247.1291111111111,0.1022222222222239,68.0,1227.0,22559.5,4875.5,98.0,1221.0,178.33333333333334,4845.888888888889,62.82610777777778,1.3718441111111113,0.065854738,0.020190718,-1.36442,59.596,0.071215604,0.031662392,-1.297522,0.5303395875,1.0741940375,10.12575725,10.444444444444445,1.1111111111111112,25.55555555555556,-62.22222222222222,23.666666666666668,-8337.575,-1062.6666666666667,27.11111111111111,327.0,1015.623,-3.694748111111111,3243.777777777778,0.071215604,0.0348688376,0.031662392,-0.0039036879999999,-1.297522,0.012901018,59590.0,28596.5,30330.0,-10.0,38.5,-28.5,1,27_ymag_avg_drift_-219.5916666666667
2023-01-03 18:20:45,248.098,0.1019999999999981,68.0,1130.5,22537.0,4881.5,98.0,1172.2,181.5,4866.4,62.825002,1.4173524,0.045487274,0.03143454,-1.3611276,59.612,0.050040854,0.04214763,-1.2956434,0.44432693,1.4441073000000002,8.921949600000001,16.6,22.4,31.2,-50.0,-22.2,-8557.166666666668,-1066.5,-3.6,291.4,1015.6063,-3.7114139,3245.3,0.050040854,-0.0210886289999999,0.04214763,0.00991521238,-1.2956434,-0.0139342381999999,59625.0,28568.0,30365.0,-20.0,55.0,-28.0,1,27_ymag_avg_drift_-219.5916666666667
2023-01-03 18:20:46,249.1098,0.1,68.0,1163.0,22552.0,4882.5,98.0,1156.5,184.8,4883.1,62.825298,1.4609834000000004,0.0210666879999999,0.0368844179999999,-1.3601226,59.61999999999999,0.025710366,0.047254092,-1.2957756,0.49449212,1.25374323,7.6550003,8.9,-11.5,37.6,-46.7,-3.5,-8776.758333333335,-1076.4,4.7,312.8,1015.6249,-3.6926327,3246.7,0.025710366,0.002272488,0.047254092,-0.0196648075999999,-1.2957756,0.0103289245999999,59625.0,28578.0,30365.0,-9.5,48.5,-30.0,1,27_ymag_avg_drift_-219.5916666666667
2023-01-03 18:20:47,250.12,0.102000000000001,68.0,1095.0,22562.5,4884.0,98.0,1094.8,187.9,4874.0,62.59548399999999,1.5032936,0.0113493356,0.0282740459999999,-1.3682051999999998,59.614,0.015498644,0.03936735,-1.304726,0.5214451199999999,1.28307945,6.3273835,13.6,5.2,43.2,-42.3,14.3,263.2,-1057.0,-28.8,307.8,1015.6287,-3.6888359,3248.3,0.015498644,0.0017896144,0.03936735,0.0103991756,-1.304726,-0.0072017083999999,59610.0,28493.5,30350.0,1.0,28.5,-29.0,0,None
2023-01-03 18:20:48,251.1298,0.0999999999999999,68.0,1089.5,22566.5,4876.0,98.0,1111.1,191.0,4839.9,62.240908000000005,1.5419798,0.01968956,0.0230083674999999,-1.380999,59.578,0.024704786,0.034093026,-1.3193265999999997,0.5582623900000001,1.2679222400000003,9.4668846,26.5,-2.0,29.3,-70.0,14.2,264.3,-1141.0,0.3,309.1,1015.6374,-3.6803046,3249.5,0.024704786,-0.007845546,0.034093026,-0.0103973274,-1.3193265999999997,-0.0132973854,59575.0,28440.5,30315.0,7.0,16.0,-27.0,0,None
2023-01-03 18:20:49,252.1298,0.0999999999999999,68.0,1108.0,22607.0,4885.0,98.0,1102.0,194.1,4889.0,61.859306,1.5772659999999998,0.0277272839999999,0.020959098,-1.3792832000000002,59.574,0.031859926,0.032237184,-1.3183652,0.4864033499999999,1.5592242,8.035065,22.2,12.1,30.8,-83.7,10.3,267.1,-1020.0,-2.8,308.1,1015.6428,-3.6749452,3251.2,0.031859926,0.0247732264,0.032237184,-0.0030630468,-1.3183652,0.025875522,59570.0,28452.5,30310.0,5.5,15.0,-29.5,0,None
2023-01-03 18:20:50,253.11877777777772,0.106777777777776,68.0,1122.0,22550.0,4808.0,98.0,1155.888888888889,197.22222222222223,4883.0,61.55339444444444,1.610333,0.0353099699999999,0.021310312,-1.3683208,59.542,0.0400830739999999,0.032249212,-1.3094516,0.5405854,0.8977752222222222,7.466016333333333,28.38888888888889,6.888888888888889,31.444444444444443,-39.833333333333336,30.72222222222222,263.44444444444446,-1061.0,17.88888888888889,313.8333333333333,1015.6308888888888,-3.686701388888889,3252.5,0.0400830739999999,0.0263965704,0.032249212,0.02208654,-1.3094516,0.010414636,59560.0,28495.0,30300.0,3.0,10.0,-27.0,0,None
2023-01-03 18:20:51,254.101,0.111111111111111,68.0,1193.0,22494.5,4881.0,98.0,1198.111111111111,200.44444444444449,4888.0,61.34576222222222,1.6425563333333335,0.0257303725,0.0317266575,-1.3507272499999998,59.215,0.0312574974999999,0.0425462675,-1.29352625,0.4142316888888889,1.354865811111111,9.416170333333334,15.61111111111111,18.61111111111111,38.05555555555556,-59.94444444444444,-15.11111111111111,268.1666666666667,-1075.611111111111,16.38888888888889,313.3333333333333,1015.6540555555556,-3.663636944444444,3253.8888888888887,0.0312574974999999,-0.02799332725,0.0425462675,0.0277966974999999,-1.29352625,0.021621519,59310.0,28572.5,30050.0,-4.0,14.0,-27.5,0,None
2023-01-03 18:20:52,255.1189,0.104000000000002,68.0,1204.0,22517.5,4860.0,98.0,1209.4,203.8,4881.5,61.176994,1.6750436,0.018621495,0.03840971,-1.3449253333333333,58.85166666666667,0.025170575,0.0491038316666666,-1.2882515,0.49456911,0.8225145499999998,6.6013035,15.8,4.8,39.8,-60.8,12.9,272.5,-1063.8,1.3,307.7,1015.6424,-3.675304600000001,3255.3,0.025170575,0.0187361322333333,0.0491038316666666,-0.0034869983333333,-1.2882515,0.0010098761666666,58910.0,28616.5,29650.0,-0.5,6.0,-26.5,0,None
2023-01-03 18:20:53,256.141,0.1019999999999981,68.0,1216.0,22512.5,4876.0,98.0,1209.5,207.2,4837.5,60.912704000000005,1.7065746000000002,0.023070444,0.033478086,-1.346031,58.594,0.02938677,0.044702316,-1.2898546000000002,0.40026729,1.26825078,8.483769,15.9,3.0,38.7,-58.9,0.9,265.7,-1051.4,2.3,305.5,1015.6470000000002,-3.6706795,3256.5,0.02938677,-0.0003001543999999,0.044702316,-0.0059135632,-1.2898546000000002,0.0003555548,58660.0,28616.0,29400.0,6.0,1.5,-25.5,0,None
2023-01-03 18:20:54,257.15900000000005,0.1020000000000038,67.0,1222.5,22432.0,4875.5,98.0,1192.8,210.6,4879.0,60.58455200000001,1.7372434,0.0248391759999999,0.02843521,-1.3462980000000002,58.432,0.031860304,0.039692434,-1.2900679999999998,0.2738119799999999,1.6202761000000003,7.057097900000002,15.45,-10.7,36.35,-50.2,19.15,268.3,-1079.2,-4.85,306.9,1015.65015,-3.667328050000001,3258.1,0.031860304,0.0087548462,0.039692434,-0.0107522299999999,-1.2900679999999998,0.0038177304,58443.333333333336,28606.33333333333,29183.33333333333,12.666666666666666,0.3333333333333333,-24.33333333333333,0,None
2023-01-03 18:20:55,258.14788888888893,0.1044444444444441,67.0,1191.0,22511.0,4805.5,98.0,1179.5555555555557,214.0,4882.777777777777,60.2301788888889,1.768079111111111,0.0305471025,0.0267897499999999,-1.34376675,58.35,0.0374820275,0.0377681574999999,-1.28804525,0.3610614666666667,1.5127237777777776,5.119422222222223,13.444444444444445,9.77777777777778,34.666666666666664,-43.0,4.777777777777778,263.1111111111111,-1062.3333333333333,6.111111111111111,310.44444444444446,1015.6613333333332,-3.656249888888889,3259.4444444444443,0.0374820275,-0.0092287155,0.0377681574999999,0.0074390624999999,-1.28804525,0.0078108492499999,58340.0,28621.0,29080.0,8.0,3.0,-28.0,0,None
2023-01-03 18:20:56,259.129,0.1019999999999981,67.0,1176.0,22450.0,4878.5,98.0,1191.8,217.2,4884.5,59.977296,1.7960190000000005,0.025516564,0.0260737999999999,-1.344498,58.276,0.033620196,0.0371763799999999,-1.2895508,0.4692318,1.5129404000000002,7.0028515,13.8,1.4,38.2,-52.9,3.1,266.4,-1078.9,-2.8,310.3,1015.6324,-3.6853045,3260.4,0.033620196,0.0101131298,0.0371763799999999,-0.0005005619999999,-1.2895508,-0.0065805885999999,58280.0,28616.5,29020.0,7.0,7.5,-26.5,0,None
2023-01-03 18:20:57,260.133,0.0999999999999999,67.0,1188.5,22519.0,4881.0,98.0,1173.8,220.5,4886.2,59.76719200000001,1.824441,0.031879154,0.028902848,-1.3468706,58.246,0.0396211979999999,0.039919652,-1.2942822,0.54842306,1.10755003,9.223463,18.5,15.9,39.4,-53.1,14.3,266.7,-1069.3,-11.3,312.1,1015.6419,-3.6758515,3261.8,0.0396211979999999,0.018988652,0.039919652,0.0089693738,-1.2942822,-0.0041846588,58250.0,28592.5,28990.0,3.0,4.0,-28.5,0,None
2023-01-03 18:20:58,261.133,0.0999999999999999,67.0,1172.0,22509.0,4880.0,98.0,1164.6,223.6,4885.7,59.60226200000001,1.852436,0.032174498,0.036585056,-1.3408262,58.202,0.0403324719999999,0.04736316,-1.2894114,0.4424683555555555,1.091913588888889,8.846636333333334,16.6,-2.1,38.2,-60.0,11.4,263.3,-1069.9,25.7,290.0,1015.6232,-3.6945311,3263.3,0.0403324719999999,-0.0104264306,0.04736316,-0.00257770288,-1.2894114,0.0078628577999999,58210.0,28595.5,28950.0,1.5,7.5,-27.0,0,None
2023-01-03 18:20:59,262.133,0.0999999999999999,67.0,1147.5,22474.0,4885.5,98.0,1132.2,226.8,4872.5,59.45898000000001,1.8818774,0.0337147719999999,0.037300636,-1.3362042,58.220000000000006,0.0411700859999999,0.048446426,-1.2851012000000002,0.43829679,1.6255256,9.1947582,15.5,7.0,33.2,-60.2,-7.8,262.3,-1029.2,-4.2,300.8,1015.5997,-3.7180703999999993,3264.5,0.0411700859999999,-0.0170301034,0.048446426,0.0236561189999999,-1.2851012000000002,-0.0010419815999999,58210.0,28647.5,28950.0,0.5,14.5,-31.5,0,None
2023-01-03 18:21:00,263.133,0.0999999999999999,67.0,1068.5,22525.5,4885.0,98.0,1085.6,229.9,4858.0,59.328738,1.9126392,0.023561016,0.040779558,-1.3429243999999998,58.25,0.0316921499999999,0.051630998,-1.2934671999999998,0.4816293799999999,1.5067174,10.8182457,28.2,16.3,40.8,-65.0,43.4,270.7,-989.3,-2.4,299.3,1015.6026,-3.7152186,3265.8,0.0316921499999999,0.0660286394,0.051630998,0.0280577462,-1.2934671999999998,-0.0087206127339999,58250.0,28600.0,28990.0,5.0,12.5,-33.0,0,None
2023-01-03 18:21:01,264.133,0.0999999999999999,67.0,1159.0,22428.0,4802.5,98.0,1161.3,233.1,4850.2,59.150856,1.9429784,0.0446437539999999,0.0418102219999999,-1.3487,58.21999999999999,0.051690138,0.0527874639999999,-1.3000288000000002,0.4720934999999999,1.5263671,10.2084947,20.3,-3.1,29.0,-52.8,-28.1,269.4,-1090.3,-1.8,313.1,1015.6127,-3.7049217,3266.9,0.051690138,-0.0236778338,0.0527874639999999,-0.0039511534,-1.3000288000000002,-0.0046076432,58230.0,28554.5,28970.0,12.0,19.5,-34.5,0,None
2023-01-03 18:21:02,265.133,0.0999999999999999,67.0,1148.0,22495.0,4883.0,98.0,1127.5,236.2,4842.8,58.969614,1.9748488,0.0227702779999999,0.034577804,-1.3441762000000002,58.18399999999999,0.0306841339999999,0.044517798,-1.2962517999999998,0.49610789,1.19924468,8.9638508,17.5,-1.6,34.2,-61.8,-7.8,280.6,-1083.0,-5.5,316.0,1015.6296999999998,-3.6880702,3268.3,0.0306841339999999,0.0119673519999999,0.044517798,0.0008149906,-1.2962517999999998,0.021635306,58195.0,28561.5,28935.0,11.0,25.5,-30.0,0,None
2023-01-03 18:21:03,266.133,0.0999999999999999,67.0,1161.0,22420.5,4886.5,98.0,1194.9,239.5,4886.3,58.78550800000001,2.0061926,0.0313358559999999,0.03122817,-1.3311526,58.108,0.039278214,0.041057904,-1.284332,0.4603796,1.38308001,10.826414500000002,17.5,4.9,39.1,-69.0,19.4,270.5,-1069.6,12.9,311.6,1015.6041,-3.7135466,3269.4,0.039278214,0.022041928,0.041057904,-0.0042729364,-1.284332,0.0238237114,58115.0,28623.0,28855.0,9.5,19.0,-29.5,0,None
2023-01-03 18:21:04,267.133,0.0999999999999999,67.0,1163.0,22490.5,4883.0,98.0,1174.8,242.8,4887.4,58.63219999999999,2.036687,0.027065964,0.045330468,-1.3245566,58.096,0.0346477139999999,0.055334088,-1.2787681999999998,0.45228704,1.6033786,11.3811508,22.0,10.4,40.5,-55.8,-10.2,286.9,-1073.1,-6.9,321.1,1015.6065999999998,-3.7111484,3270.7,0.0346477139999999,-0.0076787891999999,0.055334088,0.0069210216,-1.2787681999999998,0.00260359193,58095.0,28674.5,28835.0,3.0,14.5,-31.5,0,None
2023-01-03 18:21:05,268.133,0.0999999999999999,66.0,1176.5,22418.5,4880.5,98.0,1189.3,246.1,4884.8,58.476494,2.067057,0.029998192,0.0427002,-1.3227166,58.034000000000006,0.037927404,0.0522332079999999,-1.2771218,0.47434198,1.3085180800000002,8.7448109,18.0,-1.1,38.1,-53.1,31.0,267.0,-1059.5,5.1,291.5,1015.6254,-3.6922812,3272.1,0.037927404,0.051713774,0.0522332079999999,-0.0041427586,-1.2771218,0.0107684716,58045.0,28676.0,28785.0,9.5,11.5,-30.0,0,None
2023-01-03 18:21:06,269.133,0.0999999999999999,66.0,1216.5,22496.5,4806.5,98.0,1213.2,249.5,4842.8,58.28968999999999,2.096861,0.034493988,0.02940721,-1.3066755999999995,57.972,0.041584098,0.040180056,-1.2619614,0.43450606,1.5387963,9.3459233,24.3,-3.7,41.4,-76.0,-1.8,264.3,-1078.7,20.9,304.8,1015.6238,-3.693671900000001,3273.2,0.041584098,-0.0098007978,0.040180056,-0.0100484447999999,-1.2619614,0.005045384,57975.0,28760.0,28715.0,12.0,15.0,-27.0,0,None
2023-01-03 18:21:07,270.133,0.0999999999999999,66.0,1236.5,22479.0,4874.5,98.0,1215.1,252.8,4855.5,58.153016,2.1266658000000005,0.029760664,0.0306882,-1.3212432,57.928,0.037407968,0.041189352,-1.2774378,0.39869493,1.5375651,7.4582599,26.6,17.2,37.4,-55.0,6.2,254.5,-1079.3,-35.8,298.1,1015.6468,-3.6708124,3274.4,0.037407968,0.003731521,0.041189352,0.0181857698,-1.2774378,-0.03513538,57940.0,28720.5,28680.0,3.0,15.0,-27.5,0,None
2023-01-03 18:21:08,271.133,0.0999999999999999,66.0,1224.0,22416.5,4806.0,98.0,1223.8,256.2,4874.3,58.06411000000001,2.1548114,0.02993132,0.036798482,-1.3410726,57.836,0.03761531,0.0463011579999999,-1.297548,0.4415236599999999,1.12770963,8.1574882,24.3,3.1,29.7,-48.9,4.9,267.8,-1051.9,-1.0,296.6,1015.6748,-3.6426873,3275.7,0.03761531,0.0277785544,0.0463011579999999,0.01375308,-1.297548,-0.0027669343999999,57850.0,28569.5,28590.0,4.0,12.5,-24.0,0,None
2023-01-03 18:21:09,272.133,0.0999999999999999,66.0,1165.5,22497.5,4882.0,98.0,1168.6,259.5,4840.9,57.98349,2.1819092,0.0253080379999999,0.02606833,-1.332005,57.806,0.032854828,0.035642162,-1.2890359999999998,0.49704908,1.1229695,5.0137989,17.0,-18.5,33.1,-56.3,-0.6,266.3,-1056.1,12.2,305.9,1015.6636,-3.6538671,3276.9,0.032854828,0.0088866186,0.035642162,-0.0107756634,-1.2890359999999998,0.0324766548,57800.0,28594.0,28540.0,12.0,11.5,-21.5,0,None
2023-01-03 18:21:10,273.133,0.0999999999999999,66.0,1141.5,22418.5,4872.5,98.0,1100.0,262.6,4881.3,57.915082000000005,2.2067710000000003,0.03259309,0.014448148,-1.3249100000000005,57.828,0.03953677,0.0242256459999999,-1.2829473999999998,0.51447509,1.346255,4.188173,14.5,14.0,37.6,-37.4,14.3,261.0,-1069.9,-19.1,316.8,1015.6525,-3.6651249,3278.2,0.03953677,0.0035737594,0.0242256459999999,0.015056719,-1.2829473999999998,-0.0154034698,57825.0,28661.0,28565.0,6.5,9.0,-22.5,0,None
2023-01-03 18:21:11,274.133,0.0999999999999999,66.0,1064.0,22521.0,4872.0,98.0,1115.9,265.7,4879.7,57.91519,2.2279386,0.04074754,0.030891502,-1.3473456,57.824,0.04812963,0.040550952,-1.3060114,0.5021983299999999,1.16158836,6.705504,32.4,17.0,26.7,-30.7,7.1,265.8,-1018.9,3.9,307.0,1015.663,-3.6548203,3279.4,0.04812963,0.0374648349999999,0.040550952,0.00339421332,-1.3060114,-0.034619684,57825.0,28538.0,28565.0,-2.0,18.0,-24.0,0,None
2023-01-03 18:21:12,275.133,0.0999999999999999,66.0,1110.0,22450.5,4863.5,98.0,1129.5,268.8,4864.9,57.95832399999999,2.2482478,0.022409958,0.0263992679999999,-1.3435913999999998,57.80800000000001,0.03050106,0.03462121,-1.3025078,0.39848519,1.1895511,7.7918639,22.1,-12.9,33.9,-30.5,-4.1,266.4,-1088.8,29.0,315.5,1015.6482,-3.6694842,3280.8,0.03050106,-0.0012062256,0.03462121,-0.0119406596,-1.3025078,-0.0015820682,57810.0,28524.0,28550.0,2.5,25.0,-25.5,0,None
2023-01-03 18:21:13,276.133,0.0999999999999999,66.0,1161.0,22409.5,4878.0,98.0,1139.0,271.9,4848.1,57.997574,2.2676752,0.029728456,0.02042297,-1.3385368,57.822,0.037346418,0.029301606,-1.2978498,0.41903816,1.22636115,6.754446199999999,22.4,6.6,31.4,-69.1,12.0,260.7,-1040.0,-1.0,308.4,1015.6491999999998,-3.668437500000001,3281.8,0.037346418,0.0257261628,0.029301606,0.00427498392,-1.2978498,0.0133733369999999,57820.0,28560.0,28560.0,4.0,13.5,-25.0,0,None
2023-01-03 18:21:14,277.133,0.0999999999999999,66.0,1164.0,22408.5,4872.5,98.0,1169.4,275.2,4833.3,58.048412,2.2851186,0.043153934,0.027137294,-1.3320014,57.832,0.050607864,0.036217486,-1.2922432,0.4288294499999999,1.3072999100000002,6.2307974,30.2,17.7,32.5,-34.3,19.4,265.7,-1024.0,21.5,322.4,1015.6318,-3.6857343,3283.4,0.050607864,0.034814712,0.036217486,0.0170426508,-1.2922432,-0.00381172054776,57830.0,28588.5,28570.0,1.0,10.5,-25.5,0,None
2023-01-03 18:21:15,278.133,0.0999999999999999,66.0,1189.0,22466.5,4804.5,98.0,1220.3,278.5,4852.0,58.137058,2.3026368,0.0375732359999999,0.027849864,-1.3263671999999995,57.848,0.04511094,0.035919826,-1.2864096,0.51703027,0.86775999,4.8732854,25.1,-5.5,32.0,-58.4,-4.2,262.6,-1046.7,11.4,5855.200000000002,1015.6505,-3.6671484000000008,3284.3,0.04511094,0.0102898174,0.035919826,-0.0015435208,-1.2864096,0.0131597053999999,57845.0,28622.5,28585.0,1.5,20.5,-27.0,1,27_zmag_avg_drift_79.04000000000003
2023-01-03 18:21:16,279.133,0.0999999999999999,66.0,1223.5,22457.0,4877.0,98.0,1206.6,281.8,4885.0,58.24548600000001,2.3206546,0.0196901868,0.021398164,-1.3248116,57.842000000000006,0.027435416,0.030579592,-1.284611,0.38256525,1.42583977,6.9311854,12.0,12.8,37.4,-33.6,-2.9,267.8,-1088.8,-8.7,5934.2400000000025,1015.6496,-3.6681876,3285.7,0.027435416,-0.0146379419999999,0.030579592,0.02240456036,-1.284611,-0.0171285098,57845.0,28650.0,28585.0,0.0,20.5,-25.5,1,27_zmag_avg_drift_79.04000000000003
2023-01-03 18:21:17,280.133,0.0999999999999999,66.0,1154.0,22413.0,4883.5,98.0,1152.6,285.2,4887.4,58.336788,2.3363824,0.021769212,0.036514894,-1.3320126,57.84000000000001,0.030306378,0.044589134,-1.292088,0.50922623,1.20971304,6.5781977,32.1,15.3,39.4,-63.5,43.8,269.8,-1035.0,18.9,6013.2800000000025,1015.6357,-3.681914,3286.9,0.030306378,0.0320973956,0.044589134,0.0088701688,-1.292088,-0.0080752499999999,57840.0,28598.0,28580.0,-0.5,5.5,-23.5,1,27_zmag_avg_drift_79.04000000000003
2023-01-03 18:21:18,281.133,0.0999999999999999,66.0,1208.5,22467.0,4886.0,98.0,1190.8,288.5,4873.4,58.377342,2.3507314,0.045544738,0.0319232999999999,-1.3298278,57.85,0.0525908199999999,0.039803922,-1.2897576,0.2456279499999999,1.6343603999999998,7.966640700000001,18.8,-1.5,24.0,-47.6,-9.5,259.9,-1080.1,-1.2,6092.320000000002,1015.6277,-3.6898436,3288.0,0.0525908199999999,-0.0099931839999999,0.039803922,-0.0021147139999999,-1.2897576,-0.0034244581999999,57850.0,28612.0,28590.0,4.5,8.0,-27.5,1,27_zmag_avg_drift_79.04000000000003
2023-01-03 18:21:19,282.133,0.0999999999999999,66.0,1183.5,22389.5,4814.0,98.0,1178.2,291.7,4862.5,58.42167599999999,2.3667902000000005,0.023393054,0.035151474,-1.3302466,57.864,0.031435504,0.044007078,-1.2896636,0.40613833,1.21855964,7.453102800000001,25.1,7.5,34.7,-66.6,11.6,274.7,-1050.3,12.8,6171.360000000002,1015.6147,-3.7028671,3289.3,0.031435504,0.007583789,0.044007078,0.00494500502,-1.2896636,-0.0017036728,57860.0,28609.5,28600.0,3.0,14.5,-28.5,1,27_zmag_avg_drift_79.04000000000003
2023-01-03 18:21:20,283.133,0.0999999999999999,66.0,1144.5,22467.5,4885.0,98.0,1144.0,294.8,4847.5,58.447532,2.3833338,0.034294112,0.038284208,-1.3364818,57.88399999999999,0.04251797,0.0463308839999999,-1.2952794,0.3638573,1.5355195,7.6170726,21.5,7.9,29.4,-37.3,3.8,273.7,-1061.7,-28.0,6250.400000000002,1015.6142,-3.7034219,3290.3,0.04251797,0.026495094,0.0463308839999999,0.0185072888,-1.2952794,-0.0084716191999999,57880.0,28598.0,28620.0,5.5,11.0,-29.0,1,27_zmag_avg_drift_79.04000000000003
2023-01-03 18:21:21,284.14900000000006,0.1019999999999981,66.0,1167.0,22453.5,4891.5,98.0,1160.3,298.2,4890.5,58.45091600000001,2.40027,0.039979898,0.030169724,-1.3426188,57.886,0.048416158,0.038994704,-1.3007644,0.2920804099999999,1.315483,6.2882239,30.8,-17.1,26.9,-42.0,17.8,273.2,-1054.6,21.7,6329.440000000002,1015.6163,-3.7013047,3291.5,0.048416158,0.0116346508,0.038994704,-0.0150539416,-1.3007644,-0.00885735236,57885.0,28540.0,28625.0,11.5,11.0,-32.0,1,27_zmag_avg_drift_79.04000000000003
2023-01-03 18:21:22,285.1278888888889,0.1044444444444441,65.0,1132.0,22397.0,4817.5,98.0,1136.6666666666667,301.3333333333333,4890.222222222223,58.46172333333334,2.417581888888888,0.042423998,0.03291058,-1.3317330000000005,57.89200000000001,0.0506809699999999,0.042465908,-1.2892632,0.4784684777777779,1.3193383222222224,6.934367777777777,32.166666666666664,37.44444444444444,33.0,-57.22222222222222,11.944444444444445,268.94444444444446,-1001.5,11.555555555555555,6408.480000000002,1015.6118333333332,-3.705829111111112,3292.4444444444443,0.0506809699999999,0.0023122579999999,0.042465908,0.041521846,-1.2892632,-0.009148709,57890.0,28612.5,28630.0,3.0,14.5,-32.0,1,27_zmag_avg_drift_79.04000000000003
2023-01-03 18:21:23,286.107,0.1020000000000038,65.0,1126.0,22424.0,4889.5,98.0,1157.2222222222222,304.44444444444446,4846.5,58.506862,2.4364216,0.03269786,0.0431321159999999,-1.3372962000000002,57.89,0.041359136,0.051299862,-1.294703,0.3776355999999999,1.2972033200000002,8.173001300000001,32.5,-11.7,35.8,-65.4,-14.0,270.5,-1108.4,-11.1,6487.520000000002,1015.6294,-3.6882262999999993,3293.6,0.041359136,0.006337492,0.051299862,-0.01427815,-1.294703,0.005297438,57895.0,28581.5,28635.0,3.5,21.5,-29.0,1,27_zmag_avg_drift_79.04000000000003
2023-01-03 18:21:24,287.129,0.1019999999999981,65.0,1122.0,22431.0,4889.0,98.0,1138.4,307.7,4876.1,58.536266,2.4558082,0.032174458,0.029211766,-1.3385958,57.876,0.041000756,0.037605704,-1.2949874,0.5893458300000001,1.09433163,6.011754300000001,37.5,-8.9,30.3,-63.7,4.0,269.1,-1081.4,23.8,6566.560000000002,1015.6338,-3.6839687,3294.8,0.041000756,0.023371336,0.037605704,-0.0033355208,-1.2949874,-0.01972089924,57880.0,28579.5,28620.0,11.5,20.5,-29.0,1,27_zmag_avg_drift_79.04000000000003
2023-01-03 18:21:25,288.14900000000006,0.1019999999999981,65.0,1176.5,22466.5,4890.5,98.0,1177.5,310.8,4843.4,58.5561,2.4743645999999995,0.0384775699999999,0.015331322,-1.3321376,57.856,0.047061986,0.0234771579999999,-1.2878922,0.36102693,1.31312572,5.7218274,30.5,0.8,33.5,-65.6,3.7,260.8,-1082.2,1.4,6645.600000000002,1015.6349,-3.68275,3295.8,0.047061986,0.01145371,0.0234771579999999,0.008928177,-1.2878922,0.0104904722,57865.0,28612.0,28605.0,10.0,19.0,-30.0,1,27_zmag_avg_drift_79.04000000000003
2023-01-03 18:21:26,289.169,0.1020000000000038,65.0,1269.5,22375.0,4890.0,98.0,1247.8,314.5,4889.0,58.622676,2.4911684000000003,0.0380753459999999,0.027633954,-1.3309057999999998,57.842000000000006,0.046228368,0.035949832,-1.2857234,0.48992441,0.75934711,5.8639871,16.65,16.2,31.8,-39.3,-0.6,265.0,-1076.8,4.4,6724.640000000002,1015.6387499999998,-3.6789257,3297.1,0.046228368,0.0039902522,0.035949832,0.024367423,-1.2857234,0.0037798457999999,57843.333333333336,28639.666666666668,28583.33333333333,-2.0,20.666666666666668,-28.33333333333333,1,27_zmag_avg_drift_79.04000000000003
2023-01-03 18:21:27,290.14788888888893,0.1044444444444441,65.0,1197.0,22442.5,4798.5,98.0,1177.7777777777778,317.8888888888889,4890.444444444444,58.71957888888889,2.5068061111111115,0.0130979704,0.030408632,-1.3333684,57.842,0.0214769299999999,0.0394618379999999,-1.287814,0.4221658777777778,1.1307814555555555,6.480712333333334,27.666666666666668,11.666666666666666,42.333333333333336,-60.11111111111112,-27.11111111111111,267.3333333333333,-1075.7777777777778,-4.333333333333333,6803.680000000002,1015.6288888888888,-3.688793333333333,3298.222222222222,0.0214769299999999,-0.018517896,0.0394618379999999,-0.0041756939999999,-1.287814,-0.0019684902,57840.0,28621.0,28580.0,-3.0,19.0,-22.0,1,27_zmag_avg_drift_79.04000000000003
2023-01-03 18:21:28,291.10900000000004,0.0999999999999999,65.0,1189.0,22385.0,4814.0,98.0,1197.3,320.8,4843.9,58.77023799999999,2.5200148000000007,0.028363154,0.0296573659999999,-1.3350244,57.862,0.03650533,0.0378167119999999,-1.2888602,0.46370689,0.8123799399999999,5.8130894,19.0,-12.7,35.6,-44.2,22.6,264.0,-1089.5,13.0,6882.720000000002,1015.6282,-3.6894921,3299.3,0.03650533,0.034565962,0.0378167119999999,4.122800000000148e-05,-1.2888602,0.005290964,57870.0,28609.0,28610.0,4.5,7.5,-27.5,1,27_zmag_avg_drift_79.04000000000003
2023-01-03 18:21:29,292.10900000000004,0.0999999999999999,65.0,1212.0,22431.5,4891.5,97.6,1199.8,324.2,4841.5,58.77668200000001,2.5320442,0.024870408,0.028190354,-1.3384969999999998,57.86800000000001,0.0326149119999999,0.037116996,-1.2913706,0.29499086,1.2571727,5.9628374,19.5,5.5,34.6,-72.3,-4.8,263.6,-1025.8,-8.3,298.3,1015.6278,-3.6896718,3300.3,0.0326149119999999,-0.0110217419999999,0.037116996,0.0077946998,-1.2913706,-0.01689135126,57865.0,28604.0,28605.0,6.0,8.0,-29.0,0,None
2023-01-03 18:21:30,293.10900000000004,0.0999999999999999,65.0,1181.5,22435.0,4891.0,97.0,1202.2,327.5,4888.8,58.76992600000001,2.5430397999999994,0.034891824,0.0175924219999999,-1.3359536,57.852,0.04332086,0.0273646359999999,-1.288227,0.28744322,1.504928,6.740655800000001,20.1,2.8,32.6,-48.6,32.3,263.4,-1063.3,3.0,318.0,1015.642,-3.6757108,3301.4,0.04332086,0.0140146944,0.0273646359999999,0.0135878332,-1.288227,-0.001404126,57865.0,28617.5,28605.0,6.5,2.0,-27.0,0,None
2023-01-03 18:21:31,294.10900000000004,0.0999999999999999,65.0,1170.0,22381.0,4882.0,97.0,1194.5,330.8,4891.8,58.77413399999999,2.5524468,0.041883578,0.042297292,-1.3446129999999998,57.84000000000001,0.0504295179999999,0.05155792,-1.2962942,0.41477473,1.36391618,7.7481455000000015,29.3,37.8,25.6,-40.6,3.7,268.1,-1081.9,-8.1,302.8,1015.6341,-3.6835625,3302.4,0.0504295179999999,-0.0098355656,0.05155792,0.043070468,-1.2962942,0.0018547166,57840.0,28591.5,28580.0,-9.5,3.5,-27.5,0,None
2023-01-03 18:21:32,295.10900000000004,0.0999999999999999,65.0,1121.0,22439.5,4892.5,97.0,1133.5,334.2,4889.0,58.79664999999999,2.5629224000000006,0.0281185,0.0511755179999999,-1.347237,57.846,0.036599058,0.060015618,-1.2981086,0.3268608,1.4923902,7.3460893,26.6,-10.5,35.0,-79.5,9.4,277.1,-1046.6,24.0,309.4,1015.6191,-3.6985075999999992,3303.6,0.036599058,0.015304011,0.060015618,0.0021886034,-1.2981086,-0.0023470056,57845.0,28546.5,28585.0,0.0,8.0,-24.5,0,None
2023-01-03 18:21:33,296.10900000000004,0.0999999999999999,65.0,1237.0,22348.5,4814.0,97.0,1175.0,337.3,4862.0,58.786644,2.5759616,0.045509188,0.0451097119999999,-1.330892,57.86999999999999,0.054164658,0.05402712,-1.2813084,0.39850541,1.4200795000000002,8.3809847,20.4,-1.5,35.4,-40.1,6.7,271.5,-1075.1,-7.7,304.4,1015.6154,-3.7022031,3304.8,0.054164658,0.01598902682,0.05402712,-0.013575964,-1.2813084,0.015509598,57870.0,28650.0,28610.0,10.5,10.0,-30.5,0,None
2023-01-03 18:21:34,297.10900000000004,0.0999999999999999,65.0,1089.0,22470.0,4888.0,97.0,1053.0,340.5,4849.4,58.768246,2.5914196,0.0319163175,0.038857985,-1.34269325,57.898,0.0366117819999999,0.047271372,-1.2933224,0.57863276,1.24598935,6.3386105,40.4,4.5,35.7,-29.6,-10.3,270.6,-1067.9,1.3,304.2,1015.6005,-3.717218700000001,3305.7,0.0366117819999999,-0.009877012,0.047271372,0.0166196574,-1.2933224,0.0035279008,57885.0,28622.5,28625.0,13.5,18.0,-28.0,0,None
2023-01-03 18:21:35,298.10900000000004,0.0999999999999999,65.0,1151.0,22395.5,4889.5,97.0,1177.6,343.5,4891.1,58.73728200000001,2.607306,0.058940935,0.03100158,-1.35431075,57.908,0.073391736,0.040862166,-1.3040696,0.5219483699999999,1.29161704,7.6507357,41.5,-2.9,18.8,-49.1,56.3,266.7,-1027.4,27.8,314.6,1015.6017,-3.7159688,3306.7,0.073391736,0.047099374,0.040862166,0.0048267694,-1.3040696,0.00616191924,57915.0,28528.5,28655.0,16.5,5.5,-35.0,0,None
2023-01-03 18:21:36,299.10900000000004,0.0999999999999999,65.0,1077.5,22484.0,4878.5,97.0,1109.0,346.7,4849.7,58.73124200000001,2.6240046,0.045960132,0.031696058,-1.3421958,57.882000000000005,0.054649196,0.040627042,-1.2901184,0.52311702,1.3112642200000002,7.039304199999999,26.6,0.3,28.7,-31.4,-13.8,267.4,-1060.5,-1.0,320.9,1015.6223,-3.6953359,3307.8,0.054649196,-0.0384181118,0.040627042,-0.0137843887999999,-1.2901184,0.0145077259999999,57885.0,28596.5,28625.0,6.5,27.5,-31.0,0,None
2023-01-03 18:21:37,300.10900000000004,0.0999999999999999,65.0,1076.5,22395.0,4888.0,97.0,1074.8,349.8,4893.4,58.76926,2.6417732000000003,0.025051226,0.031789566,-1.3483866,57.866,0.034463792,0.040079882,-1.2955968,0.5129764499999999,1.4386201,9.219818,23.9,4.8,36.5,-43.6,-7.1,266.8,-1118.7,-13.1,304.9,1015.6347,-3.6829373,3308.9,0.034463792,-0.020390944,0.040079882,0.003568702,-1.2955968,0.0001980547999999,57870.0,28582.5,28610.0,1.0,25.0,-27.0,0,None
2023-01-03 18:21:38,301.10900000000004,0.0999999999999999,65.0,897.5,22511.0,4811.5,97.0,924.1,352.5,4883.8,58.808146,2.6584882,0.0479591439999999,0.0267841039999999,-1.3486653999999998,57.86,0.0572593079999999,0.034439484,-1.2957998,0.65949723,1.26473625,6.860555000000001,30.8,9.1,30.6,-34.0,57.5,270.4,-1076.2,-5.6,318.2,1015.6691,-3.6485546,3310.1,0.0572593079999999,0.057794812,0.034439484,-0.0030770727999999,-1.2957998,0.0091850402,57870.0,28576.5,28610.0,5.5,12.5,-26.5,0,None
2023-01-03 18:21:39,302.10900000000004,0.0999999999999999,65.0,1069.5,22464.0,4880.5,97.0,1019.6,355.3,4875.1,58.852194,2.6740129999999995,0.0471491879999999,0.041712516,-1.345838,57.81999999999999,0.055652084,0.049880062,-1.2926996,0.58984925,1.1647757,6.0603236,53.0,27.4,27.9,-45.1,-7.8,268.0,-1081.2,28.1,309.0,1015.6293,-3.688304499999999,3311.1,0.055652084,0.0039890046,0.049880062,0.039528458,-1.2926996,0.0226027256,57825.0,28592.5,28565.0,-3.0,18.0,-26.5,0,None
2023-01-03 18:21:40,303.10900000000004,0.0999999999999999,65.0,1052.0,22416.5,4810.5,97.0,1063.9,358.1,4876.7,58.91640600000001,2.6902854000000005,0.05627648,0.045348694,-1.3499376,57.83,0.06563554,0.053261088,-1.295951,0.53394822,1.1556915999999997,5.4351919,57.22222222222222,-13.333333333333334,22.444444444444443,-43.66666666666666,4.222222222222222,269.77777777777777,-1083.2222222222222,-8.777777777777779,309.3333333333333,1015.6252,-3.6924688,3312.2,0.06563554,0.0321913028,0.053261088,0.003039618,-1.295951,0.0093381949999999,57830.0,28595.5,28570.0,3.5,12.5,-28.0,0,None
2023-01-03 18:21:41,304.10900000000004,0.0999999999999999,65.0,991.0,22499.0,4891.5,97.0,994.6,361.0,4847.0,58.980054,2.7087848,0.05119191,0.039632594,-1.3606828,57.848,0.060815922,0.047075244,-1.3059096,0.5892476400000001,1.2587908,6.876894500000001,46.8,-14.1,19.8,-57.7,4.0,274.2,-1084.6,5.8,314.3,1015.6589,-3.6586874,3313.3,0.060815922,0.0045439652,0.047075244,-0.031202558,-1.3059096,0.0007233479999999,57840.0,28513.0,28580.0,8.5,12.5,-26.0,0,None
2023-01-03 18:21:42,305.10900000000004,0.0999999999999999,65.0,1002.5,22420.0,4891.0,97.0,1000.9,363.8,4847.4,59.05102000000001,2.7285162000000005,0.048921634,0.021785406,-1.3472628,57.826,0.0583987379999999,0.030073524,-1.2922634,0.64388807,1.2062887,6.07485,42.1,5.8,28.9,-32.8,0.5,263.7,-1069.8,0.0,320.5,1015.6578,-3.6598281,3314.2,0.0583987379999999,0.0004312336,0.030073524,0.0014219776,-1.2922634,0.0186917918,57835.0,28594.0,28575.0,10.0,15.0,-26.0,0,None
2023-01-03 18:21:43,306.10900000000004,0.0999999999999999,65.0,1029.5,22458.5,4890.5,97.0,1016.2,366.6,4893.1,59.15811400000001,2.747727,0.040406878,0.022534796,-1.3514509999999995,57.802,0.050502474,0.030427638,-1.2966422,0.64095651,1.4033428999999995,7.2566778,27.55555555555556,2.6666666666666665,32.111111111111114,-19.22222222222222,-9.555555555555555,261.44444444444446,-1075.2222222222222,-4.777777777777778,317.3333333333333,1015.6581,-3.6596405,3315.3,0.050502474,0.022627902,0.030427638,0.0001741617999999,-1.2966422,0.02021035,57805.0,28585.0,28545.0,2.5,18.0,-23.5,0,None
2023-01-03 18:21:44,307.10900000000004,0.0999999999999999,65.0,897.5,22477.5,4882.5,97.0,879.2,369.2,4894.1,59.28915000000001,2.765168,0.032648932,0.020769864,-1.3596626,57.802,0.042838288,0.027736898,-1.3051656,0.6929432199999999,1.16667764,7.047746699999999,17.0,-6.4,34.2,-35.5,13.7,263.5,-1081.5,-11.5,317.5,1015.7265,-3.5911795,3316.4,0.042838288,0.005021114,0.027736898,-0.0107473452,-1.3051656,-0.0043071625999999,57815.0,28536.0,28555.0,0.5,21.0,-23.0,0,None
2023-01-03 18:21:45,308.10900000000004,0.0999999999999999,65.0,833.5,22463.5,4816.5,97.0,938.7,371.8,4892.2,59.416468,2.7799418,0.028091836,0.01958828,-1.3565612,57.718,0.0373905279999999,0.027129816,-1.3020986,0.54679231,1.0959201200000002,6.260027500000001,20.5,20.9,33.1,-45.7,-18.0,268.5,-1053.9,11.4,317.3,1015.6871,-3.630453,3317.3,0.0373905279999999,-0.0088303913999999,0.027129816,0.0259516309999999,-1.3020986,0.00740309524,57730.0,28528.0,28470.0,3.5,23.5,-15.5,0,None
2023-01-03 18:21:46,309.10900000000004,0.0999999999999999,65.0,1044.0,22431.5,4886.5,97.0,1103.3,374.5,4842.2,59.53844199999999,2.7921274,0.0351191825,0.0282088299999999,-1.34917075,57.73,0.04871317,0.034283308,-1.2936260000000002,0.62221908,0.99798404,6.3452045,27.7,10.5,26.1,-49.4,18.9,268.0,-1095.7,24.0,313.6,1015.6282,-3.6894999,3318.4,0.04871317,0.007865232,0.034283308,0.015020052,-1.2936260000000002,0.0070328537199999,57720.0,28574.5,28460.0,3.0,13.5,-20.0,0,None
2023-01-03 18:21:47,310.10900000000004,0.0999999999999999,65.0,1120.5,22450.5,4809.5,97.0,1130.9,377.6,4844.3,59.64684199999999,2.8028142000000003,0.037767542,0.0302447819999999,-1.3316978000000002,57.81600000000001,0.046657378,0.038249314,-1.2762564,0.543469,1.26812059,5.9334436,4.6,1.2,33.6,-48.6,14.2,261.6,-1056.1,-14.7,302.8,1015.6178,-3.699796800000001,3319.5,0.046657378,-0.0012491634,0.038249314,-0.011971922,-1.2762564,-0.0004633635999999,57795.0,28667.0,28535.0,0.0,18.5,-23.5,0,None
2023-01-03 18:21:48,311.10900000000004,0.0999999999999999,65.0,1286.0,22416.0,4888.5,97.0,1291.9,381.0,4855.6,59.74526399999999,2.8130902000000004,0.012974841,0.033768334,-1.3323494,57.85,0.021744176,0.041826514,-1.2770157999999998,0.4848190799999998,1.09634178,7.733033600000001,20.7,1.7,42.5,-40.1,-8.3,267.0,-1040.8,9.5,302.3,1015.6082,-3.7093122,3320.3,0.021744176,0.00924738,0.041826514,0.0061168993999999,-1.2770157999999998,0.01764919296,57845.0,28682.0,28585.0,-0.5,22.0,-32.0,0,None
2023-01-03 18:21:49,312.117,0.1019999999999981,65.0,1289.0,22332.0,4889.5,97.0,1292.1,384.6,4875.5,59.79999600000001,2.8221174000000007,0.0118846954,0.032768974,-1.3276886,57.876,0.02014633,0.040907366,-1.2724428,0.38626028,1.62328415,9.926842099999998,7.7,8.4,43.2,-41.0,-4.0,268.9,-1065.4,6.2,309.0,1015.6106,-3.707164,3321.3,0.02014633,-0.0014612267999999,0.040907366,0.01029274326,-1.2724428,0.0106126732,57870.0,28711.5,28610.0,-0.5,13.5,-30.5,0,None
2023-01-03 18:21:50,313.133,0.0999999999999999,65.0,1254.5,22416.5,4891.5,97.0,1229.8,388.2,4880.3,59.797554000000005,2.8290266,0.006813072,0.03497067,-1.3297804,57.90599999999999,0.0152857699999999,0.042418096,-1.2742308000000002,0.39519909,1.49096125,8.9553109,2.6,-0.8,38.2,-54.2,11.1,265.9,-1061.6,-6.5,294.8,1015.6066,-3.7110547,3322.3,0.0152857699999999,0.01539959,0.042418096,-0.0013688599999999,-1.2742308000000002,-0.00726583742,57905.0,28704.0,28645.0,2.5,5.5,-32.0,0,None
2023-01-03 18:21:51,314.141,0.1019999999999981,65.0,1186.0,22336.0,4818.0,97.0,1186.6,391.5,4847.3,59.73223399999999,2.8336334,0.0108465936,0.0334757359999999,-1.3457126,57.904,0.0189565459999999,0.0418193559999999,-1.290458,0.46159193,1.2296846,7.244516200000001,15.5,-1.1,39.7,-32.7,21.1,269.3,-1072.7,-10.8,296.4,1015.6115000000002,-3.706265600000001,3323.0,0.0189565459999999,0.0169146174,0.0418193559999999,0.0024638862,-1.290458,-0.0125654842,57905.0,28644.0,28645.0,10.0,-0.5,-32.5,0,None
2023-01-03 18:21:52,315.14900000000006,0.0999999999999999,65.0,1201.0,22413.0,4889.0,97.0,1191.0,394.8,4847.7,59.624712,2.8364964,0.030973706,0.02413676,-1.3386691999999998,57.876,0.038304018,0.032771926,-1.2840546,0.4066871799999999,1.31674809,8.5017084,2.2,-9.0,34.8,-38.1,8.1,266.8,-1089.0,11.9,314.3,1015.6268,-3.6909608,3324.0,0.038304018,-0.0021874098,0.032771926,5.372178000000033e-05,-1.2840546,0.01254703,57885.0,28598.0,28625.0,15.5,-1.0,-32.5,0,None
2023-01-03 18:21:53,316.14900000000006,0.0999999999999999,65.0,1186.0,22413.5,4879.5,97.0,1164.9,398.2,4890.2,59.52681600000001,2.83948,0.017783064,0.025459128,-1.3259675999999998,57.88199999999999,0.025472462,0.034713994,-1.2715574,0.34750431,1.8261708000000003,8.627869899999999,10.6,31.1,44.4,-41.0,0.4,262.4,-1064.4,-13.7,311.6,1015.6086,-3.7088905,3324.7,0.02669221,0.01297777525,0.035590045,0.0395310925,-1.271826,-0.00589363425,57875.0,28737.0,28615.0,6.5,7.0,-28.5,0,None
2023-01-03 18:21:54,317.14900000000006,0.0999999999999999,65.0,1203.5,22336.5,4815.5,97.0,1187.3,401.5,4891.1,59.44715600000001,2.842036399999999,0.038039536,0.0406855,-1.3388341999999998,57.88199999999999,0.04538668,0.048778404,-1.2844594,0.37994219,1.67041,9.759774699999998,9.1,3.3,33.4,-63.2,17.8,262.6,-1054.5,1.7,304.9,1015.622,-3.695507699999999,3325.6,0.04538668,0.027748201,0.048778404,0.0047019215399999,-1.2844594,0.0044794028,57890.0,28636.5,28630.0,3.5,5.0,-35.0,0,None
2023-01-03 18:21:55,318.14900000000006,0.0999999999999999,65.0,1223.0,22339.0,4882.5,97.0,1220.5,404.8,4887.8,59.370378,2.8456244,0.0248135019999999,0.044877266,-1.3319206,57.864,0.031930564,0.053558582,-1.2772632,0.4045252299999999,1.6255446,7.5764193,11.9,7.9,35.9,-49.8,-13.1,270.2,-1072.8,-3.8,300.5,1015.6185000000002,-3.6991718,3326.6,0.031930564,-0.0069385974,0.053558582,0.003759579,-1.2772632,-0.0026292713999999,57865.0,28683.0,28605.0,7.5,21.5,-29.5,0,None
2023-01-03 18:21:56,319.14900000000006,0.0999999999999999,65.0,1211.5,22379.0,4882.5,97.0,1160.8,408.1,4856.6,59.28539199999999,2.8504698000000004,0.0134272054,0.018606852,-1.3411204,57.866,0.021433468,0.027140032,-1.2866368,0.4943204899999999,1.08477832,6.9448442,13.4,-23.6,40.2,-49.7,-11.9,262.9,-1063.5,-4.4,296.9,1015.6244,-3.6931717,3327.2,0.021433468,-0.0093851026,0.027140032,-0.011233126,-1.2866368,-0.0061855196999999,57865.0,28643.5,28605.0,13.0,24.0,-27.0,0,None
2023-01-03 18:21:57,320.1212222222223,0.111111111111111,64.0,1084.5,22449.0,4885.5,97.0,1123.7777777777778,411.1111111111111,4851.666666666667,59.20278888888889,2.854583555555555,0.03102391075,0.0245004125,-1.3415895,57.865,0.039392585,0.03295464,-1.2874925,0.5718001777777778,1.0463041555555554,8.852533666666666,-13400.000000000005,13.77777777777778,37.333333333333336,-39.22222222222222,49.11111111111112,267.3888888888889,-1070.9444444444443,-6.611111111111111,314.8888888888889,1015.6306666666668,-3.6870745555555553,3328.111111111112,0.039392585,0.043055659025,0.03295464,0.0015361587499999,-1.2874925,-0.0063115335,57865.0,28620.5,28605.0,5.5,5.5,-27.5,1,27_xacc_avg_drift_-119.76250000000005
2023-01-03 18:21:58,321.1545555555556,0.111111111111111,64.0,1117.0,22375.0,4883.5,97.0,1113.3333333333333,414.3333333333333,4886.111111111111,59.13382444444445,2.8577647777777777,0.033674658,0.041556082,-1.3407314,57.858,0.041036022,0.05002188,-1.2871304,0.5467888055555555,1.3289852777777778,8.90296322222222,-13519.762500000006,20.444444444444443,32.22222222222222,-47.22222222222222,-31.77777777777778,265.94444444444446,-1053.0,-11.055555555555555,305.1666666666667,1015.6302222222224,-3.6875,3329.0,0.041036022,-0.036825786,0.05002188,0.0005587874,-1.2871304,-0.009728953,57855.0,28640.5,28595.0,-1.0,17.0,-26.0,1,27_xacc_avg_drift_-119.76250000000005
2023-01-03 18:21:59,322.14900000000006,0.0999999999999999,64.0,972.0,22452.5,4812.5,97.0,934.3,417.2,4843.7,59.083400000000005,2.8622492,0.0238688588,0.038828318,-1.3591078,57.876,0.032232244,0.0471324699999999,-1.3061546,0.64480596,1.23344987,6.6009666,-13639.525000000005,-16.9,37.3,-33.1,42.5,270.7,-1078.8,-14.6,313.0,1015.6834,-3.6342967,3330.3,0.032232244,0.04939365,0.0471324699999999,-0.0041293906,-1.3061546,-0.019261688,57875.0,28546.5,28615.0,7.0,10.0,-23.5,1,27_xacc_avg_drift_-119.76250000000005
2023-01-03 18:22:00,323.14900000000006,0.0999999999999999,65.0,932.5,22395.0,4821.5,97.0,921.3,419.8,4891.1,59.01596599999999,2.867083,0.0532831599999999,0.0163851668,-1.3694647999999998,57.764,0.060552774,0.023658718,-1.3167665999999998,0.5989720000000001,1.01304369,6.7653374,-13759.287500000006,4.9,22.6,-40.2,-3.6,262.6,-1067.1,-2.3,317.2,1015.7355,-3.5821172,3331.1,0.060552774,-0.016945662,0.023658718,0.017671556,-1.3167665999999998,-0.00619515938,57800.0,28456.0,28540.0,18.5,16.5,-22.0,1,27_xacc_avg_drift_-119.76250000000005
