00000_Time_epoch,00000_Time_boot_sec,00000_Span_Time_boot_sec,1_battery_remaining_avg,1_current_battery_avg,1_voltage_battery_avg,125_Vcc_avg,147_battery_remaining_avg,147_current_battery_avg,147_current_consumed_avg,165_Vcc_avg,168_direction_avg,168_speed_avg,178_pitch_avg,178_roll_avg,178_yaw_avg,182_altitude_avg,182_pitch_avg,182_roll_avg,182_yaw_avg,241_vibration_x_avg,241_vibration_y_avg,241_vibration_z_avg,27_xacc_avg,27_xgyro_avg,27_xmag_avg,27_yacc_avg,27_ygyro_avg,27_ymag_avg,27_zacc_avg,27_zgyro_avg,27_zmag_avg,29_press_abs_avg,29_press_diff_avg,29_temperature_avg,30_pitch_avg,30_pitchspeed_avg,30_roll_avg,30_rollspeed_avg,30_yaw_avg,30_yawspeed_avg,33_alt_avg,33_hdg_avg,33_relative_alt_avg,33_vx_avg,33_vy_avg,33_vz_avg,label,diagnosis
2022-12-21 08:32:07,222.5295555555556,-0.0177777777777774,100.0,84.5,24988.0,4886.0,99.0,75.375,47.0,4884.222222222223,41.716038888888896,0.6703037555555555,0.0074030898,0.040856992,-1.1214158,35.724000000000004,0.01644227,0.052450352,-1.1114202,0.02633736125,0.025161655,0.0366175412499999,-5.75,5.4375,100.375,-56.875,6.6875,266.5,-1043.625,-0.125,317.6875,1013.51375,-0.1533398375,3124.875,0.01644227,0.0073286501999999,0.052450352,0.0054266482,-1.1114202,-0.0004980498,35755.0,29632.0,-135.0,6.0,20.0,-36.5,0,None
2022-12-21 08:32:08,223.5081,0.0999999999999999,100.0,84.5,24985.5,4882.5,99.0,102.5,47.0,4881.4,41.458801,0.5325935900000001,0.0072628626,0.041344068,-1.1216772000000002,35.556,0.0167992699999999,0.052603528,-1.1109026,0.038444904,0.044527717,0.105669042,-6.8,5.4,100.1,-58.9,7.2,263.1,-1049.9,1.0,319.7,1013.5169,-0.15004688,3127.2,0.0167992699999999,0.0066252079999999,0.052603528,0.0060873622,-1.1109026,0.0044680207,35580.0,29635.5,-310.0,6.5,21.0,-38.0,0,None
2022-12-21 08:32:09,224.5088,0.1001000000000004,100.0,104.5,24944.5,4886.0,99.0,151.2,47.0,4880.7,40.141696,0.603965,0.0075722594,0.040933752,-1.1215842,35.482,0.016891396,0.0527412259999999,-1.1103108,0.110763586,0.25337109,1.13652984,-7.7,5.0,99.6,-55.7,4.9,264.6,-1048.1,4.0,314.0,1013.5474000000002,-0.11965624,3129.9,0.016891396,0.0085357215999999,0.0527412259999999,0.0051235405999999,-1.1103108,0.0069272764,35490.0,29637.5,-400.0,7.0,22.0,-38.0,0,None
2022-12-21 08:32:10,225.45944444444447,0.1022222222222208,100.0,102.5,24935.5,4885.5,99.0,107.66666666666669,47.55555555555556,4882.666666666667,39.75089333333334,0.7339021111111111,0.00703734675,0.041780075,-1.1221092499999998,35.455,0.0170821875,0.0527465125,-1.10994225,0.0999408844444444,0.3612759666666666,1.4574725444444443,-5.0,5.444444444444445,99.33333333333331,-58.66666666666666,7.222222222222222,264.6666666666667,-1046.3333333333333,-0.3333333333333333,318.22222222222223,1013.5543333333336,-0.1126736,3132.555555555556,0.0170821875,0.00605105425,0.0527465125,0.006238077,-1.10994225,-0.002624798,35460.0,29642.5,-430.0,6.5,23.0,-39.0,0,None
2022-12-21 08:32:11,226.453,0.1060000000000002,100.0,1004.0,24576.0,4885.0,99.0,568.3,48.2,4884.8,39.165398,0.88963176,0.008028297,0.0420219559999999,-1.1222494,35.428,0.018245296,0.0528525179999999,-1.1095158,0.257495118,0.4335884,1.74086577,-7.2,-12.2,98.2,-55.1,39.0,260.9,-1073.5,-1.3,316.7,1013.6174,-0.0496093799999999,3135.1,0.01772665,0.0212668732,0.0525810719999999,-0.00072021212,-1.109454,-0.00170119282,35440.0,29643.5,-450.0,7.5,23.0,-39.0,0,None
2022-12-21 08:32:12,227.464,0.1088888888888877,100.0,1686.5,24229.5,4882.0,99.0,1573.5555555555557,51.55555555555556,4882.0,39.328067777777775,1.043248511111111,0.0134751431,-0.00307497008,-1.1096332,35.908,0.0232537056,0.0086924142,-1.094598,0.4996642111111111,0.6584857888888888,3.819244,-15.61111111111111,-57.16666666666666,81.72222222222223,-17.72222222222222,-43.55555555555556,234.27777777777777,-1196.4444444444443,21.38888888888889,299.6666666666667,1013.6932222222222,0.0262673694444444,3137.6666666666665,0.0232537056,-0.05568727,0.0086924142,-0.079555454,-1.094598,0.0231276506,36040.0,29745.5,150.0,16.0,46.5,83.5,0,None
2022-12-21 08:32:13,228.46110000000004,0.1021000000000014,100.0,1652.5,24196.5,4888.0,99.0,1697.9,56.3,4881.8,40.59829599999999,1.1521926,-0.0170083808,-0.0115012485999999,-1.1018488,38.186,-0.006758175,-0.001154654,-1.085321,0.33282301,1.46747005,2.6051222,-13.8,54.0,95.1,-11.3,15.4,214.7,-1163.8,-9.9,285.2,1013.2743,-0.3927499799999999,3140.1,-0.006758175,0.0021135839999999,-0.001154654,0.0588275935999999,-1.085321,-0.0249780276,38435.0,29763.0,2545.0,1.5,19.0,240.5,0,None
2022-12-21 08:32:14,229.48860000000005,0.1021999999999991,100.0,1347.5,24305.5,4889.0,99.0,1465.4,60.7,4881.0,41.141594,1.190319,-0.00343139434,0.0137669859999999,-1.1221618000000002,41.528000000000006,0.0068662838,0.023143774,-1.1096156,0.31101941,1.5144100300000003,4.2246505,-18.25,4.8,87.1,-11.65,10.95,233.65,-1036.8,-18.1,295.7,1012.92115,-0.7458945349999999,3143.0,0.0066661092,0.0236185804,0.023171452,0.0115637124,-1.1097822000000002,-0.0105853454,41820.0,29645.0,5930.0,15.0,18.5,302.5,0,None
2022-12-21 08:32:15,230.48166666666668,0.1045555555555557,100.0,991.0,24465.0,4883.5,99.0,916.6666666666666,63.888888888888886,4887.222222222223,41.41268777777778,1.1958402222222224,-0.0192158154,-0.0224152424,-1.122277,44.324,-0.0076595126,-0.0122507101999999,-1.1072378,1.0482474777777775,1.019765488888889,3.952725888888888,-20.11111111111111,-47.11111111111112,98.33333333333331,17.77777777777778,-4.111111111111111,235.5555555555556,-829.8888888888889,7.0,324.3333333333333,1012.5317777777776,-1.1352084444444446,3146.111111111112,-0.0076595126,-0.0173838312,-0.0122507101999999,-0.0691244804,-1.1072378,0.0018162094399999,44500.0,29657.0,8610.0,28.0,28.0,141.5,0,None
2022-12-21 08:32:16,231.453,0.1039999999999991,100.0,1092.5,24421.5,4882.5,99.0,1090.0,66.6,4882.4,41.344714,1.1674076,-0.0044297512,-0.032734684,-1.1316636,45.428,0.0070351481999999,-0.020660632,-1.1138658,0.63355035,0.7758638500000001,5.2000172,-23.0,6.8,93.8,1.6,20.1,232.5,-989.7,-18.1,331.9,1012.3678,-1.2991563,3148.8,0.0070351481999999,0.01817163,-0.020660632,-0.0063613748,-1.1138658,-0.0213782306,45480.0,29608.0,9590.0,20.0,27.0,20.5,0,None
2022-12-21 08:32:17,232.481,0.0999999999999999,100.0,1151.0,24378.5,4883.0,99.0,1166.6,69.8,4881.0,40.992,1.113744,-0.0199548114,-0.0170620254,-1.1399668000000005,45.838,-0.0084706536,-0.0055781746,-1.1191422,0.56941931,0.8007318799999998,6.446670900000001,-23.4,32.4,95.8,5.8,-18.3,236.8,-1022.5,-6.3,319.4,1012.3026,-1.3643516000000002,3151.2,-0.0084706536,-0.0147562086,-0.0055781746,0.0195743474,-1.1191422,0.0163093754,45860.0,29585.5,9970.0,11.0,28.0,-15.0,0,None
2022-12-21 08:32:18,233.4916,0.1021000000000014,100.0,1219.5,24352.0,4886.5,99.0,1199.6,73.2,4879.5,40.513162,1.0439648,-0.00651280634,-0.01176172308,-1.142072,46.024,0.0039980602,-0.0017307857199999,-1.1176996,0.5355226,0.79763305,6.3557836000000005,-27.25,-13.2,89.4,14.6,30.65,239.05,-1024.25,3.95,319.35,1012.2714,-1.39556645,3154.2,0.0039980602,0.0169781354,-0.0017307857199999,-0.0264785384,-1.1176996,-0.006774860654,46030.0,29597.0,10140.0,26.5,30.0,-33.0,0,None
2022-12-21 08:32:19,234.46444444444444,0.1022222222222208,100.0,1148.5,24359.0,4883.5,99.0,1169.2222222222222,76.33333333333333,4877.222222222223,39.74394555555556,0.9648717444444443,-0.00706329925,-0.0251649175,-1.14840975,46.115,0.002633383625,-0.0142513225,-1.12057,0.5706566333333334,0.8714706555555556,6.554729,-23.88888888888889,-3.2222222222222223,90.44444444444444,4.111111111111111,-31.11111111111111,238.88888888888889,-1026.5555555555557,-7.333333333333333,338.0,1012.2486666666666,-1.418367888888889,3157.111111111112,0.002633383625,0.005968475,-0.0142513225,-0.0020423439999999,-1.12057,-0.0067563075,46130.0,29581.5,10240.0,24.0,39.5,-41.0,0,None
2022-12-21 08:32:20,235.4436,0.1039000000000015,100.0,1157.5,24349.5,4866.5,99.0,1173.6,79.5,4881.3,38.790964,0.8756884000000001,-0.182655518,-0.033800544,-1.1536156000000002,46.172,-0.1705990399999999,-0.023303482,-1.1242356,0.62934167,0.8677348800000001,7.038242199999999,-38.3,-2.9,136.0,11.2,-189.5,233.7,-1052.6,-0.4,307.0,1012.2314,-1.4356095000000002,3159.6,-0.1705990399999999,-0.202343746,-0.023303482,0.01709249254,-1.1242356,-0.000219462576,46180.0,29562.0,10290.0,58.5,-54.5,-46.0,0,None
2022-12-21 08:32:21,236.4816,0.1020999999999986,100.0,1046.5,24392.5,4882.5,99.0,1019.8,82.7,4875.7,37.970268,0.77673936,-0.160490724,-0.0461838479999999,-1.1597376,46.204,-0.149883092,-0.0390990759999999,-1.1264972,0.8064269999999999,1.11637585,9.4722029,-46.7,-58.9,145.0,21.2,201.0,235.9,-1037.8,-0.7,314.0,1012.2666000000002,-1.4005546,3162.7,-0.149883092,0.212281062,-0.0390990759999999,-0.06894852,-1.1264972,0.01463314,46200.0,29538.5,10310.0,118.0,-215.0,-41.0,0,None
2022-12-21 08:32:22,237.4899,0.0999999999999999,100.0,952.5,24404.5,4886.5,99.0,955.7,85.4,4880.7,35.95836799999999,0.66832988,0.0118418235999999,-0.19531336,-1.1757238,46.128,0.0168340468,-0.18485944,-1.13867,0.8772752699999999,1.4136367999999997,11.851836,-54.3,-57.6,85.5,19.5,44.2,185.4,-1077.5,-8.0,366.3,1012.3223,-1.3448361,3165.6,0.0168340468,0.0235295879999999,-0.18485944,-0.0489726112999999,-1.13867,-0.006959316,46110.0,29477.5,10220.0,13.0,-250.0,-39.0,0,None
2022-12-21 08:32:23,238.49,0.0999999999999999,100.0,757.0,24523.0,4894.0,99.0,736.6,87.7,4882.2,34.491978,0.5567717800000002,-0.0028710695999999,0.0869399644,-1.1661056,46.06,0.0048646796,0.0944541424,-1.1315748,0.92901336,1.8529373,9.2192845,-46.4,420.7,92.9,2.1,-7.3,247.3,-1038.0,5.4,316.9,1012.3671,-1.300039,3168.3,0.0048646796,0.0099901579999999,0.0944541424,0.4092277199999999,-1.1315748,0.0149514294,46050.0,29521.0,10160.0,-20.5,-206.5,-29.5,0,None
2022-12-21 08:32:24,239.4533333333333,0.1044444444444441,100.0,1200.0,24321.5,4889.0,99.0,1080.2222222222222,90.0,4885.777777777777,33.30779777777778,0.4567811444444445,0.1241924294,0.0978796084,-1.1789966,45.926,0.129777338,0.1049889679999999,-1.142437,0.8640852222222223,1.4879144444444443,9.472356,-22.11111111111111,-311.55555555555554,52.833333333333336,32.27777777777778,179.72222222222223,278.0,-1031.4444444444443,-26.0,275.6111111111111,1012.324111111111,-1.3427517222222225,3170.777777777778,0.129777338,0.205993118,0.1049889679999999,-0.307847092,-1.142437,-0.0411688319999999,45910.0,29458.0,10020.0,109.5,-45.5,-34.0,0,None
2022-12-21 08:32:25,240.44390000000004,0.1039999999999991,100.0,1217.5,24286.5,4890.5,99.0,1237.7,93.5,4886.9,30.798002,0.3701332599999999,0.009131116,-0.0901554379999999,-1.1552022000000002,46.032,0.017088378,-0.0734289239999999,-1.1145932,0.63092094,0.9303216,5.2949118,-30.6,29.7,72.6,18.7,-253.5,212.7,-1023.6,20.6,351.0,1012.2270999999998,-1.4398674,3173.5,0.017088378,-0.2280780979999999,-0.0734289239999999,0.0371014696,-1.1145932,0.0152025277999999,46060.0,29654.5,10170.0,29.5,44.0,-39.0,0,None
2022-12-21 08:32:26,241.43766666666664,0.1066666666666675,100.0,1164.5,24301.0,4895.0,99.0,1174.111111111111,96.66666666666669,4887.111111111111,27.66449888888889,0.2885572777777778,-0.0061704155,-0.0226524725,-1.134774,46.1225,0.00557763425,-0.009826647,-1.090716,0.5777503222222222,0.7415463333333333,5.209473444444445,-25.33333333333333,46.05555555555556,105.66666666666669,6.055555555555555,85.16666666666667,233.11111111111111,-1041.611111111111,3.0,334.05555555555554,1012.2435,-1.4233941666666667,3176.277777777778,0.00557763425,0.10514479,-0.009826647,0.0363568375,-1.090716,0.008335125775,46130.0,29757.0,10240.0,20.0,18.0,-42.0,0,None
2022-12-21 08:32:27,242.4307,0.1001000000000004,100.0,1157.5,24309.5,4897.0,99.0,1127.6,100.1,4895.6,19.978108,0.19753474,0.01556414376,-0.022981808,-1.1517712000000002,46.118,0.0246225324,-0.0115632752,-1.1062726,0.62945906,0.84016851,6.5159045,-23.9,-1.7,91.0,9.6,-25.7,237.0,-1030.9,-31.2,329.9,1012.225,-1.4420624,3179.0,0.0246225324,-0.0287210592,-0.0115632752,-0.0106514814,-1.1062726,-0.037189267,46120.0,29695.0,10230.0,15.0,38.0,-44.5,0,None
2022-12-21 08:32:28,243.4405,0.1019000000000005,100.0,1173.5,24274.0,4896.0,99.0,1174.6,103.2,4892.1,6.028125800000002,0.122238374,-0.01669644675,-0.02693107,-1.169683,46.08,-0.0071292561999999,-0.016216465,-1.12290525,0.6117732600000001,0.8838120399999999,6.441063900000001,-23.444444444444443,8.0,93.11111111111111,5.222222222222222,5.333333333333333,236.77777777777777,-1052.2222222222222,5.0,327.6666666666667,1012.2375555555556,-1.429513888888889,3182.0,-0.0071292561999999,-0.00286308,-0.016216465,0.0191346785,-1.12290525,-0.0159816235,46076.66666666666,29572.666666666668,10186.666666666666,8.0,51.0,-49.0,0,None
2022-12-21 08:32:29,244.4505,0.1001000000000004,100.0,1153.0,24261.5,4898.0,99.0,1160.2,106.5,4886.8,-32.694136,0.0726228979999999,-0.0129577436,-0.023940062,-1.1688774,46.016000000000005,-0.0032311202,-0.014829552,-1.1210992,0.56868317,0.9651162200000002,6.989503599999999,-27.6,-7.1,93.8,23.3,16.0,234.3,-1039.0,22.6,330.0,1012.2526,-1.4143749,3184.8,-0.0032311202,0.019803846,-0.014829552,-0.0023776861999999,-1.1210992,0.0173954268,45995.0,29583.5,10105.0,9.5,44.5,-48.0,0,None
2022-12-21 08:32:30,245.42322222222225,0.1088888888888877,100.0,1166.0,24278.0,4895.5,99.0,1163.888888888889,109.66666666666669,4888.222222222223,-84.52599555555557,0.0861129577777777,-0.0358761695999999,-0.027897636,-1.1653354,45.94,-0.0267475792,-0.019244912,-1.1178034,0.5763355555555555,0.877291588888889,7.045721777777778,-14.27777777777778,14.22222222222222,92.22222222222224,-0.5555555555555556,-111.66666666666669,233.94444444444449,-1030.2777777777778,-0.6666666666666666,325.22222222222223,1012.2717777777776,-1.3951432222222224,3187.6666666666665,-0.0267475792,-0.1206500826,-0.019244912,0.0119437145999999,-1.1178034,-0.00221602,45930.0,29595.0,10040.0,6.0,38.0,-48.0,0,None
2022-12-21 08:32:31,246.4432,0.1020000000000009,100.0,1449.0,24154.5,4891.5,99.0,1352.7,113.2,4886.4,-109.19882,0.14697992,-0.21086428,-0.018787372,-1.1635762,45.94,-0.19880372,-0.0116050112,-1.115529,0.5634802000000001,0.8789084899999999,5.7763566,-50.7,-2.9,151.9,25.9,-41.4,236.1,-1158.0,8.4,302.5,1012.2451,-1.4218983,3190.2,-0.19880372,-0.044420834,-0.0116050112,0.0011107247999999,-1.115529,-0.00201757156,45885.0,29610.0,9995.0,42.5,-44.0,-25.0,0,None
2022-12-21 08:32:32,247.463,0.1019999999999981,100.0,1346.0,24188.0,4889.0,99.0,1454.6,117.2,4886.5,-118.54376000000002,0.20995238,-0.18506836,-0.046791712,-1.1576282,46.984,-0.17592764,-0.041671716,-1.1088277999999998,0.5329076699999999,1.0382401199999998,4.7153651,-57.2,-34.4,146.4,18.5,26.3,235.5,-1111.2,29.3,302.9,1012.1446,-1.5225312,3193.1,-0.17592764,0.0115791988,-0.041671716,-0.018234489,-1.1088277999999998,0.0147372398,46670.0,29622.0,10780.0,136.0,-229.5,102.0,0,None
2022-12-21 08:32:33,248.487,0.104000000000002,100.0,1488.0,24093.5,4896.5,99.0,1427.0,121.2,4891.1,-122.86957999999996,0.2751945,-0.18151038,-0.157382182,-1.1432888,48.85600000000001,-0.17502398,-0.1519287359999999,-1.0961329999999998,0.64514282,0.89340209,7.1679373,-94.8,-149.85,151.2,62.35,28.3,191.25,-1040.55,12.3,317.85,1011.8502999999998,-1.81663285,3195.8,-0.17502398,0.0672738234,-0.1519287359999999,-0.16910416,-1.0961329999999998,0.0105137587999999,48505.0,29729.0,12615.0,168.0,-370.0,140.5,0,None
2022-12-21 08:32:34,249.47066666666663,0.1023333333333324,100.0,1454.5,24122.5,4896.5,99.0,1460.6666666666667,125.22222222222224,4891.444444444444,-125.31043333333332,0.3510885888888889,-0.15083106,-0.25124228,-1.1469934,50.802,-0.14361488,-0.24641118,-1.1011298,0.6993379777777778,1.0675649333333337,7.603318888888888,-118.11111111111111,1.6666666666666667,145.55555555555554,83.33333333333333,20.22222222222222,154.44444444444446,-1058.111111111111,15.11111111111111,351.77777777777777,1011.548,-2.118967,3198.6666666666665,-0.14361488,0.04926445,-0.24641118,0.0157450739999999,-1.1011298,0.0196755695999999,50440.0,29685.0,14550.0,80.5,-515.0,131.5,0,None
2022-12-21 08:32:35,250.4474,0.1038999999999987,100.0,1172.0,24229.5,4898.5,99.0,1192.2,128.8,4894.6,-127.48259999999998,0.44695068,-0.1080467319999999,-0.0909817788,-1.1444199999999998,52.722,-0.100752552,-0.0900710264,-1.101203,0.73008368,1.0800724599999998,7.7831675,-361.95000000000005,239.0,142.2,84.6,100.4,199.7,-1034.2,6.1,345.4,1011.4277999999998,-2.2390859999999995,3201.0,-0.100752552,0.10340544,-0.0900710264,0.2311209379999999,-1.101203,0.0026646971999999,52370.0,29697.5,16480.0,-26.5,-618.0,130.5,1,27_xacc_avg_abrupt_-241.95000000000002
2022-12-21 08:32:36,251.4754,0.1001000000000004,100.0,1403.5,24138.0,4894.0,99.0,1287.3,132.2,4888.9,-128.20448000000002,0.53789862,-0.0150469206,-0.0020539243,-1.1413404,54.362,-0.0096149722,-0.00096831588,-1.1004345999999998,0.72760934,0.99994068,9.7186575,-348.85,1.5,107.5,80.3,68.5,234.0,-1037.7,9.6,315.5,1011.2762,-2.3908828000000004,3203.7,-0.0096149722,0.064387344,-0.00096831588,-0.003800673,-1.1004345999999998,0.0174865718,54070.0,29687.5,18180.0,-4.5,-565.0,135.5,1,27_xacc_avg_abrupt_-241.95000000000002
2022-12-21 08:32:37,252.4838,0.102000000000001,100.0,1251.5,24175.0,4901.0,99.0,1292.6,135.8,4889.3,-128.4539,0.57808264,0.05167919,-0.026386766,-1.1383492,56.080000000000005,0.057494008,-0.021480434,-1.0987437999999998,0.6025259099999999,0.9183563,9.781953,-318.95000000000005,-7.2,87.9,63.0,51.0,223.1,-1082.8,-21.2,317.0,1011.056,-2.611242,3206.4,0.057494008,0.04025926,-0.021480434,0.0021292459999999,-1.0987437999999998,0.0053378811,55740.0,29715.0,19850.0,19.0,-442.5,143.0,1,27_xacc_avg_abrupt_-241.95000000000002
2022-12-21 08:32:38,253.508,0.1019999999999981,100.0,1338.0,24144.0,4899.5,99.0,1343.1,139.7,4891.4,-129.37778,0.5925497799999999,0.041111034,-0.018606009,-1.1493379999999995,57.84,0.0482639179999999,-0.010935453368,-1.108631,0.59689969,0.95687051,8.2033952,-280.20000000000005,18.4,70.6,37.95,-156.3,237.4,-1056.55,-7.15,338.55,1010.90415,-2.7628126,3209.0,0.0482639179999999,-0.161152774,-0.010935453368,-0.0006597172,-1.108631,-0.0201408504,57515.0,29653.5,21625.0,11.0,-313.0,146.0,1,27_xacc_avg_abrupt_-241.95000000000002
2022-12-21 08:32:39,254.4797777777778,0.1044444444444441,100.0,1624.0,24006.0,4883.0,99.0,1643.7777777777778,143.77777777777777,4885.777777777777,-130.56145555555557,0.6025587111111111,-0.192736125,-0.00486334825,-1.158824,59.3025,-0.179298525,0.0033316115,-1.1178205,0.5023616666666667,1.120346433333333,5.065155555555555,-282.39444444444445,15.22222222222222,141.44444444444446,45.333333333333336,-78.22222222222223,232.3333333333333,-1070.3333333333333,-21.666666666666668,283.6666666666667,1010.7573333333336,-2.9097568888888885,3211.6666666666665,-0.179298525,-0.0456560299999999,0.0033316115,0.03466170825,-1.1178205,-0.006781619,59150.0,29602.5,23260.0,64.5,-307.0,151.5,1,27_xacc_avg_abrupt_-241.95000000000002
2022-12-21 08:32:40,255.464,0.102000000000001,100.0,1554.0,24039.0,4900.5,99.0,1590.1,148.1,4888.5,-132.11079999999998,0.60891424,-0.1306556999999999,-0.0083548726,-1.1603438,60.952,-0.120434212,-0.0029127641999999,-1.121159,0.49591609,1.2136865,4.9276293,-310.05,5.0,132.7,40.0,74.2,233.4,-1060.9,-5.0,298.8,1010.4949,-3.1720781,3214.2,-0.120434212,0.09683535,-0.0029127641999999,0.0046251623999999,-1.121159,0.0076702908,60960.0,29575.0,25070.0,178.0,-424.5,169.0,1,27_xacc_avg_abrupt_-241.95000000000002
2022-12-21 08:32:41,256.48740000000004,0.1022999999999995,100.0,1378.5,24099.5,4887.0,99.0,1437.3,152.2,4884.7,-133.70614,0.6210866400000001,-0.10432653,-0.0184794599999999,-1.1457722,62.96,-0.098387758,-0.011444984,-1.1115624,0.5914312399999999,1.02898428,6.7151521,-318.25,-10.9,136.7,43.9,122.4,227.2,-1027.8,11.2,310.6,1010.1861,-3.4809451,3216.6,-0.098387758,0.141448454,-0.011444984,-0.0267484052,-1.1115624,-0.0026787071999999,62975.0,29635.5,27085.0,247.0,-471.5,159.0,1,27_xacc_avg_abrupt_-241.95000000000002
2022-12-21 08:32:42,257.4945,0.0999000000000023,100.0,1072.0,24223.5,4893.5,99.0,1053.6,155.7,4885.3,-135.27446000000003,0.63966088,0.0824172119999999,-0.042025904,-1.1471170000000002,64.92999999999999,0.084163754,-0.034706402,-1.1156562,0.78553875,0.9994378199999998,6.500189099999998,-306.35,-12.7,79.3,33.6,91.9,234.6,-976.2,-9.7,353.8,1010.0231,-3.6438905,3219.2,0.084163754,0.0809655699999999,-0.034706402,-0.0246322794,-1.1156562,-0.01188979472,64955.0,29607.0,29065.0,243.5,-420.0,131.0,1,27_xacc_avg_abrupt_-241.95000000000002
2022-12-21 08:32:43,258.49440000000004,0.1000999999999976,100.0,1055.0,24230.5,4890.5,99.0,972.1,158.3,4883.6,-137.24608,0.66413522,0.1060390839999999,-0.0407421,-1.1589174,65.90599999999999,0.109881832,-0.033420748,-1.1275284,1.02793937,1.1655107,5.5280892,-274.75,15.5,64.2,-15.8,57.7,228.6,-936.8,-20.9,344.8,1009.9217,-3.745421699999999,3221.8,0.109881832,0.072588326,-0.033420748,0.049594802,-1.1275284,-0.030432694,65920.0,29539.0,30030.0,184.0,-308.5,2.0,1,27_xacc_avg_abrupt_-241.95000000000002
2022-12-21 08:32:44,259.4942,0.0999000000000023,100.0,1167.5,24194.5,4897.5,98.7,1176.8,161.5,4888.4,-139.35566,0.69338394,0.1199654999999999,-0.023490464,-1.1698796,65.91799799999998,0.12581034,-0.0161557792,-1.1375208,0.68166798,1.09750441,7.851436099999999,-280.75,1.5,49.2,36.2,-26.3,230.6,-1048.6,0.2,338.3,1009.8684,-3.7986327,3224.3,0.12581034,-0.03032306376,-0.0161557792,0.0066848651999999,-1.1375208,-0.0090106494,65915.0,29480.5,30025.0,120.0,-178.0,-32.0,1,27_xacc_avg_abrupt_-241.95000000000002
2022-12-21 08:32:45,260.4962,0.1019999999999981,100.0,985.5,24271.0,4898.5,98.0,1081.3,164.7,4890.3,-141.22554,0.72227082,0.1096625199999999,-0.0329015379999999,-1.1646716,65.905998,0.1180308799999999,-0.024647676,-1.1301584,0.66933139,0.94361758,6.2557087,-267.05,6.6,56.5,32.6,15.55,232.4,-976.6,19.85,347.95,1009.89185,-3.7751407,3226.65,0.1180308799999999,0.0265355239999999,-0.024647676,0.01011143282,-1.1301584,0.0231192496,65915.0,29524.0,30025.0,67.5,-69.0,-52.0,1,27_xacc_avg_abrupt_-241.95000000000002
2022-12-21 08:32:46,261.4818888888889,0.1044444444444441,100.0,1254.5,24165.0,4899.5,98.0,1014.5555555555557,167.33333333333334,4894.222222222223,-143.0125222222222,0.7507394555555557,0.086741928,-0.0148728676,-1.1526972,64.97999999999999,0.095478698,-0.0069216963999999,-1.1166834,0.8592542777777779,1.1552788888888887,6.959503777777777,-244.61666666666667,51.11111111111112,65.11111111111111,22.77777777777778,-44.22222222222222,235.66666666666663,-960.6666666666666,-5.888888888888889,339.1111111111111,1009.9587777777776,-3.708324444444444,3229.222222222222,0.095478698,-0.0287029019999999,-0.0069216963999999,0.0530589848,-1.1166834,-0.005781959,64970.0,29602.0,29080.0,30.0,7.0,-191.5,1,27_xacc_avg_abrupt_-241.95000000000002
2022-12-21 08:32:47,262.466,0.1019999999999981,100.0,1375.5,24101.5,4898.0,98.0,1401.0,171.0,4886.9,-144.93418,0.7744087399999999,0.039367308,-0.04039014,-1.162666,63.68599999999999,0.0488601459999999,-0.0316530376,-1.124872,0.4858179499999999,1.2108095,12.1326641,-246.25000000000003,-79.9,69.1,15.7,-36.9,234.1,-1208.2,-2.2,328.7,1010.0761,-3.5908907,3231.6,0.0488601459999999,-0.0504912072,-0.0316530376,-0.094839442,-1.124872,-0.0004736519999999,63665.0,29550.0,27775.0,15.0,61.0,-113.5,1,27_xacc_avg_abrupt_-241.95000000000002
2022-12-21 08:32:48,263.4747,0.1001000000000032,100.0,1095.5,24202.0,4892.0,98.0,1126.1,174.4,4894.3,-147.39756,0.7953209400000001,0.017367518,-0.057549286,-1.1460176,63.556,0.026689892,-0.048291432,-1.1087258,0.51431205,1.1160547,8.0697204,-238.55,45.1,88.7,19.7,9.8,215.0,-1036.1,18.2,334.2,1010.1383,-3.528617,3234.1,0.026689892,-0.0048403873999999,-0.048291432,0.0458793612,-1.1087258,0.0112402328,63550.0,29652.5,27660.0,-15.5,50.0,-40.0,1,27_xacc_avg_abrupt_-241.95000000000002
2022-12-21 08:32:49,264.477,0.1019999999999981,100.0,1006.5,24240.5,4887.5,98.0,1061.0,177.4,4888.4,-149.91912000000002,0.8206624999999999,0.019737578,-0.027629616,-1.1345752,63.55800000000001,0.0281815539999999,-0.02010266,-1.0988988,0.53474444,1.07182967,6.669529499999999,5.7,9.1,86.9,27.6,-6.3,227.0,-1009.1,7.2,332.8,1010.1031,-3.5640389,3236.2,0.0281815539999999,0.0134073513999999,-0.02010266,0.011923787,-1.0988988,-0.0017177192,63565.0,29704.0,27675.0,-16.0,40.5,-56.0,0,None
2022-12-21 08:32:50,265.4585555555556,0.1044444444444441,100.0,1619.5,24006.5,4893.0,98.0,1243.111111111111,180.3333333333333,4888.444444444444,-152.11074444444446,0.8448197555555557,0.0226920825,-0.016834979875,-1.136228,63.197500000000005,0.030278295,-0.009115848,-1.10207925,0.5325395888888889,1.1057671777777778,7.4901164444444435,4.277777777777778,-14.38888888888889,87.88888888888889,25.22222222222222,5.944444444444445,229.16666666666663,-1085.5555555555557,-11.333333333333334,323.8888888888889,1010.1373333333332,-3.529687277777777,3238.8888888888887,0.030278295,0.0108952225,-0.009115848,0.0007161574999999,-1.10207925,-0.02686717825,63165.0,29678.5,27275.0,-9.0,40.5,-63.5,0,None
2022-12-21 08:32:51,266.45,0.1040999999999996,100.0,1127.5,24194.0,4891.0,98.0,1112.0,183.8,4882.7,-154.2876,0.86809552,0.0149057639999999,-0.037381552,-1.147248,63.188,0.0231522279999999,-0.02966905,-1.1153647999999998,0.50733335,1.00756721,6.1386996,-0.9,11.9,91.4,18.7,-24.4,229.9,-1020.0,2.9,333.4,1010.1554,-3.5116795,3241.1,0.0231522279999999,-0.0124713348,-0.02966905,0.0198558998,-1.1153647999999998,-0.00098391718,63215.0,29617.0,27325.0,-13.0,43.5,-42.5,0,None
2022-12-21 08:32:52,267.4899,0.104000000000002,100.0,1023.5,24234.5,4889.0,98.0,1076.5,187.0,4886.9,-156.25759999999997,0.8898377999999999,-0.0002806097999999,-0.0170952622,-1.1370324,63.2,0.008073757,-0.00929666286,-1.1079592000000005,0.5276093500000001,1.1321848200000002,7.164242400000001,1.7,15.4,98.0,9.0,3.2,234.75,-1017.2,-2.35,326.5,1010.15795,-3.50910145,3243.55,0.008073757,0.0238946768,-0.00929666286,0.0180486062,-1.1079592000000005,0.0105686119599999,63160.0,29657.5,27270.0,-2.0,30.0,-61.0,0,None
2022-12-21 08:32:53,268.4814444444444,0.1043333333333293,100.0,1078.5,24205.5,4893.5,98.0,1083.888888888889,190.0,4896.444444444444,-157.91722222222222,0.9114606444444444,1.7722599999999646e-05,-0.0103383562,-1.1390276,62.776,0.0080354522,-0.00264608362,-1.1127802,0.5412206333333334,1.0417551555555555,7.169128000000001,0.4444444444444444,10.88888888888889,98.22222222222224,13.77777777777778,16.88888888888889,239.44444444444449,-1016.0,-17.22222222222222,325.1111111111111,1010.1823333333336,-3.4846527777777774,3246.333333333333,0.0080354522,-0.007989964,-0.00264608362,0.0116531178,-1.1127802,-0.0046307848,62810.0,29629.0,26920.0,11.0,21.0,-81.0,0,None
2022-12-21 08:32:54,269.47,0.1041000000000053,100.0,1243.5,24139.0,4894.5,98.0,1141.7,192.9,4894.7,-159.19256000000004,0.9274424,0.0027322462,-0.022939018,-1.1372676,62.076,0.0110429526,-0.0146517401999999,-1.1131858,0.5316044,1.2106335300000002,7.9251519,-2.0,-11.4,94.1,12.1,27.6,240.5,-1051.2,15.4,326.9,1010.2221,-3.444828,3248.4,0.0110429526,0.028048306,-0.0146517401999999,-0.01595588,-1.1131858,0.0123203415999999,62285.0,29603.5,26395.0,24.0,17.5,-101.5,0,None
2022-12-21 08:32:55,270.45933333333335,0.1044444444444441,100.0,1059.0,24201.5,4896.5,98.0,1198.5555555555557,196.22222222222223,4895.666666666667,-160.23675555555553,0.9383874666666664,0.02257379,-0.032585565,-1.1201687500000002,61.6525,0.0314426925,-0.0245051275,-1.0982365,0.4600022666666666,1.2206155555555556,6.788293222222222,11.11111111111111,0.7222222222222222,91.0,12.944444444444445,15.0,227.22222222222223,-1064.8333333333333,23.666666666666668,325.44444444444446,1010.2608888888888,-3.4061195555555552,3250.8888888888887,0.0314426925,-0.0020858179999999,-0.0245051275,-0.0221615525,-1.0982365,0.0063820849999999,61695.0,29691.0,25805.0,27.0,13.5,-64.0,0,None
2022-12-21 08:32:56,271.4506,0.1040999999999996,100.0,1072.0,24196.5,4896.0,98.0,1096.3,199.3,4895.1,-161.37938000000003,0.95186714,0.043033866,-0.038861404,-1.1238374,61.738,0.0524759219999999,-0.031191826,-1.1028872,0.5690247100000001,1.0677994,7.002362100000001,8.7,5.2,81.1,16.1,16.0,227.8,-1003.3,-15.6,334.3,1010.2436,-3.4234142,3253.0,0.0524759219999999,0.0038538515999999,-0.031191826,0.0342644376,-1.1028872,-0.0136431526,61735.0,29686.5,25845.0,16.5,18.0,-53.5,0,None
2022-12-21 08:32:57,272.4891,0.1020999999999957,100.0,1165.0,24166.0,4896.0,98.0,1163.4,202.5,4893.4,-162.67286,0.97067358,0.026091832,-0.03531646,-1.1304528,61.696000000000005,0.036345906,-0.027688012,-1.1112278,0.5193653699999999,1.1914696400000002,6.8285759,4.0,6.0,83.5,27.8,-10.7,224.5,-1032.7,-10.8,332.2,1010.2636,-3.4034609,3255.3,0.036345906,-0.0129179523999999,-0.027688012,0.0040400919999999,-1.1112278,-0.0064068955999999,61700.0,29633.5,25810.0,5.0,33.5,-64.0,0,None
2022-12-21 08:32:58,273.49729999999994,0.0999999999999999,100.0,1217.5,24105.0,4895.5,98.0,1166.1,205.8,4894.6,-164.09944000000004,0.9929354,0.0150291236,-0.03776575,-1.1340128,61.508,0.026120128,-0.0311336159999999,-1.1162362,0.51910294,1.15312308,7.917899699999999,0.7,16.3,88.0,22.5,-3.5,227.0,-1049.8,1.8,335.2,1010.2748,-3.3922968,3257.5,0.026120128,-0.0027212295999999,-0.0311336159999999,0.0171165482,-1.1162362,0.0046225079999999,61520.0,29605.5,25630.0,2.5,41.0,-54.5,0,None
2022-12-21 08:32:59,274.4995,0.1020000000000038,100.0,1207.0,24128.0,4894.0,98.0,1191.9,209.2,4891.5,-165.44768000000005,1.0167976,-0.007169934,-0.045924316,-1.1266345999999998,61.368,0.0037853344,-0.0393211999999999,-1.10966,0.5381373399999999,1.09909785,6.086569900000001,-1.5,-3.45,95.05,44.15,-16.95,223.55,-1034.6,2.85,331.45,1010.2771,-3.38999215,3260.0,0.0037853344,-0.0080769408,-0.0393211999999999,0.000359418,-1.10966,-0.0040888932,61370.0,29645.0,25480.0,2.0,39.0,-50.5,0,None
2022-12-21 08:33:00,275.4724444444444,0.1022222222222176,100.0,1285.0,24100.0,4902.0,98.0,1233.2222222222222,212.44444444444449,4894.0,-166.44708888888889,1.0434156666666663,0.0034072913999999,-0.05117311,-1.1367786,61.224,0.0143442314,-0.0450932079999999,-1.12027,0.5003563333333333,1.0891180555555555,5.883932333333334,-18.666666666666668,4.555555555555555,93.0,26.55555555555556,25.11111111111111,226.0,-1055.0,-14.77777777777778,332.55555555555554,1010.2844444444444,-3.382604111111112,3262.4444444444443,0.0143442314,0.0304072299999999,-0.0450932079999999,-0.0007574291999999,-1.12027,-0.01719243318,61250.0,29590.5,25360.0,6.0,24.0,-50.5,0,None
2022-12-21 08:33:01,276.438,0.0999999999999999,100.0,1227.0,24092.5,4892.5,98.0,1231.4,215.8,4894.5,-167.13072000000005,1.0747338000000002,-0.0126085778,-0.04006761,-1.1388934000000002,61.1,-0.002385775,-0.033412144,-1.1242834,0.5010047099999999,1.09054685,6.2605639,-19.5,13.4,92.4,42.3,-11.4,222.5,-1009.1,-1.8,326.4,1010.3029,-3.3640702,3264.8,-0.002385775,0.0047971,-0.033412144,0.0165616419999999,-1.1242834,0.0040062697999999,61115.0,29558.0,25225.0,1.5,24.5,-44.0,0,None
2022-12-21 08:33:02,277.456,0.104000000000002,100.0,1211.5,24110.0,4892.5,98.0,1231.5,219.3,4884.1,-167.54139999999995,1.1057828,-0.0086900406,-0.03586873,-1.14133,61.03,0.0019904242,-0.0297118579999999,-1.1274884,0.5310934,1.12617616,6.787843399999998,-18.7,8.8,94.2,33.6,21.7,220.4,-1022.6,8.0,328.3,1010.3114,-3.3555311000000003,3266.9,0.0019904242,0.027397336,-0.0297118579999999,0.0118248658,-1.1274884,0.0011310772,61040.0,29536.0,25150.0,5.0,17.0,-42.5,0,None
2022-12-21 08:33:03,278.46133333333336,0.1066666666666643,100.0,1162.0,24141.5,4897.0,98.0,1180.4444444444443,222.66666666666663,4887.444444444444,-167.7312777777778,1.1337565555555555,0.005325714,-0.03507442,-1.13693875,60.975,0.01477867775,-0.0287025449999999,-1.1242770000000002,0.5710629666666667,0.8533436,6.556453222222222,-16.5,13.666666666666666,92.5,10.166666666666666,17.77777777777778,226.5,-1042.3333333333333,-18.61111111111111,342.3333333333333,1010.3168888888888,-3.3501864999999995,3269.222222222222,0.01477867775,-0.015074765,-0.0287025449999999,0.0074121474999999,-1.1242770000000002,-0.0037952095,60975.0,29553.0,25085.0,5.0,26.0,-41.0,0,None
2022-12-21 08:33:04,279.43911111111106,0.1133333333333376,100.0,1170.0,24142.5,4892.0,98.0,1159.5555555555557,225.66666666666663,4895.555555555556,-167.8525777777778,1.161334,-0.0183910181999999,-0.036103118,-1.1388364000000002,60.914,-0.0081265924,-0.02996055,-1.1264616,0.6155314444444444,0.9842900777777776,6.895688333333334,-23.72222222222222,1.4444444444444444,95.83333333333331,13.77777777777778,-13.166666666666666,223.0,-1038.0555555555557,4.166666666666667,324.55555555555554,1010.323888888889,-3.3431943333333334,3271.333333333333,-0.0082146804,-0.0105234247999999,-0.029844294,0.0120736554,-1.126567,0.00236504,60910.0,29552.0,25020.0,3.5,30.5,-40.0,0,None
2022-12-21 08:33:05,280.49,0.1060000000000001,100.0,1280.0,24082.0,4903.5,98.0,1261.3,229.2,4894.9,-167.84972,1.1881412,-0.020328334,-0.0345328079999999,-1.1305784,60.81600000000001,-0.0100808732,-0.0278495913999999,-1.1189391999999998,0.5402277700000001,0.84424016,6.0169792,-17.95,31.65,98.25,2.75,7.75,218.2,-1047.4,-14.15,319.3,1010.33115,-3.33589065,3274.1,-0.0100808732,0.0120273386799999,-0.0278495913999999,0.02904637,-1.1189391999999998,-0.0068696207999999,60810.0,29587.0,24920.0,1.5,17.5,-39.5,0,None
2022-12-21 08:33:06,281.48577777777774,0.1044444444444441,100.0,1225.5,24107.0,4903.5,98.0,1218.25,232.875,4895.555555555556,-167.68388888888887,1.2106514444444445,-0.0110143782,-0.0163250326,-1.1292742,60.758,-0.0016035189999999,-0.0101545081999999,-1.1190498,0.5431145,0.8775228333333334,6.204516,-31.444444444444443,-12.555555555555555,97.0,31.22222222222222,25.444444444444443,235.44444444444449,-1031.888888888889,-6.333333333333333,321.8888888888889,1010.3435555555556,-3.3234025555555555,3276.111111111112,-0.0016035189999999,0.028281148,-0.0101545081999999,-0.009664368,-1.1190498,0.018337503036,60755.0,29587.0,24865.0,12.0,16.0,-35.0,0,None
2022-12-21 08:33:07,282.476,0.1060000000000002,100.0,1227.0,24096.0,4902.5,98.0,1217.6,236.2,4895.9,-167.44986,1.2277652,-0.0056992996,-0.027312416,-1.1294124,60.724,0.00341787724,-0.019859494,-1.1189252,0.53241598,0.85130762,5.985683300000001,-34.45,-4.65,93.45,34.05,-3.3,227.75,-1024.4,7.95,318.95,1010.32215,-3.3448044999999995,3278.4,0.00341787724,-0.0086501298,-0.019859494,-0.0161340826,-1.1189252,0.0094468244,60725.0,29587.5,24835.0,14.0,24.5,-36.5,0,None
2022-12-21 08:33:08,283.48355555555554,0.1022222222222176,100.0,1210.0,24098.0,4904.0,98.0,1193.888888888889,239.66666666666663,4899.666666666667,-167.21883333333335,1.2404528888888886,-0.002813037,-0.02506354,-1.12851525,60.6975,0.00691403475,-0.0180094275,-1.11811,0.5492029666666666,0.8663198666666667,6.008826666666666,-30.88888888888889,-5.444444444444445,96.55555555555556,32.111111111111114,12.22222222222222,236.3333333333333,-1038.7777777777778,4.555555555555555,340.3333333333333,1010.310111111111,-3.3568922222222226,3280.8888888888887,0.00691403475,0.0261845999999999,-0.0180094275,0.0130314175,-1.11811,-0.0232235875,60690.0,29595.0,24800.0,12.5,29.5,-38.5,0,None
2022-12-21 08:33:09,284.454,0.104000000000002,100.0,1187.6666666666667,24110.0,4898.0,98.0,1182.5,242.8,4893.0,-166.96284,1.2520346,-0.0072626224,-0.032984898,-1.1270662,60.674,0.0023686599,-0.024596202,-1.116662,0.5681800399999999,0.87640213,6.1359529,-19.2,18.3,92.7,0.0,3.8,231.8,-1042.0,-15.3,329.9,1010.3041,-3.3629686,3282.8,0.0023686599,0.0054907428,-0.024596202,0.0058920169799999,-1.116662,0.001028646,60665.0,29605.5,24775.0,6.5,32.5,-41.5,0,None
2022-12-21 08:33:10,285.4413333333333,0.1044444444444441,100.0,1194.0,24112.0,4908.0,98.0,1204.5555555555557,246.0,4898.333333333333,-166.6967,1.262907888888889,-0.0118102528,-0.023761538,-1.1338411999999998,60.64,-0.00169667,-0.015496538,-1.1224622,0.5958631444444445,0.8648145333333334,5.872853777777778,-19.33333333333333,12.22222222222222,90.16666666666669,7.333333333333333,3.555555555555556,234.22222222222223,-1044.0555555555557,-3.9444444444444446,327.0,1010.3028888888888,-3.364127555555556,3285.111111111112,-0.00169667,0.0189574071999999,-0.015496538,0.024029578,-1.1224622,-0.0127684379999999,60640.0,29557.0,24750.0,7.0,33.0,-47.0,0,None
2022-12-21 08:33:11,286.4705,0.1060999999999978,100.0,1180.6666666666667,24124.33333333333,4904.666666666667,98.0,1183.6,249.5,4897.4,-166.35832,1.2730292,-0.0139739779999999,-0.0290499379999999,-1.1270028,60.594,-0.004273693,-0.021501648,-1.1159074,0.56864563,0.86593514,6.474626800000001,-27.9,-8.6,96.2,16.8,-1.8,231.5,-1028.7,20.4,326.8,1010.2987,-3.3684453000000003,3287.4,-0.0043683094,-0.0003884774399999,-0.02149071,-0.0112202913999999,-1.1159444,0.025710785,60593.333333333336,29600.33333333333,24703.33333333333,8.666666666666666,33.0,-42.66666666666666,0,None
2022-12-21 08:33:12,287.49100000000004,0.1020000000000038,100.0,1165.0,24067.5,4903.0,98.0,1153.5,252.6,4896.5,-165.96919999999997,1.2816546,-0.016857155,-0.026234548,-1.1281424,60.56,-0.0070337202,-0.017647292,-1.1169088000000005,0.5649050700000001,0.83281058,6.173064899999999,-18.4,23.5,95.4,5.1,24.8,222.6,-1037.7,-17.7,320.1,1010.3076,-3.3592811,3289.5,-0.0070337202,0.033682018,-0.017647292,0.0375643383999999,-1.1169088000000005,-0.023721452,60560.0,29595.0,24670.0,5.0,19.5,-42.0,0,None
2022-12-21 08:33:13,288.4623333333334,0.1022222222222239,100.0,1167.0,24090.0,4896.0,98.0,1198.0,255.77777777777777,4892.111111111111,-165.52642222222218,1.2891094444444446,-0.00073207568,-0.017153914,-1.129956,60.54,0.0085917358,-0.0091987937999999,-1.1179686,0.5153178444444443,0.8360374666666667,6.369195444444445,-16.88888888888889,18.05555555555556,90.66666666666669,4.055555555555555,8.722222222222221,229.61111111111111,-1038.611111111111,14.944444444444445,319.3333333333333,1010.3026111111112,-3.3643923888888896,3291.8888888888887,0.0085917358,0.0125048496,-0.0091987937999999,0.019926319,-1.1179686,0.0091155051999999,60540.0,29588.0,24650.0,4.0,19.0,-44.0,0,None
2022-12-21 08:33:14,289.47920000000005,0.108099999999996,100.0,1181.3333333333333,24111.666666666668,4894.333333333333,98.0,1175.7,259.1,4889.7,-165.04316,1.2949484,-0.00374998486,-0.0088071986,-1.1191212,60.54200000000001,0.0061565696,-0.000891807,-1.1067502,0.55316271,0.8376252300000001,5.992772500000001,-20.2,-2.6,93.7,17.5,3.2,236.8,-1056.6,10.7,325.0,1010.3044999999998,-3.362367,3293.9,0.0061144436,0.0297608569999999,-0.0008544418,0.0141267607999999,-1.1068902,0.0168386684,60540.0,29657.33333333333,24650.0,8.666666666666666,24.33333333333333,-42.0,0,None
2022-12-21 08:33:15,290.50320000000005,0.0999000000000023,100.0,1175.0,24106.5,4896.5,98.0,1159.1,262.5,4891.4,-164.61986,1.2967298,-0.002039484,-0.0148508503999999,-1.1132458,60.534000000000006,0.007468203,-0.00595703078,-1.1003338,0.4742775,0.90739233,5.7561204,-10.4,-7.1,97.9,17.5,17.4,237.3,-1033.2,3.3,328.4,1010.3042000000002,-3.3629061,3296.1,0.007468203,0.0303607617999999,-0.00595703078,-0.0108039937999999,-1.1003338,0.021436878,60535.0,29707.0,24645.0,24.5,19.5,-43.5,0,None
2022-12-21 08:33:16,291.5013,0.1000999999999976,100.0,1149.5,24113.5,4897.0,98.0,1175.4,265.8,4891.9,-164.25072,1.2957582,0.031392324,-0.0328434779999999,-1.1123387999999998,60.544,0.040336086,-0.023854812,-1.0997318,0.52092664,1.05404938,7.659433900000001,4.4,-12.9,87.0,10.3,33.9,225.5,-1037.9,-3.6,336.0,1010.2868,-3.3803358,3298.3,0.040336086,0.0262011398,-0.023854812,-0.006499823,-1.0997318,-0.012510713,60545.0,29689.0,24655.0,19.5,28.0,-45.0,0,None
2022-12-21 08:33:17,292.5013,0.0999999999999999,100.0,1164.5,24107.5,4896.5,98.0,1191.7,268.8,4893.4,-164.03006,1.2970723999999998,0.030756488,-0.03422035,-1.1177012,60.56,0.0401514559999999,-0.0259180899999999,-1.1050335999999998,0.5318505000000001,1.0887958999999998,6.704814000000001,-1.3,1514.4833333333333,84.6,19.6,-2.5,224.7,-1041.5,-6.3,334.2,1010.2644,-3.4026953,3300.3,0.0401514559999999,-0.0134946432,-0.0259180899999999,0.0114802801999999,-1.1050335999999998,-0.0093894116,60570.0,29666.5,24680.0,4.0,42.5,-44.5,1,27_xgyro_avg_abrupt_1498.4833333333333
2022-12-21 08:33:18,293.5013,0.0999000000000023,100.0,1146.5,24110.5,4904.5,98.0,1142.7,272.2,4891.4,-164.0034,1.3017526,0.00732936262,-0.03894196,-1.1155583999999998,60.588,0.0178622396,-0.030936406,-1.101817,0.5667377100000001,1.0740462,6.3895842,3.3,1489.2833333333333,86.6,25.5,-21.5,225.1,-1038.7,5.4,333.1,1010.2684,-3.3985937,3302.4,0.0178622396,0.0028252684,-0.030936406,-0.0278936696,-1.101817,0.0114873054,60590.0,29695.5,24700.0,3.0,43.0,-47.0,1,27_xgyro_avg_abrupt_1498.4833333333333
2022-12-21 08:33:19,294.5019,0.1000999999999976,100.0,1145.0,24100.0,4896.5,98.0,1159.5,275.5,4891.9,-164.07504,1.30915,0.0195893964,-0.051038922,-1.1188868,60.604000000000006,0.030109246,-0.042130462,-1.1049278,0.56863786,1.1194324,6.695156299999999,-8.1,1512.9833333333333,90.9,23.4,6.4,215.9,-1027.9,-0.6,332.3,1010.2583,-3.4087734000000003,3304.6,0.030109246,0.0050007319999999,-0.042130462,-0.000662304,-1.1049278,-0.0192453806,60610.0,29654.5,24720.0,-5.5,45.5,-52.0,1,27_xgyro_avg_abrupt_1498.4833333333333
2022-12-21 08:33:20,295.502,0.0999999999999999,100.0,1156.0,24080.0,4909.0,98.0,1110.1,278.5,4899.7,-164.11318,1.3188698,-0.031481484,-0.0410026759999999,-1.1265512000000002,60.606,-0.0197633918,-0.032865196,-1.1127704,0.55094953,1.1181787999999997,7.5130314,0.9,1516.7833333333333,101.8,22.1,9.0,225.4,-1042.2,0.2,326.7,1010.2746,-3.3922422000000005,3306.6,-0.0197633918,-0.0013298526,-0.032865196,0.0093941721999999,-1.1127704,0.0013079031999999,60600.0,29636.5,24710.0,1.0,19.0,-50.5,1,27_xgyro_avg_abrupt_1498.4833333333333
2022-12-21 08:33:21,296.4833333333333,0.1022222222222239,100.0,1188.0,24108.0,4904.0,98.0,1154.7777777777778,281.8888888888889,4901.0,-164.0307666666667,1.330245111111111,0.030373632,-0.045748978,-1.1230226,60.526,0.040379288,-0.03780992,-1.1092436,0.5509619555555556,1.1172246444444445,6.589047444444444,-3.5,1504.538888888889,85.16666666666667,22.61111111111111,37.333333333333336,222.38888888888889,-1042.5,-15.11111111111111,333.3333333333333,1010.2922222222224,-3.374548611111111,3308.6666666666665,0.040379288,0.0443775722,-0.03780992,0.015673022,-1.1092436,-0.003592439,60520.0,29663.0,24630.0,0.0,12.0,-47.0,1,27_xgyro_avg_abrupt_1498.4833333333333
2022-12-21 08:33:22,297.464,0.1079999999999983,100.0,1137.0,24103.666666666668,4906.0,98.0,1140.5,284.8,4897.0,-163.92455,1.3432958999999998,-0.0002116727999999,-0.0276962084,-1.1322806,60.478,0.0100505352,-0.0200336962,-1.1185432,0.58653977,0.91548442,6.0550276,-18.3,1541.5833333333333,88.6,16.8,-50.5,232.7,-1035.7,15.4,330.6,1010.3026000000002,-3.3644217000000003,3310.6,0.0100505352,-0.0419007094,-0.0200336962,0.0463367455999999,-1.1185432,0.01278294334,60490.0,29584.0,24600.0,-19.0,28.5,-45.5,1,27_xgyro_avg_abrupt_1498.4833333333333
2022-12-21 08:33:23,298.49,0.1088888888888908,100.0,1171.0,24090.5,4901.0,98.0,1168.7777777777778,288.3333333333333,4894.333333333333,-163.88265555555557,1.3557595555555555,-0.0179794238,-0.021638204,-1.1254918,60.456,-0.0066318634,-0.0138270636,-1.1113906,0.5494350111111111,0.9551826555555554,6.575708777777779,-17.5,1496.2611111111112,103.38888888888889,24.944444444444443,63.22222222222222,237.77777777777777,-1045.0555555555557,-1.1111111111111112,329.1111111111111,1010.2967222222222,-3.370347277777778,3312.8888888888887,-0.0066318634,0.048928426,-0.0138270636,-0.0290590279999999,-1.1113906,-0.012262538956,60460.0,29643.0,24570.0,-3.5,18.0,-43.0,1,27_xgyro_avg_abrupt_1498.4833333333333
2022-12-21 08:33:24,299.43888888888887,0.1022222222222239,100.0,1201.0,24083.0,4901.0,98.0,1183.6666666666667,291.3333333333333,4891.777777777777,-163.8108777777778,1.3643388888888888,0.00825524825,-0.0185586825,-1.144197,60.425,0.01813601795,-0.0105695585,-1.12980675,0.5487623888888888,0.8737699222222222,6.138436888888888,-23.77777777777778,1497.5944444444444,81.55555555555556,21.88888888888889,-25.444444444444443,224.22222222222223,-1027.5555555555557,-4.222222222222222,317.1111111111111,1010.300888888889,-3.366258666666667,3314.6666666666665,0.01813601795,-0.0538562775,-0.0105695585,0.0043585074999999,-1.12980675,-0.02105667775,60430.0,29544.0,24540.0,5.5,22.0,-43.5,1,27_xgyro_avg_abrupt_1498.4833333333333
2022-12-21 08:33:25,300.444,0.1060000000000001,100.0,1256.3333333333333,24061.666666666668,4904.333333333333,98.0,1212.1,294.8,4900.7,-163.76812,1.3715914999999996,-0.01560486,-0.030910376,-1.1343422,60.374,-0.004777166104,-0.022920793,-1.1192892,0.52021566,0.7308083099999999,5.301873,-21.35,1490.1833333333334,101.85,31.05,6.05,242.75,-1015.05,30.95,338.65,1010.30115,-3.3657853,3316.8,-0.004777166104,0.0292877858,-0.022920793,-0.0103585587999999,-1.1192892,0.039273794,60375.0,29584.5,24485.0,16.5,29.0,-43.0,1,27_xgyro_avg_abrupt_1498.4833333333333
2022-12-21 08:33:26,301.4985,0.1060999999999978,100.0,1183.0,24082.5,4900.0,98.0,1193.0,298.2,4897.9,-163.68226,1.3774453999999998,-0.0059372288,-0.02870109,-1.1317312000000002,60.33,0.0041223955999999,-0.0204060319999999,-1.1163412,0.55990571,1.07572825,6.3865411000000005,-20.85,1500.8333333333333,97.75,25.75,40.4,227.85,-1050.1,-12.9,328.75,1010.2981,-3.3688671500000007,3318.9,0.0041223955999999,0.063640162,-0.0204060319999999,0.0011584021999999,-1.1163412,-0.0176299626,60330.0,29614.0,24440.0,20.5,17.5,-42.0,1,27_xgyro_avg_abrupt_1498.4833333333333
2022-12-21 08:33:27,302.491,0.1044444444444441,100.0,1213.5,24063.5,4894.0,98.0,1204.3333333333333,301.6666666666667,4896.555555555556,-163.5427777777778,1.3832334444444447,0.0056865266,-0.043379204,-1.146003,60.28000000000001,0.0153870416,-0.03574014,-1.1300958,0.5385573444444445,0.951015711111111,6.503190666666666,-26.88888888888889,1508.038888888889,88.66666666666667,28.444444444444443,-10.444444444444445,225.66666666666663,-1040.5555555555557,4.111111111111111,337.8888888888889,1010.2974444444446,-3.369565888888889,3321.222222222222,0.0153870416,0.0058980682,-0.03574014,0.0068652964,-1.1300958,0.0033764372,60280.0,29522.0,24390.0,13.0,26.0,-42.0,1,27_xgyro_avg_abrupt_1498.4833333333333
2022-12-21 08:33:28,303.4416,0.0980999999999994,100.0,1141.5,24074.0,4903.5,98.0,1174.2,304.8,4902.0,-163.42246,1.3912720000000005,-0.005388272908,-0.029912528,-1.1478202,60.234,0.0052374914,-0.022965454,-1.1306206,0.5762549100000001,1.01712229,6.4263519,-34.2,1500.7833333333333,89.9,32.0,9.8,230.9,-1032.1,6.4,330.2,1010.2976,-3.3695158,3323.2,0.0052374914,0.013212557,-0.022965454,0.0146162305739999,-1.1306206,-0.0291103269399999,60240.0,29525.0,24350.0,4.0,29.5,-41.5,1,27_xgyro_avg_abrupt_1498.4833333333333
2022-12-21 08:33:29,304.456,0.1019999999999981,100.0,1196.5,24048.0,4880.0,98.0,1185.2,307.8,4892.5,-163.28774,1.3998023999999998,-0.0173423436,-0.029938368,-1.1525468,60.19200000000001,-0.0073127456,-0.022574062,-1.1340694,0.6003295,1.0245180399999998,7.2420777,-31.4,1509.6833333333334,90.8,28.5,-6.9,233.8,-1042.3,23.3,325.3,1010.3029,-3.3642733,3325.1,-0.0073127456,0.0002517534,-0.022574062,0.015695003,-1.1340694,-0.0061281958,60195.0,29498.0,24305.0,1.5,33.0,-46.0,1,27_xgyro_avg_abrupt_1498.4833333333333
2022-12-21 08:33:30,305.464,0.0999999999999999,100.0,1218.0,24061.0,4899.0,98.0,1216.1,311.4,4888.0,-163.10743999999997,1.40809,-0.021842992,-0.036317842,-1.1442196,60.122,-0.0110752182,-0.0297561919999999,-1.1239940000000002,0.5517010599999999,0.91136919,6.632418199999999,-13.4,1498.8833333333334,90.5,0.6,20.9,228.4,-1015.5,5.5,329.2,1010.3045000000002,-3.3624217,3327.1,-0.0110752182,0.0155437164,-0.0297561919999999,-0.0039762409999999,-1.1239940000000002,0.0354567,60125.0,29555.5,24235.0,7.0,27.0,-43.5,1,27_xgyro_avg_abrupt_1498.4833333333333
2022-12-21 08:33:31,306.466,0.0999999999999999,100.0,1165.5,24078.0,4898.0,98.0,1182.7,314.7,4890.0,-162.84822,1.4165569999999998,-0.0065559218,-0.031874404,-1.1378955999999998,60.064,0.0034693984599999,-0.024787058,-1.116804,0.60473967,0.8864226000000001,6.5866469,-23.5,26.4,91.3,20.1,13.3,223.6,-1036.9,3.7,326.8,1010.305,-3.362164,3329.4,0.0034693984599999,0.0237526114,-0.024787058,0.017655048,-1.116804,0.0025278249999999,60065.0,29604.0,24175.0,2.5,23.0,-40.5,0,None
2022-12-21 08:33:32,307.47799999999995,0.1020000000000038,100.0,1202.0,24048.0,4895.5,98.0,1172.7,317.8,4887.9,-162.54116,1.4250718,-0.01571736,-0.033912976,-1.1459149999999998,60.024,-0.00523697154,-0.027291106,-1.123411,0.6189000400000001,1.0090942900000002,7.4073045,-33.2,-26.8,91.2,46.3,-8.4,234.2,-1022.5,15.1,342.7,1010.2929,-3.3741639999999995,3331.4,-0.00523697154,0.0066763814,-0.027291106,-0.0195489676,-1.123411,-0.0183522414,60025.0,29562.5,24135.0,7.0,31.5,-43.5,0,None
2022-12-21 08:33:33,308.494,0.1019999999999981,100.0,1223.5,24057.5,4890.0,98.0,1241.3,321.3,4888.1,-162.19830000000002,1.433123,-0.0221489604,-0.038734886,-1.126393,59.98199999999999,-0.0116899643999999,-0.031315732,-1.1030908,0.5412829299999999,0.8667882299999998,5.7766091,-11.7,35.6,102.9,11.3,35.6,226.8,-1037.3,22.6,322.9,1010.2783,-3.3887578,3333.2,-0.0116899643999999,0.04832864896,-0.031315732,0.048486206,-1.1030908,0.00967998,59980.0,29677.0,24090.0,6.5,14.5,-45.0,0,None
2022-12-21 08:33:34,309.47866666666664,0.1044444444444441,99.0,1191.5,24064.5,4903.5,97.44444444444444,1195.6666666666667,324.77777777777777,4895.333333333333,-161.77462222222223,1.4410851111111111,0.0213624018,-0.036954152,-1.1527368,59.946000000000005,0.031509914,-0.030267744,-1.1283112,0.5569217,1.1496325,6.352202444444444,-24.0,-21.72222222222222,82.44444444444444,24.27777777777778,28.666666666666668,227.66666666666663,-1033.6666666666667,-46.833333333333336,334.44444444444446,1010.2918888888888,-3.374956666666667,3335.222222222222,0.031386546,0.0140085913999999,-0.0301396019999999,-0.029163614,-1.1282974,-0.035130468,59950.0,29548.0,24060.0,9.0,16.0,-45.0,0,None
2022-12-21 08:33:35,310.446,0.1019999999999981,99.0,1208.0,24055.5,4904.0,97.0,1226.3,328.1,4899.7,-161.38359999999997,1.4491906,-0.0126976283,-0.042959512,-1.1583186,59.876,-0.001787912,-0.03509962,-1.1324526,0.53658947,1.1247113199999998,7.174037799999999,-16.4,41.3,87.8,25.8,-45.4,238.1,-1030.1,27.4,345.1,1010.3066,-3.3603515,3337.2,-0.001787912,-0.03789240396,-0.03509962,0.0393790188,-1.1324526,0.032524046,59885.0,29503.0,23995.0,-10.5,32.5,-45.5,0,None
2022-12-21 08:33:36,311.45399999999995,0.0999999999999999,99.0,1135.0,24075.5,4902.0,97.0,1170.8,331.5,4898.6,-161.01453999999995,1.4578632,0.0015225710799999,-0.011868523,-1.1449866,59.824,0.0128710661999999,-0.0047350896,-1.118282,0.5265572888888889,1.0289486222222222,6.019406444444446,-3.4,9.9,94.0,11.0,70.2,237.6,-1027.4,-0.1,326.6,1010.3108,-3.3561719,3339.2,0.0128710661999999,0.071283162,-0.0047350896,0.0033963256,-1.118282,-0.003201476,59830.0,29592.5,23940.0,0.0,15.0,-43.0,0,None
2022-12-21 08:33:37,312.476,0.1020000000000038,99.0,1259.5,24042.0,4903.5,97.0,1230.4,334.7,4900.6,-160.6688,1.4643368,0.0235714679999999,-0.0320375819999999,-1.1385586,59.75,0.0343592619999999,-0.02437808,-1.1109524,0.5091325999999999,1.02307294,5.4217383,-14.8,-6.9,82.8,19.8,-0.6,227.5,-1043.5,4.1,323.9,1010.3296,-3.3373983000000003,3341.0,0.034540834,-0.0022500755999999,-0.0243540739999999,-0.0026688041999999,-1.111005,0.0076739118,59755.0,29636.0,23865.0,0.0,32.0,-43.0,0,None
2022-12-21 08:33:38,313.482,0.0999999999999999,99.0,1235.5,24040.5,4903.0,97.0,1236.0,338.2,4897.7,-160.40666000000002,1.4688056,-0.0041968914,-0.0173181366,-1.148618,59.664,0.0072881006,-0.0091166334,-1.1212968,0.4637169099999999,0.91228586,5.4365735,-5.1,47.5,88.1,-3.5,-23.5,221.5,-1042.7,-4.2,326.1,1010.3421999999998,-3.3248828,3343.0,0.0072881006,-0.0306115919999999,-0.0091166334,0.048860387,-1.1212968,-0.0013083545339999,59670.0,29574.5,23780.0,-14.5,36.5,-37.5,0,None
2022-12-21 08:33:39,314.496,0.1019999999999981,99.0,1198.5,24044.5,4901.0,97.0,1226.0,341.5,4894.0,-160.1791,1.4720144000000002,0.0085556210999999,0.00183054908,-1.1362358,59.60799999999999,0.01925123,0.00955877,-1.1071984,0.4773168,0.7314280799999999,5.2497916,-13.3,-7.6,89.4,5.8,25.9,244.8,-1039.1,18.6,325.0,1010.3243,-3.3426720000000003,3345.2,0.01925123,0.027576718,0.00955877,-0.0150923116,-1.1071984,0.0179071636,59610.0,29655.0,23720.0,0.5,35.5,-37.0,0,None
2022-12-21 08:33:40,315.50199999999995,0.0999999999999999,99.0,1228.5,24038.0,4907.0,97.0,1213.0,344.8,4896.9,-159.97876,1.4724578000000004,-0.0135548437999999,-0.0172530285999999,-1.1224922,59.588,-0.0021575035999999,-0.0092466708,-1.092955,0.5190659799999999,0.68209143,5.0553196,-20.3,-22.0,100.2,17.3,-16.1,233.4,-1011.2,29.8,316.5,1010.3078,-3.3593516,3346.9,-0.0021575035999999,-0.0193196718,-0.0092466708,-0.021260484,-1.092955,0.0317801152,59590.0,29736.5,23700.0,10.0,50.0,-38.5,0,None
2022-12-21 08:33:41,316.452,0.0999999999999974,99.0,1100.0,24084.0,4903.0,97.0,1184.888888888889,348.1111111111111,4893.777777777777,-159.79483333333332,1.4709673333333333,-0.0095072986666666,-0.03362375,-1.126048333333333,59.55500000000001,0.003231419475,-0.0226641075,-1.0974685000000002,0.5972734333333333,0.6800510888888889,5.334463888888888,-20.444444444444443,29.0,103.33333333333331,7.666666666666667,34.44444444444444,225.11111111111111,-1043.4444444444443,-24.55555555555556,322.77777777777777,1010.3045555555556,-3.3625085555555554,3348.8888888888887,0.003231419475,0.030078716,-0.0226641075,0.0274554825,-1.0974685000000002,-0.0340641762499999,59555.0,29704.0,23665.0,8.0,36.5,-40.0,0,None
2022-12-21 08:33:42,317.45199999999994,0.108000000000004,99.0,1194.3333333333333,24039.33333333333,4902.333333333333,97.0,1187.8,351.4,4896.2,-159.57057,1.4702274000000002,-0.0224314734,-0.017736104,-1.1483900000000002,59.54,-0.0118380005999999,-0.0094358287999999,-1.1173776,0.5702557699999999,0.82638903,6.304344800000001,-30.1,-6.45,92.8,5.35,-19.0,234.0,-1044.35,-13.0,315.05,1010.26325,-3.40391,3350.9,-0.0118380005999999,-0.01386622718,-0.0094358287999999,-0.0070706217999999,-1.1173776,-0.0214808656,59540.0,29588.0,23650.0,8.5,36.0,-45.5,0,None
2022-12-21 08:33:43,318.45866666666666,0.1066666666666643,99.0,1194.0,24051.0,4901.0,97.0,1195.6666666666667,354.77777777777777,4893.222222222223,-159.30585555555555,1.4695733333333332,-0.0252303139999999,-0.0249523,-1.1433334,59.516000000000005,-0.0140567289599999,-0.016025892,-1.1109686,0.5396946777777778,0.7902754444444445,6.398626222222223,-24.83333333333333,22.83333333333333,99.66666666666669,12.055555555555555,26.72222222222222,225.8333333333333,-1014.8888888888888,13.166666666666666,317.05555555555554,1010.2876111111112,-3.379474777777778,3352.777777777778,-0.0140567289599999,0.0426756301999999,-0.016025892,0.0309187325999999,-1.1109686,0.00968625282,59510.0,29648.0,23620.0,10.0,17.5,-45.0,0,None
2022-12-21 08:33:44,319.48999999999995,0.1079999999999983,99.0,1164.6666666666667,24068.33333333333,4897.666666666667,97.0,1135.7,358.2,4890.1,-158.94212,1.4687228,-0.0128033234,-0.013617562,-1.1521598000000002,59.464,-0.0018707849999999,-0.006034712,-1.1199344,0.5976310699999999,0.8123823700000001,5.9921635,-16.05,6.8,98.85,0.55,19.25,238.4,-1023.55,-17.75,322.45,1010.3104500000002,-3.3565312,3354.7,-0.0018707849999999,0.017371248,-0.006034712,0.017810586,-1.1199344,-0.00698606,59445.0,29577.0,23555.0,12.5,9.5,-45.5,0,None
2022-12-21 08:33:45,320.4986666666667,0.1066666666666706,99.0,1215.5,24047.0,4887.5,97.0,1186.7777777777778,361.6666666666667,4893.0,-158.5476666666667,1.4667388888888886,-0.0065429893999999,-0.013079086,-1.1451692000000002,59.358,0.0038192360119999,-0.0045805428,-1.1113970000000002,0.5282277666666667,0.8141679444444444,6.197489000000001,-11.22222222222222,-0.3333333333333333,93.11111111111111,2.0,1.3333333333333333,240.22222222222223,-1042.3333333333333,23.11111111111111,330.55555555555554,1010.3034444444446,-3.363611111111111,3356.555555555556,0.0038192360119999,-0.0036773599999999,-0.0045805428,1.0503000000000596e-05,-1.1113970000000002,0.0057738664,59350.0,29646.0,23460.0,21.0,10.5,-43.5,0,None
2022-12-21 08:33:46,321.4564444444444,0.1044444444444441,99.0,1160.0,24056.0,4895.0,97.0,1193.4444444444443,364.77777777777777,4895.222222222223,-158.16614444444448,1.463577222222222,0.009851532275,-0.027134335,-1.137712,59.31,0.0204545847499999,-0.01823292,-1.10294725,0.5221720666666667,0.9635952222222222,6.120627333333333,3.1666666666666665,7.111111111111111,91.16666666666669,3.333333333333333,47.05555555555556,233.66666666666663,-1033.7222222222222,-9.22222222222222,326.5,1010.3025,-3.364526944444444,3358.555555555556,0.0204545847499999,0.0533771425,-0.01823292,-0.0054732575,-1.10294725,-0.01548306,59310.0,29689.0,23420.0,28.0,6.0,-41.0,0,None
2022-12-21 08:33:47,322.466,0.1099999999999965,99.0,1160.0,24067.0,4906.666666666667,97.0,1179.5,367.8,4900.2,-157.77694,1.4600778,0.03367361,-0.03306735,-1.1322113333333337,59.275,0.0443091099999999,-0.02377005,-1.0973568333333332,0.5303384899999999,1.09610204,6.5899046,2.2,-10.8,84.3,14.0,18.9,224.7,-1023.6,13.1,331.8,1010.2734,-3.3934686,3360.4,0.0443095666666666,0.0073850723333333,-0.0236507233333333,-0.0167898508333333,-1.097533333333333,-0.0014404964833333,59273.333333333336,29702.666666666668,23383.33333333333,21.666666666666668,17.666666666666668,-41.66666666666666,0,None
2022-12-21 08:33:48,323.4964444444444,0.1066666666666706,99.0,1088.0,24095.5,4895.0,97.0,1137.0,371.3333333333333,4894.777777777777,-157.5326888888889,1.4591191111111113,0.03148097,-0.0495776349999999,-1.1347105,59.2375,0.04222085,-0.0405678925,-1.09922825,0.5656892111111111,1.2469485444444444,6.035724777777777,12.77777777777778,6.055555555555555,83.27777777777777,24.0,9.444444444444445,225.44444444444449,-1019.5555555555557,0.5555555555555556,344.22222222222223,1010.2784444444446,-3.388606611111112,3362.277777777778,0.04222085,0.004102165,-0.0405678925,0.001615145,-1.09922825,0.0017707547499999,59230.0,29691.0,23340.0,5.0,27.0,-49.0,0,None
2022-12-21 08:33:49,324.452,0.1066666666666643,99.0,1056.0,24108.0,4891.0,97.0,1078.3333333333333,374.1111111111111,4895.777777777777,-157.4384777777778,1.4610177777777775,0.036412252,-0.031885494,-1.1270384,59.218,0.047694192,-0.022582294,-1.0921278,0.5941997777777778,1.251953,5.601766666666666,8.0,29.72222222222222,87.11111111111111,5.777777777777778,3.388888888888889,223.5555555555556,-1036.4444444444443,-9.61111111111111,343.0,1010.2869999999998,-3.3800648888888887,3363.8888888888887,0.047694192,-0.002953084,-0.022582294,0.03847356,-1.0921278,0.012132575,59220.0,29738.5,23330.0,-8.0,27.0,-44.5,0,None
2022-12-21 08:33:50,325.482,0.1079999999999983,99.0,1069.6666666666667,24098.33333333333,4889.666666666667,97.0,1094.3,377.2,4896.9,-157.44736,1.4642154,0.046754354,-0.01172407166,-1.1132692,59.20399999999999,0.057914356,-0.0026453636,-1.0780972,0.60181147,1.18240448,7.4847183,22.55,37.1,87.35,2.3,32.1,232.4,-1039.15,-2.3,328.45,1010.32605,-3.3409883,3365.9,0.057914356,0.046205532,-0.0026453636,0.0382238194,-1.0780972,-0.0134350817999999,59215.0,29827.5,23325.0,-18.5,34.5,-44.0,0,None
2022-12-21 08:33:51,326.512,0.1088888888888908,99.0,1134.0,24068.5,4898.5,97.0,1122.888888888889,380.55555555555554,4897.333333333333,-157.5688111111111,1.4662988888888888,0.0223971716,-0.0127673087999999,-1.1346126,59.154,0.034249444,-0.00379552904,-1.0999586,0.5768032777777778,1.133401111111111,4.5235257777777775,12.0,-18.33333333333333,88.44444444444444,19.77777777777778,-37.77777777777778,234.0,-1002.3333333333334,-1.5555555555555556,326.1111111111111,1010.3014444444444,-3.365581444444445,3367.777777777778,0.034587296,-0.0371471978,-0.00359673724,-0.020090764896,-1.0997472,-0.0025900664,59150.0,29713.5,23260.0,-10.5,61.0,-40.0,0,None
2022-12-21 08:33:52,327.4675555555555,0.1044444444444441,99.0,1172.0,24062.0,4896.0,97.0,1133.3333333333333,383.44444444444446,4892.444444444444,-157.7638888888889,1.467172222222222,0.0083969257,-0.020407215,-1.1359305,59.155,0.021324185,-0.01139378925,-1.1023035,0.5737317555555556,1.019922233333333,6.682277666666667,6.0,-0.5555555555555556,92.77777777777776,13.5,6.888888888888889,233.61111111111111,-1036.2222222222222,2.388888888888889,327.6111111111111,1010.3116666666668,-3.355390666666666,3369.277777777778,0.021324185,0.000182814,-0.01139378925,0.0172278875,-1.1023035,0.0038777644999999,59160.0,29686.0,23270.0,-1.5,60.5,-40.5,0,None
2022-12-21 08:33:53,328.48,0.1079999999999983,99.0,1176.0,24061.33333333333,4887.0,97.0,1146.5,386.7,4887.3,-158.0229,1.4678568,-0.0061260245999999,-0.036473406,-1.1407606,59.17,0.00623062308,-0.027257312,-1.1072913999999998,0.52142568,0.98660494,6.0540315,4.75,-12.55,96.4,27.0,-14.45,228.9,-1023.6,-7.75,333.4,1010.2817,-3.385316350000001,3371.25,0.00623062308,-0.014411366,-0.027257312,-0.0190325466,-1.1072913999999998,-0.0046873195999999,59175.0,29650.5,23285.0,9.5,49.0,-40.5,0,None
