00000_Time_epoch,00000_Time_boot_sec,00000_Span_Time_boot_sec,1_battery_remaining_avg,1_current_battery_avg,1_voltage_battery_avg,125_Vcc_avg,147_battery_remaining_avg,147_current_battery_avg,147_current_consumed_avg,165_Vcc_avg,168_direction_avg,168_speed_avg,178_pitch_avg,178_roll_avg,178_yaw_avg,182_altitude_avg,182_pitch_avg,182_roll_avg,182_yaw_avg,241_vibration_x_avg,241_vibration_y_avg,241_vibration_z_avg,27_xacc_avg,27_xgyro_avg,27_xmag_avg,27_yacc_avg,27_ygyro_avg,27_ymag_avg,27_zacc_avg,27_zgyro_avg,27_zmag_avg,29_press_abs_avg,29_press_diff_avg,29_temperature_avg,30_pitch_avg,30_pitchspeed_avg,30_roll_avg,30_rollspeed_avg,30_yaw_avg,30_yawspeed_avg,33_alt_avg,33_hdg_avg,33_relative_alt_avg,33_vx_avg,33_vy_avg,33_vz_avg,label,diagnosis
2022-12-29 12:42:15,310.1342222222222,-0.0177777777777742,88.0,51.0,23528.0,4883.0,99.0,54.5,50.0,4887.888888888889,-160.2422666666667,0.1918358666666666,0.000272372275,-0.01119586,-1.12094175,42.7675,0.0107735825,-0.0020719715,-1.11626325,0.0264380887499999,0.0256643199999999,0.04014305375,-12.1875,5.1875,102.6875,-1.4375,8.0625,245.0625,-1064.625,-0.1875,331.3125,1022.0658125,-0.1118701,3551.125,0.0107735825,0.0083516329999999,-0.0020719715,0.006189188,-1.11626325,-0.00059404245,42760.0,29604.5,-120.0,8.0,28.5,-40.0,0,None
2022-12-29 12:42:16,311.09644444444444,0.1088888888888845,88.0,56.0,23519.5,4886.5,99.0,53.77777777777778,50.0,4888.333333333333,-160.65065555555557,0.1681614222222222,0.0002576779199999,-0.0122957419999999,-1.1213988,42.646,0.011029278,-0.0021824144,-1.1165606,0.0420581644444444,0.0538217377777777,0.1250923522222222,-14.22222222222222,5.0,101.66666666666669,-2.333333333333333,7.555555555555555,245.44444444444449,-1067.7777777777778,4.111111111111111,331.6666666666667,1022.0525555555556,-0.1252690888888888,3552.777777777778,0.011029278,0.0090481248,-0.0021824144,0.0068279185999999,-1.1165606,-0.006386071362,42630.0,29604.0,-250.0,6.5,29.0,-41.0,0,None
2022-12-29 12:42:17,312.0642,0.0980999999999994,88.0,158.0,23479.5,4885.0,99.0,132.8,50.0,4891.4,-160.27732,0.1965683,0.00088016494,-0.011580392,-1.1230184,42.536,0.010952558,-0.0025402404,-1.1171406,0.22143657,0.3053272999999999,1.6489207499999998,-23.1,7.9,97.0,-1.3,3.5,243.3,-1069.8,16.8,332.0,1022.0599,-0.11805467,3554.9,0.010952558,0.0050391175,-0.0025402404,0.005193300376,-1.1171406,-0.0027371128,42530.0,29600.5,-350.0,6.0,30.0,-41.5,0,None
2022-12-29 12:42:18,313.065,0.0999999999999999,88.0,1033.0,23242.0,4888.5,99.0,1352.0,52.1,4891.8,-160.2255,0.2406467199999999,0.019687752,-0.0064434631999999,-1.1252144000000002,42.578,0.0299131919999999,0.0034929145999999,-1.1170736,0.47099146,0.8770380300000001,4.7615665,-30.6,35.7,75.2,-16.0,13.0,229.4,-1167.2,8.2,301.1,1022.2549,0.077078126,3557.0,0.0299131919999999,-0.020268806,0.0034929145999999,0.0087166272,-1.1170736,-0.0021664678,42710.0,29605.0,-170.0,-2.5,48.5,36.0,0,None
2022-12-29 12:42:19,314.073,0.1020000000000038,87.0,1792.5,23050.5,4879.5,99.0,1759.1,56.7,4888.2,-162.27767999999998,0.3116422599999999,-0.048172280674,-0.0319235333999999,-1.1439356,44.04,-0.037389984,-0.0231119693999999,-1.1322329999999998,0.4013900299999999,1.292434,5.416192700000001,-34.1,-42.9,86.0,-16.0,-36.5,227.4,-1199.6,-0.5,281.3,1021.8774999999998,-0.3003203099999999,3558.9,-0.037389984,-0.012916088,-0.0231119693999999,-0.0016481439999999,-1.1322329999999998,-0.0177975999999999,44660.0,29518.5,1780.0,-7.5,36.5,195.0,0,None
2022-12-29 12:42:20,315.0856,0.1000999999999976,86.0,1558.0,23067.5,4883.5,99.0,1633.2,61.5,4890.0,-154.20208,0.3556102199999999,-0.055454336,-0.0105478004,-1.1188148,47.30800000000001,-0.04490782,-0.0008053229999999,-1.1520572000000002,0.41513441,1.5654733,6.5540357,-45.9,25.9,99.3,-12.8,-9.4,219.3,-1107.4,17.5,289.2,1021.5078,-0.67018748,3561.0,-0.04490782,-0.014672678,-0.0008053229999999,-0.0024843039999999,-1.1520572000000002,0.021076974,48220.0,29347.5,5340.0,-13.0,1.0,271.5,0,None
2022-12-29 12:42:21,316.06511111111115,0.1088888888888909,85.5,1185.0,23185.5,4886.5,99.0,1168.888888888889,65.33333333333333,4889.222222222223,-141.6716111111111,0.3776908222222223,-0.046491354,0.0171607224,-1.1543717999999998,51.07,-0.0350468062,0.0276849776,-1.1963937999999998,0.4905358444444444,1.0941365111111112,5.281594666666667,-36.05555555555556,82.55555555555556,99.55555555555556,-45.77777777777778,71.66666666666667,243.77777777777777,-915.6111111111112,-39.888888888888886,291.8333333333333,1021.173111111111,-1.0047872777777778,3562.777777777778,-0.0350468062,0.111373186,0.0276849776,0.12365875,-1.1963937999999998,-0.0399992434,51070.0,29110.0,8190.0,-22.0,-24.0,227.0,0,None
2022-12-29 12:42:22,317.082,0.1019999999999981,85.0,1207.0,23161.0,4879.0,99.0,1207.9,68.5,4889.9,-128.02798,0.3882574,-0.0079947502,0.07935194,-1.1393536000000002,52.94199999999999,0.0015210131999999,0.089601898,-1.1762144,0.5611896200000001,1.2385881,7.2488642,-23.2,51.9,78.8,-47.7,6.4,263.2,-960.4,46.6,283.0,1020.9698,-1.2082032,3565.1,0.0015210131999999,-0.0117406133999999,0.089601898,0.0195807659999999,-1.1762144,0.0381215667999999,52640.0,29201.5,9760.0,-24.5,-24.5,92.5,0,None
2022-12-29 12:42:23,318.084,0.0999999999999999,84.5,1341.0,23123.5,4887.5,99.0,1157.8,72.0,4891.2,-112.58242,0.3830817199999999,0.0120697136,0.071963428,-1.1279945999999998,53.5,0.02177397936,0.082995746,-1.159554,0.4565075299999999,1.4391045999999998,8.79663,-24.7,-25.8,87.7,-33.7,58.4,265.3,-1048.2,1.8,286.3,1020.8837,-1.2941876000000003,3567.3,0.02177397936,0.0866547986,0.082995746,-0.0018794159999999,-1.159554,-0.004609552,53400.0,29335.0,10520.0,10.5,-2.0,13.0,0,None
2022-12-29 12:42:24,319.10400000000004,0.104000000000002,84.0,1136.0,23177.0,4880.0,99.0,1150.6,75.2,4885.1,-93.605234,0.37057706,-0.00156348696,0.0512391619999999,-1.1185854000000002,53.642,0.0072262886,0.064777528,-1.1465398,0.4916942100000001,1.22744884,9.102761,-29.6,-27.7,91.55,-48.25,-6.05,255.25,-1059.05,-4.6,287.6,1020.8574,-1.3204336,3569.45,0.0072262886,-0.0221684059999999,0.064777528,-0.037768076,-1.1465398,-0.0102140308,53636.66666666666,29410.666666666668,10756.666666666666,32.666666666666664,38.0,-20.0,0,None
2022-12-29 12:42:25,320.12410000000006,0.0999999999999999,84.0,1136.5,23152.5,4880.0,99.0,1167.5,78.5,4883.2,-72.893696,0.3710731599999999,-0.015792638,0.041848168,-1.12684,53.58,-0.0073923702,0.053649092,-1.1502192000000002,0.54846953,1.0792527900000002,8.0361999,-44.0,-28.5,93.1,-45.0,-34.2,251.8,-1059.2,2.4,297.5,1020.8414,-1.3365235000000002,3571.5,-0.0073923702,-0.0342938,0.053649092,-0.0071883817999999,-1.1502192000000002,-0.0044457874,53565.0,29396.5,10685.0,36.5,58.5,-33.0,0,None
2022-12-29 12:42:26,321.08288888888893,0.1022222222222239,83.5,1109.5,23164.0,4882.5,99.0,1151.3333333333333,81.66666666666667,4881.111111111111,-57.282034444444434,0.4168907777777777,-0.0373943299999999,0.022323638,-1.1461048,53.488,-0.028354068,0.033132102,-1.1654862,0.5072626666666666,1.4917786444444443,10.052588222222225,-46.55555555555556,30.666666666666668,101.0,-43.55555555555556,17.555555555555557,245.22222222222223,-1059.7777777777778,1.0,290.44444444444446,1020.8421111111112,-1.335989444444445,3573.555555555556,-0.028354068,0.0071356759999999,0.033132102,0.0302025664,-1.1654862,-0.0029043388,53490.0,29309.0,10610.0,25.0,53.0,-35.0,0,None
2022-12-29 12:42:27,322.0541,0.1019999999999981,83.0,1182.0,23140.5,4879.5,99.0,1256.5,84.8,4883.4,-46.426007,0.50272319,-0.041891572,0.02455771,-1.1414964,53.322,-0.033552468,0.035366408,-1.1578562,0.51771614,1.29722944,7.8112053,-49.3,-8.9,102.5,-46.7,-1.8,247.9,-1073.3,-6.9,293.4,1020.862,-1.3158515000000002,3575.8,-0.033552468,0.0017591421999999,0.035366408,-0.02414171,-1.1578562,-0.0185558156,53375.0,29372.5,10495.0,23.0,46.0,-36.0,0,None
2022-12-29 12:42:28,323.076,0.1019999999999981,83.0,1267.5,23097.0,4882.5,99.0,1228.4,88.3,4893.7,-38.620634,0.62220176,-0.033378738,0.024391084,-1.161658,53.154,-0.0250923479999999,0.034929632,-1.174373,0.5062069699999999,1.38101976,7.8786035,-47.9,19.8,95.8,-52.3,24.2,253.6,-1044.9,-11.9,300.2,1020.8757,-1.3022578,3577.5,-0.0250923479999999,0.0152886886,0.034929632,-0.003091629,-1.174373,0.0010398461999999,53200.0,29287.5,10320.0,12.5,32.5,-31.5,0,None
2022-12-29 12:42:29,324.094,0.1019999999999981,82.0,1264.0,23075.0,4879.5,99.0,1251.1,91.9,4884.9,-34.192068000000006,0.7415392800000001,-0.044469968,0.0267643279999999,-1.159006,52.998000000000005,-0.036102292,0.037350718,-1.1685594,0.50369788,1.3139524000000002,7.885774599999999,-44.4,6.35,99.0,-46.0,2.9,247.75,-1069.65,-2.15,285.85,1020.854,-1.3238632,3579.9,-0.036102292,0.0059114335999999,0.037350718,0.0223539874,-1.1685594,0.0082865088,53040.0,29292.5,10160.0,5.5,28.5,-30.5,0,None
2022-12-29 12:42:30,325.106,0.0999999999999999,82.0,1211.5,23112.0,4881.0,99.0,1200.3,95.3,4889.9,-31.55471600000001,0.86264936,-0.025931548,0.026713342,-1.1647523999999998,52.88000000000001,-0.0178465474,0.037668862,-1.1717974,0.4769762888888888,1.2391194888888888,7.427964333333332,-37.9,-6.0,92.4,-47.8,30.2,239.7,-1068.9,-9.1,290.2,1020.8507,-1.3272969,3582.2,-0.0178465474,0.016674622,0.037668862,-0.0033701952,-1.1717974,-0.018714277,52920.0,29306.5,10040.0,5.5,11.0,-33.0,0,None
2022-12-29 12:42:31,326.10800000000006,0.0999999999999999,82.0,1124.0,23087.5,4885.0,99.0,1142.7,98.6,4893.7,-29.946308,0.97763504,-0.0044918587,0.032550388,-1.1645586,52.74400000000001,0.00239957932,0.0444543439999999,-1.168813,0.4995808699999999,1.534766,10.2160972,-44.1,30.0,84.1,-40.3,-3.1,249.7,-1055.0,23.3,300.8,1020.838,-1.339875,3584.2,0.00239957932,-0.032881598,0.0444543439999999,0.0239021993999999,-1.168813,0.022377845,52775.0,29267.5,9895.0,2.5,12.5,-32.0,0,None
2022-12-29 12:42:32,327.10619999999994,0.1001000000000033,81.0,1170.5,23090.0,4886.5,99.0,1229.1,102.0,4893.3,-28.148108,1.0752818,-0.0594549479999999,0.024672822,-1.173396,52.702,-0.051184014,0.037279306,-1.1751574,0.50006628,1.2167825200000002,7.253152300000001,-45.2,-18.7,98.3,-36.5,-90.7,251.4,-1070.5,-17.9,287.1,1020.8674,-1.3104061000000002,3586.3,-0.051184014,-0.121066155,0.037279306,-0.04318478,-1.1751574,-0.0060416664,52715.0,29299.0,9835.0,3.5,35.5,-34.0,0,None
2022-12-29 12:42:33,328.105,0.0999999999999999,81.0,1428.5,22986.0,4887.0,99.0,1436.8,105.4,4888.7,-26.702006,1.1667361999999997,-0.1445166199999999,0.0212050279999999,-1.1842588,52.89,-0.13537186,0.033602914,-1.1848928,0.54717324,1.3405239000000002,7.518992799999999,-57.4,23.0,119.6,-53.8,-8.3,231.9,-1117.8,-18.4,260.8,1020.8392,-1.3387656,3588.2,-0.13537186,-0.02175773736,0.033602914,0.0111613121999999,-1.1848928,0.004850982,52765.0,29225.0,9885.0,20.0,-14.5,-7.0,0,None
2022-12-29 12:42:34,329.105,0.0999999999999999,81.0,1220.5,23035.5,4886.0,99.0,1231.5,109.2,4890.7,-25.74566,1.2552208,-0.1272207799999999,0.0497669119999999,-1.1873472,53.616,-0.1194488,0.061266018,-1.1860848000000002,0.5759016599999999,1.29922267,7.986667300000001,-71.3,13.7,123.9,-52.2,27.7,254.3,-1060.0,-2.0,275.5,1020.7636,-1.4143046,3590.2,-0.1194488,0.03037282,0.061266018,-0.045220142,-1.1860848000000002,0.0025405807999999,53400.0,29198.0,10520.0,52.5,-115.0,38.5,0,None
2022-12-29 12:42:35,330.107,0.0999999999999999,80.0,1249.0,23026.0,4883.0,99.0,1194.0,112.5,4886.4,-24.982814,1.3501135999999998,-0.144422,0.037691096,-1.1779372,54.322,-0.13783724,0.04987854,-1.1765902,0.68395125,1.2106878999999997,6.8404724,-81.7,15.3,130.7,-45.4,-14.8,250.5,-1054.5,17.6,271.7,1020.7062999999998,-1.4716719,3592.3,-0.13783724,-0.0598510818,0.04987854,0.005295932,-1.1765902,0.0188175738,54120.0,29228.0,11240.0,87.5,-176.0,36.0,0,None
2022-12-29 12:42:36,331.105,0.0999999999999999,80.0,1305.0,22984.0,4884.0,99.0,1294.7,116.1,4891.6,-24.534252,1.4481606,-0.13175974,0.010980102,-1.1820494,54.956,-0.1263074,0.0235589784,-1.1802076,0.60661071,1.1826851,7.1128444,-84.1,-44.0,125.8,-20.8,22.0,237.2,-1116.4,-10.8,267.8,1020.6758999999998,-1.5021015,3594.3,-0.1263074,0.0302987432,0.0235589784,-0.051410032,-1.1802076,-0.017728228,54765.0,29263.5,11885.0,134.0,-236.5,40.5,0,None
2022-12-29 12:42:37,332.107,0.0999999999999999,80.0,1000.5,23047.5,4876.0,99.0,1096.5,119.3,4893.7,-24.585152000000004,1.5371356,-0.13970746,-0.0361698259999999,-1.1854298,55.638,-0.134314,-0.0219683962,-1.1841946,0.7598906299999999,0.9658269899999998,8.3008163,-81.5,-14.2,132.5,-15.3,1.4,232.1,-1052.0,-1.8,298.3,1020.6305,-1.5472188,3596.3,-0.134314,-0.015403982,-0.0219683962,-0.0201014859999999,-1.1841946,0.0024321093999999,55445.0,29222.5,12565.0,161.5,-297.0,57.0,0,None
2022-12-29 12:42:38,333.107,0.0999999999999999,80.0,1109.5,23042.0,4886.5,99.0,1128.7,122.4,4889.1,-25.07448,1.6058894,-0.11470956,-0.0053358256,-1.1852818,56.372,-0.10902566,0.0070881401999999,-1.1849181999999998,0.77542346,1.13304221,7.812069099999999,-93.0,70.5,125.7,-41.2,42.8,245.1,-1072.3,9.1,308.8,1020.4756,-1.7022187,3598.5,-0.10902566,0.0379200099999999,0.0070881401999999,0.051709159,-1.1849181999999998,0.0188181308599999,56130.0,29197.0,13250.0,149.5,-373.0,56.0,0,None
2022-12-29 12:42:39,334.133,0.104000000000002,79.0,1149.0,23022.0,4892.0,99.0,1090.7,125.6,4885.4,-25.559502,1.6607652000000002,-0.1222588,0.035931002,-1.1732790000000002,57.194,-0.1169545,0.0474589459999999,-1.1744798,0.79948191,1.2811427,6.969045599999999,-110.7,18.4,127.9,-45.3,-14.3,241.2,-1059.9,-4.6,283.7,1020.3825,-1.7954141,3600.4,-0.1169545,-0.0248581979999999,0.0474589459999999,0.01562303,-1.1744798,-0.0031706447,57163.333333333336,29263.33333333333,14283.333333333334,151.33333333333334,-407.3333333333333,52.333333333333336,0,None
2022-12-29 12:42:40,335.1638888888889,0.1088888888888845,79.0,1047.0,23034.5,4885.0,99.0,1060.2222222222222,128.66666666666666,4894.777777777777,-25.79352,1.7134342222222223,-0.12678064,0.044859942,-1.1769626,58.04600000000001,-0.12103554,0.057091802,-1.1774125999999998,0.7784297888888889,1.1461176999999998,9.548686333333332,-101.88888888888889,15.61111111111111,130.66666666666666,-45.888888888888886,27.33333333333333,255.77777777777777,-1077.611111111111,4.333333333333333,290.6111111111111,1020.257277777778,-1.9204123333333327,3602.277777777778,-0.1213735799999999,0.012632096,0.056780882,0.034091346,-1.1774094,-0.0039713714799999,58010.0,29258.0,15130.0,174.0,-438.0,49.0,0,None
2022-12-29 12:42:41,336.13500000000005,0.1020000000000038,79.0,893.5,23070.5,4896.5,99.0,1034.8,131.7,4890.7,-25.704588,1.7618821999999998,-0.1241742399999999,0.059611682,-1.1708162000000002,58.85,-0.1197531999999999,0.0735103159999999,-1.1716312,0.8511527400000001,1.1778653,9.141561200000002,-129.5,26.0,130.7,-63.2,-13.4,257.1,-1040.1,0.7,276.3,1020.1118,-2.0659842,3604.1,-0.1197531999999999,0.0041250639999999,0.0735103159999999,0.04620179,-1.1716312,0.0023015555999999,58610.0,29282.0,15730.0,191.0,-450.0,46.5,0,None
2022-12-29 12:42:42,337.1038888888889,0.1022222222222176,79.0,1076.5,23039.5,4892.0,99.0,1004.5555555555557,134.33333333333334,4892.444444444444,-25.36269555555556,1.8147582222222225,-0.1356464,0.0665987975,-1.1654935,59.6075,-0.130661175,0.0782509475,-1.1657795,0.8373943111111112,1.2969272222222223,9.143862666666667,-137.11111111111111,-29.22222222222222,138.33333333333334,-41.44444444444444,10.88888888888889,261.22222222222223,-1065.4444444444443,-5.444444444444445,272.22222222222223,1020.0654444444444,-2.1124912222222223,3605.777777777778,-0.130661175,0.0311163882499999,0.0782509475,-0.024115746,-1.1657795,-0.0038328887499999,59455.0,29315.0,16575.0,213.0,-454.5,36.5,0,None
2022-12-29 12:42:43,338.0732,0.1021000000000014,79.0,1012.5,23051.0,4898.0,99.0,1014.7,137.0,4892.4,-24.880286,1.868932,-0.1358238199999999,0.028918808,-1.1732086,60.264,-0.13145626,0.0430264259999999,-1.1723579999999998,0.8432970900000001,1.2703788,9.5016284,-132.6,-7.3,136.3,-65.5,8.8,256.9,-1084.6,-15.4,293.5,1004.1040444444465,-2.2044372999999995,3607.6,-0.13145626,0.0123337339999999,0.0430264259999999,-0.024030224,-1.1723579999999998,-0.012291205554,60195.0,29277.0,17315.0,235.0,-469.5,38.5,1,29_press_abs_avg_drift_-0.5700499999999269
2022-12-29 12:42:44,339.122,0.104000000000002,79.0,1022.5,23035.5,4881.5,99.0,1044.6,139.9,4889.3,-24.391726,1.9218934,-0.1196983666666666,0.0195500994666666,-1.17683,61.10666666666666,-0.1159067666666666,0.0329542928333333,-1.175836,1.0136596800000002,1.4509072,7.4186464,-95.85,-58.95,129.65,-17.15,-19.05,254.95,-1054.7,-6.9,289.7,1003.5339944444465,-2.2647422,3609.6,-0.1159067666666666,0.02380665,0.0329542928333333,-0.0116563298333333,-1.175836,-0.0126079873333333,60960.0,29268.5,18080.0,250.0,-485.5,43.0,1,29_press_abs_avg_drift_-0.5700499999999269
2022-12-29 12:42:45,340.116,0.1044444444444441,79.0,1306.5,22960.5,4873.5,99.0,1300.7777777777778,143.33333333333334,4887.0,-23.947842222222224,1.9657583333333333,-0.12280045,-0.00482585225,-1.1958245,62.0375,-0.119015425,0.00984523675,-1.194308,0.8067700333333332,1.365775444444444,7.518290222222221,-132.88888888888889,65.44444444444444,123.22222222222224,-66.88888888888889,71.66666666666667,233.44444444444449,-1041.6666666666667,-18.33333333333333,289.3333333333333,1002.9639444444466,-2.492656,3611.0,-0.119015425,0.02580684,0.00984523675,0.12797963,-1.194308,0.0012229075,61820.0,29179.5,18940.0,242.5,-505.5,63.0,1,29_press_abs_avg_drift_-0.5700499999999269
2022-12-29 12:42:46,341.09200000000004,0.1039999999999963,78.0,874.0,23055.5,4891.5,99.0,965.6,146.2,4890.6,-23.613792,1.9913454,0.038586306,0.036687442,-1.1847835999999998,63.13,0.040617472,0.050150334,-1.1823938,1.06473326,1.3228136999999998,8.249203,-94.3,16.15,83.1,-23.4,183.6,252.2,-1119.4,9.15,304.4,1002.3938944444467,-2.467414,3613.1,0.040617472,0.195932728,0.050150334,0.0215534914,-1.1823938,0.0106926466,63025.0,29214.0,20145.0,215.5,-484.5,74.5,1,29_press_abs_avg_drift_-0.5700499999999269
2022-12-29 12:42:47,342.1169,0.1023000000000024,78.0,1137.0,22998.5,4893.0,99.0,1116.9,149.4,4891.2,-22.914726,2.0030692,0.075591596,0.026038142,-1.1633418,64.17,0.076803568,0.0404200079999999,-1.1585216,0.7821969111111111,1.196109,9.152065555555556,-100.4,-0.4,70.1,-43.6,-28.8,250.0,-1087.1,9.7,315.1,1001.8238444444468,-2.6534141,3614.7,0.076803568,-0.06456328696,0.0404200079999999,0.01584659118,-1.1585216,0.0080124956,64050.0,29359.0,21170.0,159.5,-329.5,89.5,1,29_press_abs_avg_drift_-0.5700499999999269
2022-12-29 12:42:48,343.137,0.1019999999999981,78.0,958.5,23058.5,4878.5,99.0,974.0,152.3,4885.4,-22.132902,2.0148372,0.0559864083333333,0.03683336,-1.1668706666666664,65.82666666666667,0.0609251399999999,0.0512716516666666,-1.1586656666666666,0.59222912,1.6816392999999998,14.016319,-72.9,34.6,76.1,-46.1,37.0,247.3,-1048.2,-3.4,310.8,1001.2537944444468,-2.8868906,3616.4,0.0609251399999999,0.0577789983333333,0.0512716516666666,0.0722683486833333,-1.1586656666666666,-0.011064369,65510.0,29364.5,22630.0,99.0,-208.0,117.0,1,29_press_abs_avg_drift_-0.5700499999999269
2022-12-29 12:42:49,344.1101111111111,0.1022222222222239,78.0,1069.0,23043.0,4886.0,99.0,1096.888888888889,155.0,4887.555555555556,-21.35181333333334,2.0301404444444446,0.1028109425,0.0506611749999999,-1.167705,67.39250000000001,0.10864719,0.0640823925,-1.1565577500000002,0.5130749555555556,1.693385333333333,13.439403333333336,-56.22222222222222,-1.6666666666666667,58.44444444444444,-40.0,15.666666666666666,254.5555555555556,-1013.2222222222222,6.666666666666667,304.3333333333333,1000.6837444444469,-3.0827603333333333,3617.777777777778,0.10864719,0.014069925,0.0640823925,-0.00490492,-1.1565577500000002,-0.02352059925,67100.0,29372.5,24220.0,63.5,-102.5,98.5,1,29_press_abs_avg_drift_-0.5700499999999269
2022-12-29 12:42:50,345.07699999999994,0.1019999999999981,78.0,1156.5,23027.0,4886.0,99.0,1159.5,157.9,4885.2,-20.599748,2.0492496,0.060162334,0.039488416,-1.1590798000000002,68.752,0.066539826,0.052452952,-1.1473804,0.478552,1.3680952300000002,9.5636788,-41.6,-28.1,77.8,-32.2,-4.4,256.3,-1050.6,4.3,303.3,1000.113694444447,-3.254578,3619.5,0.066539826,-0.001238808,0.052452952,-0.0268668703912,-1.1473804,0.0047937702,68610.0,29420.5,25730.0,42.5,7.5,96.0,1,29_press_abs_avg_drift_-0.5700499999999269
2022-12-29 12:42:51,346.097,0.1020000000000038,78.0,1251.0,22977.5,4890.5,98.6,1300.1,161.5,4893.1,-19.930172,2.0679672,0.0974555439999999,-0.0031920112,-1.1717364,70.24599800000001,0.102921004,0.0110743704,-1.160376,0.4025977099999999,1.0839224,4.6767089,-27.95,-13.1,60.0,-20.3,37.85,230.0,-1072.55,-26.35,299.85,999.5436444444471,-3.43360535,3621.25,0.102921004,0.0498938119999999,0.0110743704,-0.0023315119999999,-1.160376,-0.0249042542,70105.0,29362.0,27225.0,8.0,82.5,93.5,1,29_press_abs_avg_drift_-0.5700499999999269
2022-12-29 12:42:52,347.117,0.1019999999999981,78.0,1245.5,22982.0,4894.0,98.0,1223.3,165.2,4887.7,-19.583068000000004,2.0804914000000005,0.0149653899999999,-0.0005384764,-1.1874698,71.712,0.02176304,0.012133121,-1.1797487999999998,0.44288599,1.0508986,3.650709,-21.7,37.5,75.8,-13.3,-251.2,237.5,-1021.7,-14.9,312.1,998.9735944444471,-3.5528357999999995,3622.8,0.02176304,-0.230697288,0.012133121,0.033044276,-1.1797487999999998,-0.0201842299999999,71585.0,29255.0,28705.0,-46.5,167.5,94.5,1,29_press_abs_avg_drift_-0.5700499999999269
2022-12-29 12:42:53,348.137,0.1019999999999981,78.0,1000.5,23050.5,4878.5,98.0,982.4,168.3,4888.5,-19.442502,2.0868213999999994,-0.1119251433333333,0.0030428358333333,-1.2010805,72.65166666666666,-0.10182418,0.014424992,-1.1977631666666666,0.60141975,1.0099029,4.092900299999999,-17.3,-33.9,122.8,-13.8,154.4,245.3,-943.3,20.6,296.9,998.4035444444472,-3.665781,3624.3,-0.10182418,0.1063054766666666,0.014424992,-0.0299464094833333,-1.1977631666666666,-0.0030921716666666,72620.0,29119.5,29740.0,-21.5,107.0,14.5,1,29_press_abs_avg_drift_-0.5700499999999269
2022-12-29 12:42:54,349.1101111111111,0.1022222222222239,78.0,1151.5,23009.0,4889.5,98.0,1160.2222222222222,171.11111111111111,4889.222222222223,-19.50311555555556,2.0913856666666666,0.0232682234999999,-0.02161310875,-1.1714455,72.4175,0.0280977175,-0.0100495864999999,-1.17022375,0.5845107111111112,1.3158473333333334,8.79101,-24.666666666666668,40.0,82.33333333333333,-27.22222222222222,32.0,233.88888888888889,-1057.6666666666667,43.333333333333336,316.8888888888889,997.8334944444473,-3.669166666666667,3626.0,0.0280977175,0.042624255,-0.0100495864999999,0.0622488025,-1.17022375,0.0575449625,72505.0,29252.0,29625.0,-17.0,53.5,-61.5,1,29_press_abs_avg_drift_-0.5700499999999269
2022-12-29 12:42:55,350.07699999999994,0.1019999999999981,78.0,1199.5,22983.5,4889.0,98.0,1190.4,174.3,4892.5,-19.72016200000001,2.0946236,-0.0408847419999999,0.025277214,-1.1326079999999998,72.11,-0.035339104,0.0367326959999999,-1.1355252,0.55663716,1.13458493,6.4203231,-26.6,9.6,104.8,-35.7,-40.4,244.5,-1013.1,14.9,290.5,997.2634444444474,-3.6455937,3627.4,-0.035339104,-0.0676166412,0.0367326959999999,0.0044532519999999,-1.1355252,0.00751882,72140.0,29495.5,29260.0,-31.5,61.5,-61.5,1,29_press_abs_avg_drift_-0.5700499999999269
2022-12-29 12:42:56,351.115,0.104000000000002,78.0,1086.5,23003.0,4889.5,98.0,1160.6,177.6,4886.9,-19.961162,2.097403,-0.055998482,0.0380507736,-1.1378362,71.92999799999998,-0.050028458,0.0505272619999999,-1.143572,0.59245101,1.16848071,7.0969077,-44.1,184.45,117.25,-23.0,-9.2,250.9,-1089.05,-6.75,288.35,996.6933944444474,-3.5883321,3629.05,-0.050028458,0.0011210456,0.0505272619999999,0.170762688,-1.143572,-0.0002104,71920.0,29454.5,29040.0,-4.5,40.5,-39.0,1,29_press_abs_avg_drift_-0.5700499999999269
2022-12-29 12:42:57,352.137,0.1019999999999981,78.0,1056.0,23020.5,4872.5,98.0,1028.2,180.9,4886.5,-20.304244,2.1019162,-0.070016025,0.2136775,-1.1375653333333335,72.05,-0.0645917816666666,0.2238527333333333,-1.1467283333333331,0.5818795299999999,1.1386270399999998,11.006057099999998,-51.2,-31.2,116.8,-41.7,23.9,292.3,-1036.7,-4.1,225.7,1018.5914,-3.5864997,3630.6,-0.0645917816666666,0.0108495186666666,0.2238527333333333,-0.0435862704999999,-1.1467283333333331,-0.0003915916666666,72035.0,29435.0,29155.0,107.5,51.5,-39.0,0,None
2022-12-29 12:42:58,353.1102222222221,0.1022222222222239,78.0,1005.0,23022.5,4885.0,98.0,997.4444444444443,183.44444444444449,4886.444444444444,-20.749814444444446,2.110048555555556,-0.024436803,-0.1006903275,-1.138373,72.05,-0.01955629575,-0.08385869,-1.144122,0.4875219666666667,1.236026422222222,11.478533222222222,-43.0,-362.1111111111111,115.55555555555556,-26.22222222222222,85.55555555555556,246.22222222222223,-1074.0,23.88888888888889,320.3333333333333,1018.619,-3.5587671111111114,3631.8888888888887,-0.01955629575,0.069758075,-0.08385869,-0.352898135,-1.144122,0.01270757975,72065.0,29434.5,29185.0,245.5,88.5,-42.0,0,None
2022-12-29 12:42:59,354.07699999999994,0.1019999999999981,77.5,1166.5,22968.5,4892.5,98.0,1120.1,186.3,4886.6,-21.092942,2.1220632,-0.0132786568,-0.20100454,-1.1314272,71.982,-0.008001537,-0.18061184,-1.1408442,0.50826893,1.14102263,9.4734319,-50.4,17.0,100.8,-37.2,-25.0,161.8,-1053.4,-22.0,347.3,1018.5919,-3.5859062,3633.4,-0.008001537,0.0052013659999999,-0.18061184,0.032263626,-1.1408442,-0.032960622,71990.0,29488.0,29110.0,85.5,38.5,-42.0,0,None
2022-12-29 12:43:00,355.107,0.1020000000000038,77.0,1122.0,22967.5,4887.5,98.0,1143.1,189.5,4886.1,-21.319864000000003,2.1289975999999995,-0.027006858,-0.083582374,-1.1533296,71.961998,-0.0193227905999999,-0.070660923,-1.1654002,0.5198006900000001,1.10222341,6.707457100000001,-44.65,154.4,99.6,-2.6,16.2,209.25,-1050.35,-39.25,330.7,1018.6139,-3.5639491,3635.05,-0.0193227905999999,0.0010529033999999,-0.070660923,0.156250594,-1.1654002,-0.0435571934,71965.0,29345.5,29085.0,-89.0,-24.5,-38.5,0,None
2022-12-29 12:43:01,356.10900000000004,0.0999999999999999,77.0,1112.0,22993.5,4891.5,98.0,1143.8,192.8,4889.7,-21.5468,2.1331588000000004,0.0235385216,0.02488442474,-1.1771628,71.96000000000001,0.031268368,0.033584776,-1.1889248,0.4725234899999999,0.9881522100000002,7.135271400000001,-42.7,20.7,74.8,-1.3,149.1,241.7,-1061.3,1.6,314.3,1018.5854,-3.5924295,3636.4,0.031268368,0.1440119799999999,0.033584776,0.039811468,-1.1889248,-0.0014801799999999,71955.0,29178.5,29075.0,-115.0,-23.5,-37.0,0,None
2022-12-29 12:43:02,357.1112,0.1000999999999976,77.0,1220.0,22962.0,4876.0,98.0,1186.6,195.9,4891.0,-21.80096200000001,2.1375595999999994,0.086193048,-0.0110100659999999,-1.1721644000000002,71.99,0.09204071,-0.00055658092,-1.1822106,0.48253038,1.05070475,5.625616,-27.6,-2.4,53.2,-16.7,-136.9,241.6,-1065.2,-11.7,324.2,1018.5540999999996,-3.6237343,3637.9,0.09204071,-0.0933853819999999,-0.00055658092,-0.030131849,-1.1822106,-0.0112996986,71985.0,29241.0,29105.0,-133.5,74.0,-39.0,0,None
2022-12-29 12:43:03,358.14,0.104000000000002,77.0,1081.0,22951.5,4889.0,98.0,1094.3,199.4,4888.5,-22.059924,2.1438432,-0.0990661819999999,0.059332996,-1.1669054,72.03800000000001,-0.088037668,0.069527644,-1.1778454,0.5412873899999999,1.0324604000000002,5.405244300000001,-38.5,36.6,114.7,-18.0,-66.6,252.9,-1079.2,21.3,277.2,1018.5787,-3.5992108000000003,3639.3,-0.088037668,-0.111531808,0.069527644,0.080027222,-1.1778454,0.0190429269999999,72035.0,29247.0,29155.0,-132.0,100.0,-39.5,0,None
2022-12-29 12:43:04,359.14000000000004,0.1088888888888845,77.0,1090.0,22938.0,4894.0,98.0,1111.888888888889,202.44444444444449,4890.111111111111,-22.39249444444444,2.1500954444444447,-0.14400804,0.00482347276,-1.1519106,72.006,-0.13403272,0.0168119963999999,-1.1650796,0.6980144444444445,1.219566711111111,7.680854666666666,-55.0,-25.83333333333333,131.44444444444446,-17.444444444444443,-62.0,236.5,-1073.2222222222222,20.88888888888889,284.77777777777777,1018.641388888889,-3.536479944444445,3640.444444444444,-0.13403272,-0.0400565852,0.0168119963999999,-0.0063033289999999,-1.1650796,0.014490582,72015.0,29317.5,29135.0,-58.0,32.0,-42.5,0,None
2022-12-29 12:43:05,360.1333333333333,0.1088888888888909,77.0,1125.0,22950.5,4883.0,98.0,1069.0,205.3333333333333,4889.0,-22.79088111111112,2.162715666666667,-0.0345308859999999,0.0610850939999999,-1.1436655999999998,71.91799799999998,-0.0272310659999999,0.072959754,-1.1618543999999995,0.6948724111111112,1.199828222222222,8.085500444444445,-68.55555555555556,76.66666666666667,122.66666666666669,-40.55555555555556,294.94444444444446,254.38888888888889,-1060.611111111111,-54.27777777777778,280.3333333333333,1018.6575,-3.520347222222222,3642.1666666666665,-0.0272310659999999,0.25708636,0.072959754,0.044905508,-1.1618543999999995,-0.0577764439999999,71925.0,29367.0,29045.0,-11.5,-61.5,-29.0,0,None
2022-12-29 12:43:06,361.134,0.104000000000002,77.0,1179.5,22928.0,4885.5,98.0,1175.7,208.5,4886.6,-23.226984,2.1784677999999995,-0.0082338675999999,0.023211524,-1.05972816,71.862,-0.0057257821999999,0.035939644,-1.0786498000000002,0.95069611,1.6718978999999998,9.0564287,-57.1,-37.8,96.6,0.9,-224.3,244.2,-1058.9,211.3,309.8,1018.6241000000002,-3.5538985,3643.4,-0.0057257821999999,-0.215470056,0.035939644,-0.070236676,-1.0786498000000002,0.21788558,71865.0,29694.0,28985.0,12.5,34.5,-27.5,0,None
2022-12-29 12:43:07,362.12444444444446,0.1044444444444441,77.0,1016.0,22982.0,4891.5,98.0,1059.0,211.5555555555556,4892.777777777777,-23.61930555555556,2.195489666666667,-0.1000585525,-0.01758464,-1.028894375,71.95500000000001,-0.0927396325,-0.0038847235,-1.049020875,0.5870824000000001,1.1321866444444444,7.972666111111112,-47.77777777777778,-48.66666666666666,161.11111111111111,-35.0,116.0,226.3333333333333,-1017.7777777777778,-300.77777777777777,298.44444444444446,1018.610222222222,-3.567682,3644.555555555556,-0.0927396325,0.1138905949999999,-0.0038847235,-0.06569121,-1.049020875,-0.2857470975,71955.0,29872.5,29075.0,37.0,11.0,-32.0,0,None
2022-12-29 12:43:08,363.0955555555556,0.111111111111111,77.0,1046.5,22954.0,4902.0,98.0,994.5555555555557,214.44444444444449,4891.888888888889,-24.10612555555556,2.2116334444444443,-0.037754832,-0.00767860198,-1.3889172,71.986,-0.0283379419999999,0.003416252,-1.4111611999999998,0.7144514555555556,1.3548808777777777,12.559250333333331,-64.83333333333333,41.22222222222222,38.55555555555556,-22.27777777777778,22.72222222222222,247.5555555555556,-1069.9444444444443,-121.38888888888889,316.0,1018.5819444444444,-3.5960026666666667,3646.1111111111113,-0.0283379419999999,-0.004094598,0.003416252,0.016177246,-1.4111611999999998,-0.1822970514,71990.0,27750.5,29110.0,10.5,-11.5,-38.5,0,None
2022-12-29 12:43:09,364.114,0.1039999999999963,76.5,1132.0,22919.5,4887.5,98.0,1054.0,217.4,4888.3,-24.620062,2.2261834,-0.025992608,0.0412865959999999,-1.3527588,72.006,-0.0164294376,0.0521287859999999,-1.3756419999999998,0.5881324900000001,1.16172826,10.1952234,-55.9,24.9,38.1,-45.25,4.05,253.55,-1010.2,29.9,309.75,1018.51005,-3.66783975,3647.6,-0.0164294376,0.0224597962,0.0521287859999999,0.0321243752,-1.3756419999999998,0.038844839,72000.0,28145.5,29120.0,2.0,7.0,-46.5,0,None
2022-12-29 12:43:10,365.1066666666667,0.1066666666666706,76.5,737.0,23010.5,4885.0,98.0,765.8888888888889,219.77777777777777,4897.444444444444,-25.013676666666672,2.239662222222222,-0.0328576427999999,0.0416679,-1.3592650000000002,71.542,-0.0221912724,0.051945078,-1.3835464,0.7691239444444445,1.4009208888888889,9.050028,-46.55555555555556,-3.888888888888889,45.66666666666666,-18.22222222222222,50.44444444444444,269.1111111111111,-974.5555555555557,-3.555555555555556,315.8888888888889,1018.5833333333334,-3.5945224444444444,3648.6666666666665,-0.0221912724,0.019468924,0.051945078,0.0062085218,-1.3835464,-0.0042378979999999,71470.0,28077.5,28590.0,10.0,14.0,-135.0,0,None
2022-12-29 12:43:11,366.11800000000005,0.1060000000000002,77.0,706.0,23021.0,4891.5,98.0,778.8,222.0,4894.4,-25.285662,2.2551938,-0.0007245895999999,0.0305370954,-1.3374448,70.29599999999999,0.0087767145999999,0.0409420324,-1.3606718,0.7942621099999999,1.4363861999999998,9.14655,-24.75,-41.95,39.05,-15.0,-1.4,267.0,-1063.5,-7.45,311.35,1018.818,-3.35987115,3650.1,0.0087767145999999,0.0115642374,0.0409420324,-0.0268415414,-1.3606718,0.0002314523999999,70170.0,28212.5,27290.0,38.5,32.0,-167.0,0,None
2022-12-29 12:43:12,367.156,0.0999999999999999,77.0,658.0,23039.5,4891.5,98.0,719.7,224.1,4897.3,-25.460695000000005,2.2654780000000003,-0.0165800328,-0.00741694796,-1.3597054,68.912,-0.0060063098,0.0039809516,-1.3830424,0.80885933,1.5484699999999998,11.0485412,-41.8,-8.8,38.4,-21.7,-10.9,249.7,-1073.1,-17.9,321.0,1018.9884,-3.1895624,3651.4,-0.0060063098,-0.00150355,0.0039809516,-0.019378766,-1.3830424,-0.01995581258,68790.0,28072.0,25910.0,40.0,46.5,-163.5,0,None
2022-12-29 12:43:13,368.1111111111111,0.1022222222222176,77.0,896.5,22987.5,4891.5,98.0,899.6666666666666,226.11111111111111,4901.111111111111,-25.64284444444444,2.267466333333333,0.0148514637999999,-0.0208906666,-1.3615974,67.618,0.0250363952,-0.009782261,-1.385387,0.859949611111111,1.5326234444444444,12.203662333333332,-31.33333333333333,-19.0,31.77777777777778,-19.33333333333333,114.33333333333331,249.0,-1139.4444444444443,21.55555555555556,329.3333333333333,1019.1233333333334,-3.054574666666667,3652.777777777778,0.0250363952,0.0885847479999999,-0.009782261,-0.0417648394,-1.385387,0.0161572441999999,67515.0,28069.0,24635.0,19.5,51.5,-139.0,0,None
2022-12-29 12:43:14,369.1,0.1060000000000002,77.0,1201.5,22916.5,4892.5,98.0,1236.7,229.3,4891.7,-25.909550000000003,2.2652955999999995,-0.0610144362,0.00114850872,-1.3363094,67.03,-0.0518497511999999,0.012296554,-1.3609934,0.69806112,1.28025935,9.5346486,-53.65,67.0,39.3,-33.25,-160.4,240.4,-1100.95,26.35,304.85,1019.10355,-3.07430075,3654.0,-0.0518497511999999,-0.177619432,0.012296554,0.081557444,-1.3609934,0.0158458340799999,67025.0,28218.0,24145.0,-20.5,84.5,-38.5,0,None
2022-12-29 12:43:15,370.1066666666667,0.1044444444444441,76.0,1020.0,22949.0,4876.0,98.0,1015.5555555555557,232.44444444444449,4893.777777777777,-26.23966,2.264553555555556,-0.1008862099999999,0.0248961124999999,-1.34976425,67.275,-0.0897423675,0.0346584525,-1.3746865,0.4919598,1.1247561888888888,10.370444,-44.888888888888886,5.888888888888889,69.88888888888889,-49.22222222222222,135.66666666666666,264.22222222222223,-1027.2222222222222,-33.55555555555556,302.77777777777777,1019.016,-3.1619356666666665,3655.555555555556,-0.0897423675,0.1404617325,0.0346584525,0.005506052,-1.3746865,-0.02832204,67330.0,28110.0,24450.0,-9.0,2.0,-46.0,0,None
2022-12-29 12:43:16,371.112,0.1060000000000002,76.0,1033.5,22950.5,4887.0,98.0,1025.1,235.4,4890.9,-26.629046,2.2706813999999995,-0.002635234,0.036356346,-1.3452418000000002,67.478,0.0041169746,0.046998182,-1.3692258000000002,0.5420827100000001,1.6634278000000002,12.119816,-41.2,24.55,33.05,-43.7,9.35,267.3,-1046.7,22.45,300.25,1019.0798,-3.0980858,3656.6,0.0041169746,0.0135766729999999,0.046998182,0.0356214019999999,-1.3692258000000002,0.0032759328399999,67525.0,28178.5,24645.0,-2.0,11.0,-40.5,0,None
2022-12-29 12:43:17,372.1157777777778,0.1067777777777791,76.0,1003.5,22955.0,4893.0,98.0,1008.6666666666666,238.0,4888.111111111111,-26.9061,2.277515333333333,-0.035939528,0.042895812,-1.335156,67.48600000000002,-0.028599014,0.05535628,-1.3591412,0.6225479333333335,1.2875589777777778,11.169904555555554,-56.22222222222222,3.7777777777777777,49.888888888888886,-35.666666666666664,-0.8888888888888888,269.22222222222223,-1088.7777777777778,-0.4444444444444444,301.0,1019.1352222222224,-3.042534666666666,3658.222222222222,-0.028599014,0.0009108464,0.05535628,0.01782682,-1.3591412,-0.0066965699999999,67480.0,28249.0,24600.0,9.0,26.0,-57.0,0,None
2022-12-29 12:43:18,373.101,0.1019999999999981,76.0,992.5,22941.5,4891.5,98.0,999.3,240.8,4893.7,-27.088163999999995,2.2857572000000004,-0.047004424,0.031742456,-1.3428125999999998,67.36800000000001,-0.038836954,0.04460616,-1.3669238,0.56147135,1.7461904999999998,15.550867,-50.75,-8.75,50.55,-44.0,5.2,261.9,-1039.15,-5.65,303.2,1019.1393,-3.0384724499999995,3659.2,-0.038836954,-0.0060402522199999,0.04460616,-0.0061233567999999,-1.3669238,-0.01012691,67380.0,28178.5,24500.0,17.5,28.0,-44.0,0,None
2022-12-29 12:43:19,374.139,0.104000000000002,76.0,1066.5,22905.5,4882.0,98.0,1003.9,243.8,4893.1,-27.241414,2.2980974,-0.030750942,0.023803552,-1.3463722,67.332,-0.0226038696,0.036962174,-1.370252,0.56642351,1.5556187,12.242731199999998,-50.0,13.7,49.4,-40.9,58.2,256.3,-1066.7,8.6,302.6,1019.1346,-3.0431873,3660.4,-0.0226038696,0.080066444,0.036962174,0.008617645,-1.370252,0.00800518,67340.0,28143.5,24460.0,21.0,20.5,-39.5,0,None
2022-12-29 12:43:20,375.10766666666666,0.1022222222222239,76.0,961.5,22952.0,4902.0,98.0,938.2222222222222,246.3333333333333,4894.888888888889,-27.379840000000005,2.3116350000000003,-0.034412284,0.025997094,-1.323334,67.3,-0.0275093416,0.0390467199999999,-1.3474924,0.5652171666666667,1.3912946666666668,14.52045777777778,-51.22222222222222,-8.777777777777779,53.11111111111112,-51.333333333333336,-23.0,258.44444444444446,-1098.888888888889,23.444444444444443,295.77777777777777,1019.2097777777778,-2.9682291111111114,3661.6666666666665,-0.0275093416,-0.0448304268,0.0390467199999999,-0.015379674,-1.3474924,0.0123402019999999,67320.0,28253.5,24440.0,24.0,25.5,-34.0,0,None
2022-12-29 12:43:21,376.089,0.1019999999999981,76.0,1065.0,22916.5,4899.5,98.0,1064.8,249.0,4899.7,-27.467708000000005,2.3255394000000003,-0.047822508,0.019735302,-1.3360154000000002,67.214,-0.039888622,0.033191156,-1.3600678,0.53262948,1.1843173,11.2850723,-62.4,11.0,53.4,-50.9,8.7,258.1,-1093.4,-32.6,309.9,1019.1514,-3.0265312,3662.8,-0.039888622,-0.0087765125999999,0.033191156,-0.0110311216,-1.3600678,-0.0424475325999999,67215.0,28241.0,24335.0,23.0,25.0,-32.5,0,None
2022-12-29 12:43:22,377.109,0.1019999999999981,76.0,1044.0,22913.5,4901.5,98.0,1042.0,252.1,4898.7,-27.598856,2.3399268,-0.039979736,0.0247437059999999,-1.3511504,67.29400000000001,-0.032066356,0.037922576,-1.3738047999999998,0.5534014700000001,1.32441343,11.2146694,-58.95,21.1,46.25,-34.75,13.6,256.1,-1100.85,-7.3,303.15,1019.12225,-3.0557421,3664.05,-0.032066356,0.0095171096,0.037922576,0.00065880388,-1.3738047999999998,-0.00649795244,67275.0,28135.5,24395.0,15.0,23.0,-32.5,0,None
2022-12-29 12:43:23,378.139,0.104000000000002,76.0,1037.5,22927.0,4899.5,98.0,1047.2,255.1,4896.0,-27.780398,2.3549272,-0.040938738,0.02879294,-1.3536986,67.34200000000001,-0.033235454,0.041840154,-1.3758586000000002,0.59436643,1.1260068000000003,10.0426136,-52.1,11.5,48.0,-47.0,-0.2,258.9,-1053.3,-2.4,291.9,1019.1152,-3.0627266000000004,3665.3,-0.033235454,0.0045995422,0.041840154,0.0075488736,-1.3758586000000002,-0.0077518761999999,67335.0,28116.5,24455.0,11.0,26.0,-37.0,0,None
2022-12-29 12:43:24,379.151,0.0999999999999999,76.0,1085.5,22928.5,4891.5,98.0,1075.0,258.1,4895.9,-27.958452,2.370787,-0.0418615519999999,0.029346108,-1.3526266000000002,67.35,-0.0344057559999999,0.0421220739999999,-1.3739675999999998,0.58420794,1.0670899,9.670466,-63.7,11.6,49.3,-31.0,9.1,262.1,-1070.5,10.3,306.2,1019.1077,-3.0702969,3666.4,-0.0344057559999999,0.0108911546,0.0421220739999999,0.0219250956,-1.3739675999999998,0.00916589412,67350.0,28117.5,24470.0,14.0,23.5,-38.5,0,None
2022-12-29 12:43:25,380.1321111111111,0.1066666666666643,76.0,1090.0,22929.5,4899.5,98.0,1088.0,261.0,4896.0,-28.13682,2.3884746666666667,-0.047705625,0.03899776,-1.3492105,67.37,-0.0406803675,0.05188606,-1.3696242499999998,0.5175252222222223,1.3033712222222222,11.74278111111111,-68.11111111111111,9.444444444444445,48.66666666666666,-54.22222222222222,36484.933333333334,250.94444444444449,-1012.5555555555557,-7.055555555555555,286.1111111111111,1019.1098888888888,-3.067977388888889,3667.444444444444,-0.0406803675,0.001396456503,0.05188606,0.008701231,-1.3696242499999998,-0.0244991775,67365.0,28159.5,24485.0,12.0,25.0,-42.0,1,27_ygyro_avg_drift_521.0833333333334
2022-12-29 12:43:26,381.137,0.104000000000002,76.0,1115.5,22911.5,4892.5,98.0,1131.0,264.1,4888.6,-28.285938,2.4066,-0.046764816,0.039317344,-1.3566280000000002,67.35,-0.038913282,0.052280484,-1.3774981999999998,0.5229086,1.27282481,8.1319477,-58.6,-0.3,48.6,-45.9,37006.01666666667,260.4,-1051.2,1.4,287.9,1019.1254,-3.0525545000000003,3668.9,-0.038913282,0.0027850838,0.052280484,0.0136254399999999,-1.3774981999999998,0.0043542822,67350.0,28108.0,24470.0,19.0,25.5,-39.5,1,27_ygyro_avg_drift_521.0833333333334
2022-12-29 12:43:27,382.1276666666666,0.1044444444444441,76.0,1130.0,22910.0,4882.5,98.0,1126.111111111111,267.22222222222223,4894.111111111111,-28.42372444444444,2.428914222222222,-0.04230897,0.028730098,-1.3570606,67.33600000000001,-0.034445594,0.042445252,-1.3765458000000002,0.5448682333333333,0.9420148333333334,8.833920333333333,-64.0,3.2222222222222223,47.66666666666666,-59.11111111111112,37527.1,260.55555555555554,-1059.7777777777778,1.5555555555555556,297.44444444444446,1019.1186666666669,-3.0590363333333337,3669.6666666666665,-0.034445594,0.0344797676,0.042445252,-0.0078311682,-1.3765458000000002,0.00275475234,67335.0,28114.5,24455.0,19.5,25.0,-35.5,1,27_ygyro_avg_drift_521.0833333333334
2022-12-29 12:43:28,383.0990000000001,0.1019999999999981,76.0,1044.5,22934.5,4878.5,98.0,1056.1,270.1,4893.8,-28.550066000000005,2.449866,-0.051833552,0.034407064,-1.351627,67.346,-0.044384652,0.0483872839999999,-1.3701306,0.5494219900000001,1.14600392,11.0967812,-62.15,10.8,54.15,-52.85,38048.183333333334,271.4,-1041.45,9.05,307.65,1019.1433,-3.03446095,3670.8,-0.044384652,-0.0244877752,0.0483872839999999,0.0035114797999999,-1.3701306,-0.0035135716,67350.0,28152.0,24470.0,14.5,35.0,-37.0,1,27_ygyro_avg_drift_521.0833333333334
2022-12-29 12:43:29,384.121,0.1020000000000038,76.0,1014.0,22916.5,4900.5,98.0,1051.3,273.2,4897.4,-28.687528000000004,2.4722036000000003,-0.064169825,0.0304502225,-1.3496959999999998,67.314,-0.0571971479999999,0.04539105,-1.3673524,0.5775871300000001,1.17291817,10.7659314,-75.2,7.4,59.7,-48.0,38569.26666666667,256.8,-1064.5,5.2,295.3,1019.1564,-3.0214608000000007,3672.1,-0.0571971479999999,0.00228148904,0.04539105,-0.010180304,-1.3673524,0.0033432698,67320.0,28162.5,24440.0,16.0,31.0,-36.0,1,27_ygyro_avg_drift_521.0833333333334
2022-12-29 12:43:30,385.151,0.1019999999999981,76.0,1060.0,22927.5,4894.0,98.0,1061.8,276.2,4891.9,-28.872414000000003,2.4962604,-0.059793334,0.031056682,-1.3539924,67.29,-0.052678192,0.045011898,-1.3708252,0.54261336,1.17043747,11.4477819,-65.6,9.8,57.2,-50.5,39090.35,256.9,-1018.1,-0.3,297.4,1019.1471,-3.0307342000000004,3673.1,-0.052678192,-0.0025448235999999,0.045011898,0.0082724994,-1.3708252,0.0042054824,67290.0,28145.5,24410.0,13.5,21.0,-29.5,1,27_ygyro_avg_drift_521.0833333333334
2022-12-29 12:43:31,386.121,0.1022222222222239,76.0,1046.0,22939.5,4898.0,98.0,1044.5555555555557,279.0,4903.444444444444,-29.10814111111112,2.5230310000000005,-0.054313818,0.038890908,-1.353444,67.28399999999999,-0.047639736,0.053073588,-1.3702282,0.5702820111111111,1.1755532666666668,11.455096,-74.77777777777777,17.333333333333332,60.888888888888886,-54.888888888888886,39611.433333333334,263.77777777777777,-1030.111111111111,0.8888888888888888,300.0,1019.1596666666668,-3.018159555555555,3674.222222222222,-0.047639736,0.0059208552,0.053073588,0.0072817503799999,-1.3702282,0.0132088072,67285.0,28147.0,24405.0,12.0,19.5,-31.5,1,27_ygyro_avg_drift_521.0833333333334
2022-12-29 12:43:32,387.089,0.1019999999999981,75.5,1074.0,22907.0,4898.5,98.0,1095.9,281.8,4902.5,-29.330534,2.5484332000000003,-0.0602597979999999,0.035833606,-1.3579154,67.256,-0.053570676,0.050011278,-1.3730189999999998,0.55486708,1.1240672,10.7576974,-66.6,4.5,55.5,-62.6,40132.51666666667,263.2,-1043.0,-4.6,296.7,1019.1545999999998,-3.0234063,3675.5,-0.053570676,0.0116031154,0.050011278,-0.001541928,-1.3730189999999998,-0.0049458074,67260.0,28138.0,24380.0,14.5,22.5,-32.5,1,27_ygyro_avg_drift_521.0833333333334
2022-12-29 12:43:33,388.113,0.1019999999999981,75.0,1079.5,22907.5,4901.0,98.0,1104.0,285.1,4899.5,-29.565348,2.5760326,-0.0589267879999999,0.03705806,-1.36613,67.27,-0.05261409,0.0512018179999999,-1.380224,0.53306856,0.9954573799999998,7.226934099999999,-75.15,10.6,53.1,-50.7,40653.6,267.8,-1059.55,-2.65,302.25,1019.15565,-3.0221835999999995,3676.2,-0.05261409,0.019757201,0.0512018179999999,-0.0016959908,-1.380224,-0.0044862321999999,67270.0,28089.5,24390.0,17.0,21.5,-30.0,1,27_ygyro_avg_drift_521.0833333333334
2022-12-29 12:43:34,389.131,0.1020000000000038,75.0,1062.5,22915.0,4897.0,98.0,1087.8,288.2,4894.4,-29.799026000000005,2.6045144,-0.0575170479999999,0.036840554,-1.363359,67.28,-0.050778396,0.050654522,-1.3767876,0.5441176111111111,1.0549910777777778,8.043874777777779,-70.8,2.1,55.9,-60.8,41174.683333333334,262.8,-1033.7,6.1,291.2,1019.1579999999998,-3.0198514999999992,3677.3,-0.050778396,0.0057153083999999,0.050654522,-0.0005734626,-1.3767876,0.00169250038,67280.0,28111.0,24400.0,18.5,21.5,-31.0,1,27_ygyro_avg_drift_521.0833333333334
2022-12-29 12:43:35,390.10544444444446,0.1044444444444441,75.0,1045.0,22905.5,4892.0,98.0,1068.888888888889,291.0,4890.444444444444,-30.01170111111111,2.6329397777777777,-0.054703095,0.035774645,-1.35917025,67.28750000000001,-0.048190275,0.049402265,-1.371811,0.5633451777777778,1.2136374,10.999862444444442,-84.22222222222223,1.7777777777777777,55.55555555555556,-43.44444444444444,41695.76666666667,269.6666666666667,-1047.6666666666667,10.22222222222222,305.77777777777777,1019.1476666666666,-3.0300520000000004,3678.555555555556,-0.048190275,0.01024079075,0.049402265,0.00507226425,-1.371811,0.00640255275,67285.0,28141.0,24405.0,20.5,22.0,-29.5,1,27_ygyro_avg_drift_521.0833333333334
2022-12-29 12:43:36,391.081,0.1019999999999981,75.0,1055.5,22912.0,4896.0,98.0,1060.7,293.9,4899.7,-30.218931999999995,2.6623722,-0.052505465,0.03223068,-1.3583075,67.30199999999999,-0.0459159159999999,0.04676865,-1.3704468,0.53434669,1.14994976,10.4460436,-72.8,5.5,53.0,-50.8,42216.85,254.0,-1032.3,-3.4,289.5,1019.1512,-3.0266406,3679.4,-0.0459159159999999,0.0178622408,0.04676865,0.001093096,-1.3704468,-0.0120963592,67300.0,28147.5,24420.0,19.0,25.0,-38.0,1,27_ygyro_avg_drift_521.0833333333334
2022-12-29 12:43:37,392.0990000000001,0.1019999999999981,75.0,1056.0,22914.5,4895.5,98.0,1047.3,296.8,4895.2,-30.40878,2.6901082,-0.05174676,0.028934668,-1.3569294,67.298,-0.0453928679999999,0.042927378,-1.3694054,0.5500867300000001,1.1520252800000002,11.1944367,-63.6,4.15,57.25,-52.3,42737.933333333334,255.35,-1063.3,-1.45,299.15,1019.1653,-3.01259755,3680.6,-0.0453928679999999,0.0145815436,0.042927378,0.0065278842,-1.3694054,-0.0131357588,67295.0,28158.0,24415.0,18.5,24.5,-32.0,1,27_ygyro_avg_drift_521.0833333333334
2022-12-29 12:43:38,393.113,0.0999999999999999,75.0,1035.5,22912.5,4891.5,98.0,1040.3,299.8,4893.2,-30.594929999999994,2.7163026,-0.0497340399999999,0.027021894,-1.3584258,67.28800000000001,-0.04336099,0.041029046,-1.3701302,0.55945265,1.2275629,11.2507028,-69.4,13.8,49.8,-50.8,43259.01666666667,258.5,-1066.4,-4.3,298.2,1019.1539,-3.0240311,3681.3,-0.04336099,0.0086008144,0.041029046,0.020081786,-1.3701302,-0.0166264524,67285.0,28149.0,24405.0,13.5,24.0,-32.0,1,27_ygyro_avg_drift_521.0833333333334
2022-12-29 12:43:39,394.119,0.1020000000000038,75.0,1052.5,22903.5,4892.0,98.0,1046.1,302.7,4888.6,-30.781746,2.740604,-0.054572758,0.035473238,-1.361343,67.28399999999999,-0.048302046,0.0493952939999999,-1.3718972,0.58440066,1.1562774,12.2267246,-70.3,9.2,53.1,-61.8,2.7,263.1,-1048.7,4.1,299.8,1019.1605,-3.0174843,3682.7,-0.048302046,0.0207563559999999,0.0493952939999999,0.01572503,-1.3718972,0.01185205732,67285.0,28143.5,24405.0,10.5,23.0,-30.5,0,None
2022-12-29 12:43:40,395.139,0.1019999999999981,75.0,1018.0,22908.5,4890.0,98.0,1041.8,305.8,4893.5,-30.963798,2.764246,-0.0570358319999999,0.0388143259999999,-1.3604014000000002,67.284,-0.0503513359999999,0.052395368,-1.3700796,0.56879864,1.2319528099999997,12.7716661,-75.2,7.3,55.4,-47.4,5.7,258.4,-1081.0,3.7,290.1,1019.1547,-3.0231407,3683.7,-0.0503513359999999,0.0110310514,0.052395368,-0.00055786962,-1.3700796,0.0021925359999999,67285.0,28148.0,24405.0,13.0,23.0,-31.0,0,None
2022-12-29 12:43:41,396.12322222222224,0.1044444444444441,75.0,1044.0,22886.5,4896.0,98.0,1056.3333333333333,308.55555555555554,4904.222222222223,-31.14410333333333,2.7894748888888885,-0.060171004,0.041043584,-1.3591782,67.28,-0.0533728059999999,0.055777604,-1.3686016,0.5546225888888889,1.2008922222222225,10.979866,-77.88888888888889,9.444444444444445,57.55555555555556,-51.55555555555556,2.888888888888889,257.55555555555554,-1057.3333333333333,3.7777777777777777,292.55555555555554,1019.154,-3.023854,3684.555555555556,-0.0533728059999999,0.0037955654,0.055777604,0.005368951,-1.3686016,0.006495682,67275.0,28157.0,24395.0,14.0,23.0,-32.5,0,None
2022-12-29 12:43:42,397.091,0.0999999999999999,75.0,1072.5,22901.5,4903.0,98.0,1063.2,311.3,4903.0,-31.299884,2.813378,-0.0631437,0.036220248,-1.3606174,67.26599999999999,-0.0563821759999999,0.050140792,-1.3697624,0.54032541,1.16841499,10.4695372,-70.8,1.1,57.7,-69.6,9.5,256.2,-1066.1,-2.6,293.4,1019.1536,-3.0243046,3685.5,-0.0563821759999999,0.01068636022,0.050140792,0.0047072141999999,-1.3697624,-0.0061483016,67265.0,28154.0,24385.0,16.5,21.0,-30.0,0,None
2022-12-29 12:43:43,398.091,0.0999999999999999,75.0,1059.5,22889.0,4894.5,98.0,1053.5,314.3,4904.5,-31.463222,2.839122,-0.058173266,0.033387762,-1.362552,67.282,-0.051494996,0.047852012,-1.3711522,0.52926782,1.21387753,11.2351135,-75.5,8.4,53.7,-50.8,18.1,257.5,-1033.1,1.2,293.4,1019.1582,-3.0196015000000003,3686.8,-0.051494996,0.015988235,0.047852012,0.0126003378,-1.3711522,0.0002598608,67285.0,28144.0,24405.0,14.5,18.5,-32.5,0,None
2022-12-29 12:43:44,399.091,0.0999999999999999,75.0,1045.0,22879.5,4895.0,98.0,1049.6,317.2,4902.9,-31.627852,2.8647356000000004,-0.053726044,0.03783894,-1.362148,67.27,-0.046960976,0.0520018239999999,-1.369997,0.58824691,1.1545240900000002,10.8560151,-68.1,14.0,49.5,-55.9,11.1,251.9,-1074.8,4.6,299.7,1019.158,-3.0200077,3687.5,-0.046960976,0.0145853832,0.0520018239999999,0.0188478012,-1.369997,0.00633958148,67270.0,28151.5,24390.0,13.0,20.0,-29.0,0,None
2022-12-29 12:43:45,400.091,0.0999999999999999,75.0,1061.0,22887.5,4899.5,98.0,1057.0,320.1,4904.2,-31.779552,2.8897439999999994,-0.050080206,0.0380343739999999,-1.3596506000000002,67.276,-0.043342362,0.051274328,-1.3685934,0.56543802,1.13791624,11.029463,-71.9,-2.1,57.8,-55.9,15.6,259.3,-1051.1,-0.6,294.6,1019.1663999999998,-3.0114296000000005,3688.5,-0.043342362,0.023407442,0.051274328,0.0029745514,-1.3685934,-0.0023548925999999,67275.0,28161.0,24395.0,16.5,20.0,-30.0,0,None
2022-12-29 12:43:46,401.091,0.0999999999999999,75.0,1032.0,22895.0,4886.0,98.0,1051.4,323.1,4903.0,-31.914254,2.913739,-0.048847598,0.02910239,-1.359713,67.262,-0.04309962,0.04250413,-1.3688762,0.54541215,1.16595485,10.5558247,-70.5,5.3,57.6,-46.4,4.1,258.8,-1072.8,-1.3,288.5,1019.1739,-3.003961,3689.5,-0.04309962,0.005080097,0.04250413,0.005153864492,-1.3688762,-0.0050141058,67260.0,28152.5,24380.0,14.5,24.0,-28.0,0,None
2022-12-29 12:43:47,402.091,0.0999999999999999,75.0,1066.5,22865.5,4894.0,97.0,1061.2,326.0,4897.8,-32.038716,2.9358882,-0.0544686759999999,0.0301099299999999,-1.3613666,67.256,-0.04809115,0.043722488,-1.3711432,0.5526920399999999,1.1676685,10.9867117,-63.0,13.4,59.4,-55.7,9.5,257.5,-1050.0,-9.2,298.1,1019.1621,-3.0155859,3690.3,-0.04809115,0.0052288938,0.043722488,0.016226736,-1.3711432,-0.00319993748,67260.0,28148.0,24380.0,10.5,22.5,-30.5,0,None
2022-12-29 12:43:48,403.091,0.0999999999999999,75.0,1074.0,22892.5,4893.0,97.0,1072.8,329.0,4891.2,-32.162854,2.9568146,-0.04996537,0.036674842,-1.3619448,67.25399999999999,-0.0437157259999999,0.049972256,-1.3715568,0.55777707,1.2065411,10.6375699,-71.8,13.1,53.2,-37.2,9.4,259.2,-1107.3,-2.1,297.9,1019.1658,-3.0121093,3691.2,-0.0437157259999999,0.0100875638,0.049972256,0.0089914634,-1.3715568,0.0007324294,67260.0,28141.0,24380.0,10.5,22.5,-31.5,0,None
2022-12-29 12:43:49,404.0990000000001,0.1019999999999981,75.0,1074.0,22864.5,4897.0,97.0,1062.9,332.0,4895.0,-32.279462,2.9770386,-0.048410538,0.036531456,-1.3634528,67.262,-0.041883514,0.049266714,-1.372907,0.5409467200000001,1.13582473,10.808048799999998,-73.3,4.1,52.2,-50.65,3.85,262.0,-1046.9,3.95,305.8,1019.15595,-3.02191385,3692.25,-0.041883514,0.005053783,0.049266714,0.0075133596,-1.372907,-0.00556115102,67260.0,28136.5,24380.0,12.5,24.5,-33.5,0,None
2022-12-29 12:43:50,405.125,0.1020000000000038,75.0,1074.0,22882.5,4889.0,97.0,1067.6,335.1,4894.5,-32.380016,2.9965832000000003,-0.04808613,0.033402242,-1.361746,67.272,-0.041225024,0.0457405019999999,-1.3716832,0.53274792,1.21258904,10.629095799999998,-63.3,-3.0,57.5,-61.5,3.0,260.1,-1088.3,-8.7,298.7,1019.1713,-3.0064062,3693.3,-0.041225024,0.0108892524,0.0457405019999999,-0.00427360754,-1.3716832,-0.00212995442,67275.0,28139.5,24395.0,13.5,28.0,-34.5,0,None
2022-12-29 12:43:51,406.131,0.0999999999999999,75.0,1100.0,22873.5,4899.0,97.0,1103.9,338.2,4895.6,-32.462168,3.0153330000000005,-0.0509706059999999,0.0323597699999999,-1.3626745999999998,67.264,-0.044282652,0.045413094,-1.3736898,0.5380979599999999,1.0322108,9.4801958,-63.2,16.0,55.8,-67.7,3.9,252.4,-1084.6,-5.4,285.9,1019.1513,-3.0264843,3694.4,-0.044282652,0.006297905,0.045413094,0.0149220208,-1.3736898,0.0014002387999999,67260.0,28130.5,24380.0,10.5,28.0,-32.0,0,None
2022-12-29 12:43:52,407.131,0.0999999999999999,75.0,975.0,22888.5,4899.0,97.0,967.5,341.1,4897.6,-32.538594,3.03331,-0.046030838,0.032410656,-1.3637681999999998,67.28200000000001,-0.039342118,0.0456219739999999,-1.3752596,0.56812763,1.5873205,14.411658,-52.9,-2.7,57.5,-53.6,10.8,260.2,-1044.6,-4.1,302.0,1019.2045000000002,-2.9734452,3695.1,-0.039342118,0.0153596136,0.0456219739999999,-0.0116657126,-1.3752596,-0.00126708,67285.0,28115.0,24405.0,13.0,28.0,-25.0,0,None
2022-12-29 12:43:53,408.131,0.0999999999999999,75.0,1050.5,22895.0,4880.5,97.0,1063.0,343.9,4893.9,-32.607062,3.0505314,-0.049261286,0.034236242,-1.362651,67.212,-0.042309582,0.04707744,-1.3747232000000005,0.53483787,1.6572827,14.8927176,-53.5,20.2,57.6,-46.7,9.4,264.7,-1066.6,-0.3,312.3,1019.1932,-2.984656,3696.1,-0.042309582,0.0097958619999999,0.04707744,0.0182999518,-1.3747232000000005,-0.0060901118,67195.0,28129.0,24315.0,18.0,24.5,-25.0,0,None
2022-12-29 12:43:54,409.131,0.0999999999999999,75.0,1038.0,22870.5,4881.5,97.0,1033.1,346.9,4898.4,-32.671322,3.066991,-0.049239968,0.031846258,-1.3614762,67.22999999999999,-0.04227565,0.044914332,-1.3744932,0.56061599,1.07059023,12.2686342,-56.5,-0.2,58.2,-45.6,13.4,260.9,-1026.4,-7.3,305.1,1019.1408,-3.0370391000000003,3696.8,-0.04227565,0.0049522396,0.044914332,0.0042197588,-1.3744932,0.0051988206,67240.0,28118.0,24360.0,17.5,23.0,-27.0,0,None
2022-12-29 12:43:55,410.131,0.0999999999999999,75.0,1082.5,22870.5,4897.0,97.0,1049.7,349.7,4895.5,-32.733728,3.0829226,-0.043588226,0.029697122,-1.3637068,67.29,-0.0362327999999999,0.042959268,-1.3772183999999998,0.55295809,1.1235427000000002,10.0059239,-61.7,0.9,53.4,-35.2,21.9,257.9,-1024.2,7.4,292.1,1019.1648,-3.0132499,3698.0,-0.0362327999999999,0.0025818732,0.042959268,-0.0025886793999999,-1.3772183999999998,0.0019301783,67290.0,28114.0,24410.0,17.5,24.0,-33.0,0,None
2022-12-29 12:43:56,411.149,0.1019999999999981,74.5,1062.5,22875.5,4895.5,97.0,1050.5,352.7,4895.7,-32.79420599999999,3.097811,-0.0439081439999999,0.024582868,-1.364758,67.276,-0.0358709199999999,0.0378203919999999,-1.379221,0.56022953,1.6274480999999998,13.886490999999998,-57.3,1.9,51.5,-39.1,5.8,251.4,-1056.6,-5.0,309.7,1019.1636000000002,-3.0143359000000003,3698.6,-0.0358709199999999,-0.0008023263999999,0.0378203919999999,-0.0033814179999999,-1.379221,0.0078322998,67275.0,28096.5,24395.0,15.0,24.5,-31.5,0,None
2022-12-29 12:43:57,412.10766666666666,0.1022222222222239,74.0,1084.0,22872.5,4894.0,97.0,1046.111111111111,355.44444444444446,4896.111111111111,-32.85364333333333,3.1108334444444443,-0.04341572,0.023134944,-1.361986,67.274,-0.03510922,0.035953798,-1.3763912,0.5850976666666667,1.3224128888888886,11.409112222222223,-56.66666666666666,5.111111111111111,45.888888888888886,-43.44444444444444,9.88888888888889,254.3333333333333,-1046.0,7.111111111111111,307.8888888888889,1019.1684444444444,-3.009479,3699.555555555556,-0.03510922,0.0030620382,0.035953798,0.012289664,-1.3763912,-0.0058316644,67270.0,28118.0,24390.0,12.5,22.5,-31.5,0,None
2022-12-29 12:43:58,413.089,0.1019999999999981,74.0,1114.5,22825.5,4895.0,97.0,1067.6,358.2,4902.6,-32.923096,3.1226170000000004,-0.041919138,0.025057166,-1.362403,67.258,-0.033851936,0.037862534,-1.3782504000000002,0.52767716,1.6806977,13.789065,-55.3,17.9,52.3,-50.5,10.7,252.4,-1075.5,-2.5,292.0,1019.1703,-3.0075856,3700.3,-0.034138264,0.0140097623999999,0.037826752,0.0144709846,-1.3782442,-0.0076026496,67260.0,28100.5,24380.0,8.5,22.0,-29.5,0,None
2022-12-29 12:43:59,414.091,0.0999999999999999,74.0,1094.5,22863.5,4890.5,97.0,1081.3,361.2,4891.9,-32.991544,3.1327948,-0.0437125319999999,0.025549208,-1.3602868,67.266,-0.03532025,0.038619994,-1.3775328,0.55623324,1.1430792100000002,10.0267282,-52.0,4.2,52.3,-31.6,18.5,256.0,-1046.4,-0.2,297.3,1019.1545,-3.0233828000000003,3701.0,-0.03532025,-0.0136581521999999,0.038619994,0.0037930353999999,-1.3775328,0.0095686299999999,67265.0,28108.5,24385.0,7.0,24.0,-30.5,0,None
2022-12-29 12:44:00,415.091,0.0999999999999999,74.0,1019.0,22847.0,4890.5,97.0,1056.6,364.1,4892.3,-33.054692,3.1421732,-0.042093692,0.02375659,-1.3575856000000002,67.282,-0.034268168,0.036987806,-1.3750516000000002,0.53556471,1.1299924899999998,13.348684,-58.5,13.6,47.2,-37.0,6.8,252.7,-1035.8,4.5,287.8,1019.1632,-3.0144453,3701.9,-0.034268168,0.00450686176,0.036987806,0.0046766206,-1.3750516000000002,0.0079610636,67280.0,28122.5,24400.0,4.5,24.5,-30.5,0,None
2022-12-29 12:44:01,416.091,0.0999999999999999,74.0,1086.0,22849.5,4895.0,97.0,1073.9,367.1,4898.9,-33.112464,3.1509602,-0.048673338,0.02912318,-1.3567056,67.26599999999999,-0.040520118,0.0427964199999999,-1.376319,0.5405870700000001,1.2372244,10.9912847,-57.4,18.4,56.7,-52.9,8.4,254.1,-1112.2,-11.2,293.2,1019.1617,-3.0161093,3702.7,-0.040520118,0.0054142928199999,0.0427964199999999,0.0182703353999999,-1.376319,-0.004849646,67265.0,28119.0,24385.0,4.5,23.5,-30.5,0,None
2022-12-29 12:44:02,417.099,0.1019999999999981,74.0,1064.5,22845.5,4895.5,97.0,1065.2,370.1,4902.2,-33.17144999999999,3.1596952000000003,-0.044453264,0.032248754,-1.3535856,67.27,-0.036299916,0.045522992,-1.3741024,0.5467351400000001,1.37449325,11.4676771,-54.55,1.75,56.1,-56.15,9.5,259.75,-1046.6,-0.95,299.8,1019.15545,-3.0224725500000003,3703.7,-0.036299916,0.0253610844,0.045522992,0.0036873281999999,-1.3741024,-0.0043870402,67270.0,28129.5,24390.0,7.0,23.0,-32.0,0,None
2022-12-29 12:44:03,418.119,0.1020000000000038,74.0,1038.0,22845.0,4899.0,97.0,1032.1,373.1,4903.3,-33.227228000000004,3.1687052,-0.043396782,0.028340872,-1.3520622,67.268,-0.0355344299999999,0.041821046,-1.3734718,0.56291134,1.0707088700000005,12.484998,-61.7,4.8,52.7,-35.8,1.4,247.6,-1034.1,-0.8,297.0,1019.1916,-2.986289,3704.5,-0.0355344299999999,0.0012834119999999,0.041821046,0.0072672141999999,-1.3734718,0.0001454255999999,67265.0,28133.5,24385.0,10.5,25.0,-28.0,0,None
2022-12-29 12:44:04,419.10544444444446,0.1044444444444441,74.0,1050.5,22846.0,4899.5,97.0,1053.5,376.125,4895.555555555556,-33.27455888888889,3.1773937777777777,-0.04522168,0.03372329,-1.3423712499999998,67.21999999999998,-0.0369116124999999,0.0463252725,-1.363889,0.5783656888888888,1.039166311111111,10.189388222222222,-61.22222222222222,1.8888888888888888,46.55555555555556,-44.888888888888886,10.11111111111111,254.88888888888889,-1063.6666666666667,18.88888888888889,289.8888888888889,1019.216,-2.961883444444444,3705.222222222222,-0.0369116124999999,0.0161749775,0.0463252725,0.0083959859749999,-1.363889,0.021174565,67220.0,28183.0,24340.0,17.0,27.0,-25.0,0,None
2022-12-29 12:44:05,420.081,0.1019999999999981,74.0,1059.0,22843.0,4897.0,97.0,1058.1,378.9,4900.7,-33.323077999999995,3.1865082,-0.05660248,0.015907374,-1.3379466,67.18199800000001,-0.048520172,0.029151928,-1.3613510000000002,0.60522243,1.0838954299999997,10.056497299999998,-67.2,1.8,67.0,-40.4,6.9,262.9,-1094.6,-13.2,314.8,1019.2146,-2.9631718,3706.0,-0.048520172,0.01514538158,0.029151928,0.0065142147999999,-1.3613510000000002,-0.0180667187,67190.0,28213.0,24310.0,21.5,26.5,-23.5,0,None
