00000_Time_epoch,00000_Time_boot_sec,00000_Span_Time_boot_sec,1_battery_remaining_avg,1_current_battery_avg,1_voltage_battery_avg,125_Vcc_avg,147_battery_remaining_avg,147_current_battery_avg,147_current_consumed_avg,165_Vcc_avg,168_direction_avg,168_speed_avg,178_pitch_avg,178_roll_avg,178_yaw_avg,182_altitude_avg,182_pitch_avg,182_roll_avg,182_yaw_avg,241_vibration_x_avg,241_vibration_y_avg,241_vibration_z_avg,27_xacc_avg,27_xgyro_avg,27_xmag_avg,27_yacc_avg,27_ygyro_avg,27_ymag_avg,27_zacc_avg,27_zgyro_avg,27_zmag_avg,29_press_abs_avg,29_press_diff_avg,29_temperature_avg,30_pitch_avg,30_pitchspeed_avg,30_roll_avg,30_rollspeed_avg,30_yaw_avg,30_yawspeed_avg,33_alt_avg,33_hdg_avg,33_relative_alt_avg,33_vx_avg,33_vy_avg,33_vz_avg,label,diagnosis
2023-01-03 19:03:17,92.767,-0.240000000000002,100.0,70.5,25019.0,4876.5,99.0,73.0,20.0,4868.0,-179.48700000000002,0.1504361,0.00409818775,-0.0113762975,-1.07547325,26.995,0.0066231985,-0.00933512525,-1.0715020000000002,0.02751441,0.02981005,0.1461526,-8.0,1.5,110.0,-0.5,4.0,247.0,-1075.5,1.0,338.0,1019.2105,-0.13152345,2991.5,0.0066244135,0.0038446405,-0.00933953425,0.0020489837499999,-1.07148375,0.0025631455,26995.0,29860.5,5.0,2.0,12.5,-17.0,0,None
2023-01-03 19:03:18,93.797,0.509999999999998,100.0,76.5,25027.5,4873.0,99.0,76.0,20.0,4869.0,-177.39995,0.1509723,0.0045003726666665,-0.0112778483333332,-1.076342583333333,26.942500000000003,0.0065573733333333,-0.0095037178333333,-1.0719505833333334,0.0267830199999999,0.03579499,0.15849635,-9.0,1.0,111.5,-1.0,3.0,249.0,-1077.0,0.5,337.5,1019.2045,-0.1380078,2995.5,0.0065573733333333,0.0036521711666666,-0.0095037178333333,0.0025885236666666,-1.0719505833333334,0.0003245211116666,26940.0,29858.5,-50.0,1.5,11.5,-18.5,0,None
2023-01-03 19:03:19,94.827,0.5200000000000031,100.0,136.0,25013.0,4881.5,99.0,105.5,20.5,4867.0,-175.94285,0.1927941,0.0048343301666666,-0.0109145116666665,-1.07684825,26.885,0.0068449799166666,-0.00931188825,-1.07231575,0.10700935,0.19392525,1.683852,-8.5,2.0,114.5,17.0,0.0,248.0,-1121.0,-13.5,331.0,1019.231,-0.11148435,2998.5,0.0068449799166666,0.0077394539666666,-0.00931188825,0.0043236148,-1.07231575,0.0082369675833333,26885.0,29854.5,-105.0,1.0,12.0,-20.5,0,None
2023-01-03 19:03:20,95.857,0.509999999999998,100.0,945.5,24721.5,4875.0,99.0,841.0,21.5,4877.5,-175.63705,0.24152855,0.0187996333333332,-0.0114147366666666,-1.0767666666666669,26.851666666666667,0.0205844808333333,-0.00950554525,-1.07144525,0.15268484,0.7522385500000001,3.1297715000000004,-6.0,1.5,100.5,6.0,24.0,232.5,-1196.5,4.5,306.5,1019.431,0.0885937499999999,3002.0,0.0205844808333333,0.0437510509999999,-0.00950554525,-0.0034201848333332,-1.07144525,0.0185004466,26895.0,29865.5,-95.0,-3.0,16.5,14.0,0,None
2023-01-03 19:03:21,96.857,0.5,100.0,1740.5,24389.0,4869.0,99.0,1666.5,25.0,4876.0,-174.06779999999998,0.2806216,-0.0109994123333333,-0.0002391694999999,-1.07001575,27.821666666666665,-0.0088574413333333,0.00164723215,-1.063715,0.3446531,1.15585475,2.881541,-22.0,-16.0,105.5,-25.0,-70.0,245.5,-1260.0,-14.0,314.0,1019.1995,-0.142617165,3006.0,-0.0088574413333333,-0.0719570166666666,0.00164723215,0.0304582758333332,-1.063715,0.0020156620833333,28140.0,29906.5,1150.0,-7.5,20.5,186.5,0,None
2023-01-03 19:03:22,97.857,0.5,100.0,1656.0,24373.5,4862.5,99.0,1681.5,30.0,4879.5,-172.68595,0.3028098999999999,-0.0118303878416665,-0.0122045477316666,-1.0842960833333333,30.5925,-0.009284661,-0.0103490298333333,-1.1222955833333337,0.31921275,1.266914,2.3645110000000003,-14.5,-0.5,99.0,1.5,44.5,228.0,-1157.5,-22.5,297.0,1018.84,-0.50249995,3009.0,-0.009284661,0.030833762,-0.0103490298333333,0.0073531166666666,-1.1222955833333337,-0.013088423675,31130.0,29564.0,4140.0,0.0,-7.0,302.0,0,None
2023-01-03 19:03:23,98.857,0.5,100.0,1116.0,24562.0,4875.5,99.0,1342.5,34.0,4875.0,-172.09795,0.30680975,-0.0005006525833333,0.0159735475,-1.0889100833333334,33.91,0.0004083684166666,0.0180450546666666,-1.1688975,0.4750307,1.2379405,1.751693,-7.0,18.0,98.5,-14.5,42.0,256.0,-969.0,22.5,301.0,1018.4475,-0.8946094,3012.0,0.0004083684166666,0.0309827982666666,0.0180450546666666,0.0078513584166666,-1.1688975,0.0154081739166666,34375.0,29313.0,7385.0,4.0,-12.0,253.5,0,None
2023-01-03 19:03:24,99.857,0.5,100.0,1007.5,24581.5,4874.0,99.0,1019.0,37.0,4870.0,-173.6164,0.3021293,0.0173211766666666,0.01197445825,-1.0790815833333336,35.89416666666666,0.0186222608333333,0.0145136474999999,-1.1565501666666669,0.45709325,1.202058,1.1224729999999998,-6.0,-1.5,92.5,-9.0,36.0,248.5,-916.0,15.0,313.5,1018.1995,-1.1428905,3015.0,0.0186222608333333,0.0146288751833333,0.0145136474999999,-0.0130942465833332,-1.1565501666666669,0.0137435165,36060.0,29381.5,9070.0,8.5,0.0,74.5,0,None
2023-01-03 19:03:25,100.857,0.5,100.0,1161.0,24531.5,4850.5,99.0,1130.5,40.0,4870.5,-177.18824999999998,0.2964409,0.0119128521666666,-0.0068573742499999,-1.0856780833333333,36.520833333333336,0.0142937885833333,-0.0025645879999999,-1.1593936666666669,0.49957565,1.1373375,2.5639035000000003,-14.5,-8.0,88.5,-29.0,-1.0,234.0,-1055.5,-29.5,323.0,1018.0795,-1.2627735,3018.5,0.0142937885833333,-0.0181512187499999,-0.0025645879999999,0.0126576023333333,-1.1593936666666669,-0.0008154565833333,36585.0,29343.0,9595.0,-2.0,9.5,9.5,0,None
2023-01-03 19:03:26,101.857,0.5,100.0,1141.0,24525.0,4866.0,99.0,1123.5,43.0,4877.0,177.89565,0.2984848,0.0047871940833332,0.0199125299999999,-1.1001608333333333,36.7925,0.0076922915833333,0.0228139524999999,-1.1706213333333335,0.4329306,0.96369005,1.8650345,-6.0,6.5,99.5,-9.5,0.5,255.5,-1069.5,2.5,315.5,1018.063,-1.279414,3022.5,0.0076922915833333,-0.0024219350333332,0.0228139524999999,0.0126393593333333,-1.1706213333333335,-0.01330889725,36815.0,29286.0,9825.0,0.5,9.0,-11.5,0,None
2023-01-03 19:03:27,102.8575,0.5,100.0,1121.5,24516.0,4874.0,99.0,1138.0,46.5,4867.0,171.97795,0.2960156,0.0094281934999999,0.0193308525,-1.1045406666666666,36.8825,0.0119363605,0.0221433825,-1.1714471666666668,0.33560325,1.194685,2.2559095,-6.0,-5.0,94.0,-23.0,12.5,243.0,-1083.5,2.5,286.5,1018.037,-1.3052735,3025.5,0.0119363605,0.0146240454166666,0.0221433825,0.0027126944166667,-1.1714471666666668,-0.00655272425,36890.0,29290.0,9900.0,15.0,14.0,-19.5,0,None
2023-01-03 19:03:28,103.857,0.5,100.0,1134.5,24505.0,4876.5,99.0,1119.5,49.5,4881.0,163.1177,0.2865398,0.0153365375,0.0034027975,-1.1046330000000002,36.90916666666666,0.0181321749999999,0.0069973369166666,-1.168278666666667,0.4526692,0.96041195,2.229499,-13.0,-19.5,83.5,-2.0,13.0,246.0,-1096.5,-6.5,336.5,1018.044,-1.298242,3028.5,0.0181321749999999,0.0184287701666666,0.0069973369166666,-0.028704615,-1.168278666666667,0.0270409916833333,36915.0,29311.0,9925.0,21.5,17.0,-21.0,0,None
2023-01-03 19:03:29,104.857,0.5,100.0,1085.5,24528.0,4876.5,99.0,1084.0,52.5,4879.5,153.345,0.2872128499999999,0.0243474508333332,-0.0110938053333333,-1.0996336666666666,36.93,0.0271725241666666,-0.0068624055,-1.1592114166666665,0.5694254999999999,0.7336532,2.8760765,12.0,10.0,85.0,-21.0,0.0,239.5,-1072.5,12.0,314.0,1018.052,-1.2905075,3032.5,0.0271725241666666,0.0073005045416666,-0.0068624055,0.0122839,-1.1592114166666665,0.0008799786666666,36930.0,29357.0,9940.0,7.0,18.5,-22.5,0,None
2023-01-03 19:03:30,105.867,0.509999999999998,100.0,1073.5,24510.0,4878.0,99.0,1119.0,55.5,4878.5,145.4648,0.30780135,0.0262509358333333,-0.0022696163333333,-1.1004134166666666,36.91666666666666,0.0293685566666666,0.0013619000833332,-1.1574291666666667,0.6300613500000001,0.9279278,2.8478035000000004,-16.5,3.0,90.5,-10.0,17.0,248.0,-1077.5,-16.5,343.0,1018.0655,-1.2770315,3035.5,0.0293685566666666,0.0011785434999999,0.0013619000833332,0.0178537818333333,-1.1574291666666667,0.0331690333333332,36910.0,29377.5,9920.0,-10.5,21.5,-22.0,0,None
2023-01-03 19:03:31,106.887,0.5100000000000051,100.0,1133.0,24422.5,4788.0,99.0,1153.0,58.5,4877.0,138.4362,0.3391438,0.0139914088333333,0.0198825075,-1.09982525,36.9025,0.0171819008333332,0.0237836808333333,-1.1541954166666666,0.45561235,1.2002755,3.688481,3.0,38.5,99.5,-36.5,-14.5,226.0,-1089.5,-20.0,299.0,1018.0385,-1.303867,3038.5,0.0171819008333332,0.0034065375,0.0237836808333333,0.0199453054999999,-1.1541954166666666,-0.0088119110833333,36905.0,29377.0,9915.0,-18.0,22.0,-22.0,0,None
2023-01-03 19:03:32,107.907,0.509999999999998,100.0,1165.5,24433.0,4879.0,99.0,1179.5,62.0,4879.0,132.11325,0.37325945,0.0135324958333333,0.0268613858333333,-1.1079544166666666,36.9275,0.0172622941666666,0.0304406533333333,-1.1588654166666663,0.3576068,0.8055323,3.5166845,6.5,13.5,102.5,-43.0,10.0,257.5,-1090.0,-10.5,318.5,1018.03,-1.3124215,3042.0,0.0172622941666666,0.0072421113592332,0.0304406533333333,0.011937275925,-1.1588654166666663,-0.0061147823333333,36930.0,29366.5,9940.0,-8.0,18.5,-23.5,0,None
2023-01-03 19:03:33,108.9275,0.509999999999998,100.0,1112.0,24391.0,4879.5,99.0,1175.0,65.0,4882.0,125.4763,0.4107801,0.01064833175,0.0308566833333333,-1.1127740833333333,36.94,0.0139134039166666,0.0353348008333333,-1.1599329166666663,0.49000725,1.204008,3.8450365,9.0,19.0,96.0,-14.5,-18.0,267.0,-1038.0,-4.5,320.0,1018.044,-1.298711,3045.0,0.0139134039166666,0.0004912395833332,0.0353348008333333,-0.0075255435666666,-1.1599329166666663,0.0100691613333332,36935.0,29358.0,9945.0,2.5,18.0,-24.0,0,None
2023-01-03 19:03:34,109.947,0.509999999999998,100.0,1155.5,24442.5,4879.5,99.0,1181.0,68.5,4878.5,119.19965,0.4438117,0.0104865887166666,0.015947534,-1.1080206666666668,36.9375,0.0136381249999999,0.021144185,-1.1526784166666668,0.53909315,1.40157505,4.671711999999999,-6.0,-8.5,95.5,-46.0,25.0,255.0,-1113.5,-23.5,302.5,1018.045,-1.2973045,3048.0,0.01323806,0.0073858241666666,0.0208586899999999,0.0024450158333333,-1.1524929166666666,-0.0348047805,36935.0,29391.0,9945.0,5.0,12.5,-23.5,0,None
2023-01-03 19:03:35,110.968,0.5105000000000004,100.0,1241.5,24339.0,4865.0,99.0,1249.5,72.0,4874.0,113.49765,0.47678445,-0.0581632839999999,0.0133252904166666,-1.1367374166666666,36.965,-0.0544300656666667,0.0187457916666666,-1.1790915833333333,0.4805835499999999,1.183056,5.212642499999999,18.0,-31.5,96.5,-30.5,-245.0,239.5,-1149.0,-20.5,299.0,1018.0335,-1.3088285,3051.0,-0.0544300656666667,-0.22374783,0.0187457916666666,-0.0276509541666666,-1.1790915833333333,-0.0236151491666666,36985.0,29210.0,9995.0,17.0,-18.0,-2.0,0,None
2023-01-03 19:03:36,111.748,0.5200000000000102,100.0,1609.0,24283.0,4738.0,99.0,1599.0,75.0,4885.0,109.588,0.5154403,-0.2116998666666666,0.0116239893333333,-1.155644,37.35,-0.2033514333333333,0.0164469666666666,-1.196161,0.3371021,1.87398,7.207717,-6.0,22.0,148.0,-56.0,-72.0,240.0,-1318.0,-20.0,270.0,1017.989,-1.353203,3054.0,-0.2033514333333333,0.0047068269999999,0.0164469666666666,-0.0038895313333333,-1.196161,0.0234415363333333,37540.0,29168.0,10550.0,74.0,-167.0,106.0,0,None
2023-01-03 19:03:37,112.5285,0.519999999999996,100.0,1445.0,24327.5,4882.5,99.0,1479.5,78.0,4884.5,106.8646,0.56222445,-0.1593447416666666,0.0115369486666666,-1.12687575,38.62583333333333,-0.1553006833333333,0.0160521866666666,-1.164396,0.37399975,1.0231394,5.326722,-24.0,20.0,153.5,-88.5,55.0,242.5,-1089.5,45.5,250.5,1017.891,-1.451211,3056.0,-0.1553006833333333,0.0515142683333333,0.0160521866666666,-0.0103552825,-1.164396,0.0206354218333333,38930.0,29345.0,11940.0,128.0,-298.5,158.0,0,None
2023-01-03 19:03:38,113.5785,0.5300000000000011,100.0,1375.0,24277.75,4807.25,99.0,1419.5,82.0,4878.5,103.90565,0.6152600500000001,-0.1750747083333333,0.0069586084166666,-1.1391946666666666,40.53916666666667,-0.1737513333333333,0.0122129495,-1.1705425833333334,0.47946485,1.2311325000000002,4.7712985,-47.0,-8.25,141.0,-36.5,-22.0,234.0,-1101.75,-33.5,265.75,1017.65475,-1.6875,3059.0,-0.1737513333333333,-0.0103624518333333,0.0122129495,0.00113468,-1.1705425833333334,-0.0154893861666666,40830.0,29287.5,13840.0,181.0,-437.0,162.0,0,None
2023-01-03 19:03:39,114.629,0.5204999999999984,100.0,1435.5,24300.0,4870.5,99.0,1408.0,86.0,4890.5,100.93755,0.665269,-0.1780015249999999,0.0072935216666666,-1.1418174166666666,42.611666666666665,-0.1775730416666666,0.0144616766666666,-1.16800075,0.4705017,1.0753695,4.378552,-75.5,47.5,140.0,-44.0,52.5,234.0,-1124.5,-12.5,272.0,1017.359,-1.9834375,3063.0,-0.1775730416666666,0.01970945875,0.0144616766666666,0.0108666648333332,-1.16800075,-0.0051078490833333,42715.0,29314.0,15725.0,232.0,-577.5,163.5,0,None
2023-01-03 19:03:40,115.66,0.5105000000000004,100.0,1339.0,24209.0,4869.0,99.0,1389.0,90.0,4805.5,98.270575,0.7037477,-0.1652236083333333,0.0166535133333333,-1.147235,44.55333333333333,-0.1662748333333333,0.0243659616666666,-1.1708579166666666,0.56838185,1.083354,6.2345065,-86.0,12.5,149.0,-31.5,46.5,228.0,-1076.5,-4.5,251.5,1017.145,-2.196875,3066.0,-0.1662748333333333,-0.0080491510833333,0.0243659616666666,0.00207352875,-1.1708579166666666,-0.0131718951666666,44660.0,29287.0,17670.0,274.0,-682.5,167.0,0,None
2023-01-03 19:03:41,116.7,0.5200000000000031,100.0,1268.5,24303.0,4877.0,99.0,1307.5,94.0,4872.0,95.50146,0.7393061,-0.1665187916666666,0.0148062541666666,-1.154273,46.46,-0.1673768,0.0242020616666666,-1.1760449166666669,0.61210575,0.9076299,7.075262,-104.5,-1.5,158.0,-34.0,14.5,235.0,-1085.0,-24.0,252.0,1016.9185,-2.423672,3069.0,-0.1673768,0.0166092607916666,0.0242020616666666,-0.0013013201666667,-1.1760449166666669,-0.0173012898333333,46570.0,29259.0,19580.0,313.5,-764.0,167.5,0,None
2023-01-03 19:03:42,117.71,0.509999999999998,100.0,1240.0,24243.5,4804.5,99.0,1245.5,98.0,4804.5,92.741815,0.77440195,-0.1556775666666666,0.0157053666666666,-1.1519131666666669,48.325833333333335,-0.1570097583333333,0.0258056233333332,-1.1720245833333334,0.68548605,1.126874,8.402054999999999,-115.5,-17.5,145.5,-52.5,10.5,241.5,-1074.0,7.0,288.0,1016.689,-2.653203,3071.5,-0.1570097583333333,0.0248738825,0.0258056233333332,-0.0102160416666667,-1.1720245833333334,-0.0053699389166667,48435.0,29288.5,21445.0,342.0,-824.0,166.5,0,None
2023-01-03 19:03:43,118.7305,0.509999999999998,100.0,1266.5,24303.0,4871.0,99.0,1236.5,101.0,4881.5,89.79584,0.8152478,-0.1552972416666665,0.0247187325,-1.1543835000000002,50.21666666666667,-0.1568933583333333,0.0348179833333333,-1.1704076666666667,0.73495825,1.2466325,8.993685,-112.0,-11.0,138.5,-28.5,28.0,261.0,-1079.5,-6.5,305.0,1016.444,-2.8984375,3075.0,-0.1568933583333333,0.0154246558333333,0.0348179833333333,0.0361036407999999,-1.1704076666666667,-0.0075990006666666,50330.0,29295.0,23340.0,359.0,-869.0,165.0,0,None
2023-01-03 19:03:44,119.771,0.5205000000000055,100.0,1321.0,24268.0,4882.5,99.0,1366.0,105.0,4877.0,87.315545,0.8570075500000001,-0.14681145,0.0410046758333332,-1.156381,52.17333333333333,-0.1481785,0.0490547525,-1.16847275,0.7050646,1.1465765,6.9131215,-130.5,-9.0,139.5,-32.5,-1.0,270.0,-1132.0,-18.0,309.5,1016.213,-3.1292965,3078.0,-0.1481785,0.0452776839999999,0.0490547525,-0.0047886025,-1.16847275,0.0154448575,52275.0,29305.5,25285.0,384.5,-901.5,156.5,0,None
2023-01-03 19:03:45,120.8315,0.5304999999999964,100.0,1215.0,24310.0,4877.0,99.0,1173.0,108.5,4873.0,84.98524499999999,0.9103685,-0.137452175,0.0208066916666666,-1.1572416666666667,54.17333333333333,-0.1388304083333333,0.0285316533333333,-1.16527675,0.7668943500000001,1.092114,8.511696,-146.5,-4.5,135.5,-26.5,59.0,-5878.5666666666675,-1067.0,0.0,286.0,1016.04,-3.302617,3080.5,-0.1388304083333333,-0.0027745441666666,0.0285316533333333,-0.0046122374166666,-1.16527675,-0.0010805190549999,54230.0,29326.5,27240.0,414.0,-918.0,160.0,1,27_ymag_avg_drift_-219.5916666666667
2023-01-03 19:03:46,121.883,0.5204999999999984,100.0,967.0,24352.5,4877.0,99.0,1052.0,112.0,4878.5,83.39677,0.96298565,-0.050698874,0.0071843236666666,-1.1583675000000002,56.06666666666666,-0.0528326275,0.0147021933333333,-1.1617783333333334,0.8082926500000001,1.0091172,8.092306,-150.0,-9.5,117.5,-34.0,306.0,-6098.158333333335,-995.0,-19.0,307.5,1015.8695,-3.4726955,3083.0,-0.0528326275,0.1939339966666666,0.0147021933333333,-0.0324626271666666,-1.1617783333333334,-0.0012970383333333,56110.0,29343.0,29120.0,415.0,-915.5,147.5,1,27_ymag_avg_drift_-219.5916666666667
2023-01-03 19:03:47,122.883,0.5,100.0,855.5,24491.0,4807.5,99.0,793.0,114.5,4881.5,82.66898,1.025282,0.1469539916666666,0.0103895406666666,-1.162461,57.0225,0.1400958566666666,0.0184670558333333,-1.158497,0.99212135,1.440666,8.67291,-122.0,-8.5,57.5,-63.0,158.0,-6317.750000000001,-1065.0,-9.0,338.0,1015.8145,-3.527539,3085.5,0.1400958566666666,0.0473698566666666,0.0184670558333333,0.0317962775,-1.158497,-0.0042201922499999,57040.0,29359.5,30050.0,346.5,-780.5,24.5,1,27_ymag_avg_drift_-219.5916666666667
2023-01-03 19:03:48,123.883,0.5,100.0,1095.5,24396.5,4888.5,99.0,1025.0,117.0,4802.0,82.390135,1.093196,0.1134390716666666,0.0294794908333333,-1.1601088333333331,56.96083333333333,0.1104117316666666,0.0379452724999999,-1.1435718333333336,1.0691145,1.209104,7.718667,-80.0,-7.5,57.0,-46.5,-110.5,-6537.341666666667,-1121.5,-5.5,318.0,1015.759,-3.583281,3088.5,0.1104117316666666,-0.0774579049999999,0.0379452724999999,-0.0052605086666667,-1.1435718333333336,-0.0094781876666667,56960.0,29451.5,29970.0,263.5,-588.0,-3.5,1,27_ymag_avg_drift_-219.5916666666667
2023-01-03 19:03:49,124.883,0.5,100.0,1019.0,24351.0,4806.0,99.0,1059.0,120.0,4868.0,82.088855,1.1593019999999998,0.0756760991666666,0.0295764566666666,-1.1712735,57.06166666666667,0.0772092558333333,0.0380767558333332,-1.1449255833333334,0.5770972999999999,1.2777505,7.8213075,-66.5,-3.0,70.0,-38.5,36.0,-6756.933333333334,-1022.5,-2.0,315.5,1015.6695,-3.6727735,3091.5,0.0772092558333333,0.0379704911666666,0.0380767558333332,0.0226174286666666,-1.1449255833333334,0.0049101689083332,57070.0,29439.0,30080.0,214.5,-471.0,-10.0,1,27_ymag_avg_drift_-219.5916666666667
2023-01-03 19:03:50,125.893,0.5100000000000051,100.0,1067.0,24403.0,4886.5,99.0,1045.5,123.0,4813.5,81.629745,1.220084,0.1214748166666666,0.0386427374999999,-1.1722432500000002,57.235,0.1215850333333332,0.0466254633333333,-1.14073125,0.6041065999999999,0.8797505,9.0036855,-41.5,-9.5,50.5,-51.5,8.5,-6976.5250000000015,-1022.0,5.0,316.5,1015.586,-3.756055,3094.5,0.1215850333333332,0.0134554099999999,0.0466254633333333,-0.0084683118333332,-1.14073125,0.0080514436333332,57235.0,29464.5,30245.0,170.5,-353.0,-24.5,1,27_ymag_avg_drift_-219.5916666666667
2023-01-03 19:03:51,126.9335,0.519999999999996,100.0,1115.0,24324.5,4887.0,99.0,1079.5,126.0,4885.5,80.989555,1.2819660000000002,0.1281514166666666,0.0320445949999999,-1.17773975,57.3925,0.1286313333333333,0.0396118208333333,-1.1427454166666666,0.5324428999999999,1.0695994999999998,9.349096,-35.5,16.5,40.0,-25.5,-5.5,-7196.116666666668,-1085.0,-35.5,326.5,1015.5945,-3.747578,3097.0,0.1286313333333333,-0.0089676526666666,0.0396118208333333,-0.0032646911666667,-1.1427454166666666,-0.0033612285833333,57400.0,29448.5,30410.0,122.5,-225.0,-42.0,1,27_ymag_avg_drift_-219.5916666666667
2023-01-03 19:03:52,127.983,0.5200000000000031,100.0,1153.0,24360.5,4876.0,99.0,1150.0,129.0,4887.0,80.39403,1.335629,0.1438869333333333,0.0230640833333333,-1.1916768333333334,57.41083333333333,0.144857675,0.0303103958333333,-1.1564585833333334,0.4095858,1.1618713,9.4263705,-2.0,-15.5,33.5,-43.0,17.5,-7415.708333333334,-1117.0,-34.5,291.5,1015.6235,-3.718867,3099.5,0.144857675,0.0435742078333332,0.0303103958333333,-0.0097017969166666,-1.1564585833333334,-0.0315506574999999,57415.0,29371.0,30425.0,74.0,-104.0,-42.0,1,27_ymag_avg_drift_-219.5916666666667
2023-01-03 19:03:53,128.753,0.5199999999999818,100.0,1157.0,24356.0,4893.0,99.0,1139.0,132.0,4858.0,79.98537,1.378342,0.1615755,0.01189623,-1.206499,57.38666666666666,0.1628049666666666,0.0197629966666666,-1.1725656666666666,0.5209995,1.064457,6.591625,-1.0,-20.0,39.0,-70.0,46.0,-7635.300000000001,-1036.0,-22.0,356.0,1015.62,-3.722109,3101.0,0.1628049666666666,-0.02252767,0.0197629966666666,0.02081922,-1.1725656666666666,0.0144370213333333,57390.0,29279.0,30400.0,28.0,-18.0,-38.0,1,27_ymag_avg_drift_-219.5916666666667
2023-01-03 19:03:54,129.88016666666667,0.2400000000000043,100.0,1044.0,24345.33333333333,4840.333333333333,99.0,1070.3333333333333,135.83333333333334,4863.333333333333,79.75842666666667,1.444396,0.0808443775,0.0272395920833333,-1.2127609166666666,57.37125,0.0844853116666666,0.0336287991666666,-1.1798695,0.4594918,1.18573005,6.0018935,25.166666666666668,18.0,53.66666666666666,-42.5,-42.833333333333336,-7854.891666666668,-1095.0,-13.333333333333334,309.0,1015.6176666666668,-3.724622333333333,3105.0,0.0844853116666666,-0.0147950025,0.0336287991666666,0.0122452422083333,-1.1798695,0.0091932442291666,57376.66666666666,29248.666666666668,30386.666666666668,-9.0,43.0,-35.666666666666664,1,27_ymag_avg_drift_-219.5916666666667
2023-01-03 19:03:55,130.76399999999998,0.1020999999999986,100.0,1095.0,24315.0,4875.5,99.0,1071.0,139.0,4882.5,79.79752600000002,1.4978928,0.058907344,0.029894652,-1.2185116,57.344,0.0623043199999999,0.036174542,-1.1849934000000002,0.5486922099999999,1.177637,6.9244863,24.4,-10.4,52.0,-38.2,6.9,-8074.483333333334,-1086.0,3.3,320.8,1015.645,-3.6973983000000006,3107.4,0.0623043199999999,0.0114996743999999,0.036174542,-0.012695736,-1.1849934000000002,-0.0041428898,57345.0,29210.5,30355.0,-15.0,62.0,-32.5,1,27_ymag_avg_drift_-219.5916666666667
2023-01-03 19:03:56,131.79519999999997,0.1038999999999986,100.0,1080.5,24371.5,4882.0,99.0,1035.9,142.0,4859.5,79.74154999999999,1.557354,0.041184924,0.024630652,-1.2221058,57.30800000000001,0.0432761059999999,0.030881694,-1.189003,0.53998364,1.16704092,5.8322652,22.25,2.8,61.85,-58.25,-33.35,-8294.075,-1051.9,-20.9,312.2,1015.66175,-3.6804452,3110.3,0.0432761059999999,-0.02606687,0.030881694,0.0090866415999999,-1.189003,-0.020591728,57310.0,29186.5,30320.0,-16.0,63.0,-29.0,1,27_ymag_avg_drift_-219.5916666666667
2023-01-03 19:03:57,132.76222222222225,0.1023333333333356,100.0,1096.5,24374.0,4891.5,99.0,1092.5555555555557,144.77777777777777,4883.666666666667,79.63801444444444,1.61236,0.02830415,0.0185632739999999,-1.219884,57.252,0.030908148,0.0249204079999999,-1.1872442,0.6383352444444443,1.1095745222222222,4.902391555555556,13.88888888888889,-8.88888888888889,66.88888888888889,-60.0,19.88888888888889,-8513.666666666668,-1054.2222222222222,-6.333333333333333,310.6666666666667,1015.675,-3.667126555555555,3112.6666666666665,0.030908148,0.0165774412,0.0249204079999999,-0.0130837449999999,-1.1872442,-0.0071491541999999,57245.0,29203.0,30255.0,-11.0,47.0,-28.0,1,27_ymag_avg_drift_-219.5916666666667
2023-01-03 19:03:58,133.7433,0.1019000000000005,100.0,1090.0,24309.5,4890.0,99.0,1080.2,147.7,4887.4,79.490894,1.6634799999999998,0.0206660779999999,0.014575886,-1.2040922000000005,57.224,0.023213986,0.021201552,-1.1709792,0.4887280199999999,1.27649591,5.3187695,19.6,10.3,65.9,-53.3,-16.9,-8733.258333333335,-1074.3,-0.3,315.0,1015.6746,-3.6676717,3114.9,0.023213986,-0.01548639634,0.021201552,0.0148549099999999,-1.1709792,0.01079193,57225.0,29292.5,30235.0,-12.5,29.5,-23.0,1,27_ymag_avg_drift_-219.5916666666667
2023-01-03 19:03:59,134.75169999999997,0.1020999999999986,100.0,1078.0,24378.5,4812.5,99.0,1075.2,150.8,4845.3,79.345506,1.7059951999999998,0.014698452,0.021807534,-1.2061062,57.224,0.017952176,0.028245164,-1.174634,0.43766692,0.91091523,4.6659805,21.1,8.2,76.1,-45.4,18.1,256.4,-1038.9,-1.0,309.9,1015.6841,-3.6583124,3117.5,0.017952176,0.0026152119599999,0.028245164,0.011170998,-1.174634,-0.0124949328,57220.0,29270.0,30230.0,-8.5,10.5,-25.0,0,None
2023-01-03 19:04:00,135.76399999999998,0.0999999999999999,100.0,1054.0,24309.5,4821.5,99.0,1048.1,153.9,4892.3,79.12240999999999,1.740316,0.016312042,0.025334642,-1.2075262,57.202,0.019563482,0.031412044,-1.17669,0.4567147,1.05221877,5.1150946,25.4,-5.9,77.3,-23.1,3.7,259.2,-1040.9,10.3,309.1,1015.6954,-3.6468986,3119.8,0.019563482,0.031000496,0.031412044,-0.0150460494,-1.17669,-0.0048601434,57200.0,29254.0,30210.0,3.0,-1.0,-21.0,0,None
2023-01-03 19:04:01,136.79199999999997,0.1039999999999991,100.0,1036.0,24367.0,4891.5,99.0,1036.7,156.9,4836.8,78.774272,1.7669622000000005,0.024539652,0.010429793,-1.2031138,57.194,0.02847615,0.0172829059999999,-1.1719848,0.5137651200000001,1.1102248,4.3406349,17.65,6.45,71.45,-49.45,6.95,254.25,-1054.35,-2.75,322.4,1015.70475,-3.6375428,3122.2,0.02847615,-0.00925031644,0.0172829059999999,0.009838686,-1.1719848,-0.0035500654,57190.0,29284.0,30200.0,6.0,-8.5,-19.0,0,None
2023-01-03 19:04:02,137.76066666666668,0.1022222222222239,100.0,1062.0,24355.5,4887.0,99.0,1065.6666666666667,159.55555555555554,4880.222222222223,78.43104333333332,1.7901574444444444,0.04496327,0.0193904575,-1.2096895,57.18000000000001,0.0494230425,0.02648834,-1.17798525,0.4899094,1.0245859555555556,5.417090111111111,26.0,1.3333333333333333,60.888888888888886,-61.77777777777778,35.111111111111114,252.3333333333333,-1065.888888888889,-5.444444444444445,312.22222222222223,1015.6976666666668,-3.644722111111111,3124.333333333333,0.0494230425,0.028648775,0.02648834,-0.00221702133,-1.17798525,-0.024810785,57140.0,29253.0,30150.0,4.0,-11.0,-19.0,0,None
2023-01-03 19:04:03,138.746,0.1039999999999991,100.0,1053.5,24296.5,4888.5,98.4,1066.2,162.5,4890.6,78.23244000000001,1.8190994,0.056850124,0.016770368,-1.211115,56.986,0.06161632,0.023565178,-1.1792741999999998,0.52186651,1.02058015,5.038152200000001,31.5,10.9,57.6,-46.5,6.0,254.9,-1056.6,11.9,315.3,1015.6968,-3.6454921,3126.7,0.06161632,0.0089663018,0.023565178,0.0083649297999999,-1.1792741999999998,-0.0028718919999999,56900.0,29249.5,29910.0,-3.0,0.5,-19.0,0,None
2023-01-03 19:04:04,139.772,0.102000000000001,100.0,1074.5,24322.5,4892.5,98.0,1084.2,165.7,4839.9,78.211238,1.8511436,0.054756076,0.023725022,-1.2039567999999998,56.71,0.060855014,0.03076855,-1.1720982,0.4118135699999999,1.1306526,4.7378781000000005,31.65,13.7,58.7,-29.75,-18.15,257.2,-1063.65,27.55,318.45,1015.69495,-3.64742175,3129.1,0.060855014,-0.0137837201999999,0.03076855,0.013017204,-1.1720982,0.026538642,56640.0,29297.0,29650.0,-9.0,13.0,-20.0,0,None
2023-01-03 19:04:05,140.77177777777777,0.1066666666666643,100.0,1088.0,24258.0,4803.0,98.0,1072.3333333333333,168.55555555555554,4823.555555555556,78.28110444444445,1.887032111111112,0.041942016,0.02996407,-1.1971714,56.50599999999999,0.0487199099999999,0.036589732,-1.164786,0.4932481333333334,0.9752472777777778,4.065528555555556,17.77777777777778,-1.7777777777777777,62.77777777777778,-45.55555555555556,-12.333333333333334,257.44444444444446,-1065.6666666666667,0.5555555555555556,304.55555555555554,1015.6866666666668,-3.6555727777777776,3131.4444444444443,0.0487199099999999,-0.0153764993999999,0.036589732,-0.0013000453999999,-1.164786,0.01678722788,56455.0,29332.0,29465.0,-4.0,21.0,-22.0,0,None
2023-01-03 19:04:06,141.7629,0.1021000000000014,100.0,1038.0,24337.0,4874.5,98.0,1076.8,171.6,4878.1,78.344008,1.9245996,0.035958322,0.0253156,-1.2005263999999998,56.346,0.043276228,0.032251954,-1.1676487999999998,0.4489601,1.09621866,4.3186327,25.5,-6.4,66.7,-38.0,1.5,262.9,-1109.3,-3.1,311.8,1015.6842,-3.658187400000001,3133.4,0.043276228,0.02031371,0.032251954,-0.0059296812,-1.1676487999999998,0.001890684,56285.0,29302.0,29295.0,-1.0,20.5,-23.5,0,None
2023-01-03 19:04:07,142.7498888888889,0.1066666666666675,100.0,1112.0,24261.0,4888.0,98.0,1127.888888888889,174.66666666666666,4876.777777777777,78.3731088888889,1.9607063333333328,0.04174329,0.02652681,-1.19927,56.182,0.0488710339999999,0.033747148,-1.1664322,0.4193832888888889,1.1556797333333335,5.8986217777777785,31.11111111111111,17.833333333333332,62.0,-54.27777777777778,26.83333333333333,259.94444444444446,-1063.5555555555557,32.166666666666664,308.27777777777777,1015.6674444444444,-3.674956555555556,3135.777777777778,0.0488710339999999,0.02090454,0.033747148,0.0143572094,-1.1664322,0.0133508762,56170.0,29316.0,29180.0,-2.0,20.0,-24.0,0,None
2023-01-03 19:04:08,143.72719999999998,0.0999999999999999,100.0,1118.5,24292.0,4890.0,98.0,1128.7,177.5,4872.1,78.3866,1.9983478000000008,0.0270474,0.03530055,-1.1902224,56.05800000000001,0.034169806,0.04180192,-1.1581046000000002,0.4515190799999999,0.94192308,4.6104198,26.4,-0.1,73.9,-32.8,-20.6,255.2,-1062.0,-1.0,308.8,1015.6740000000002,-3.668328099999999,3137.9,0.034169806,-0.016214324,0.04180192,-0.00478561642,-1.1581046000000002,-0.0037483054,56095.0,29359.0,29105.0,1.5,24.0,-25.5,0,None
2023-01-03 19:04:09,144.74309999999997,0.1019999999999981,100.0,1127.5,24239.0,4895.0,98.0,1105.3,180.8,4893.2,78.332056,2.0339798000000004,0.03329032,0.021620418,-1.18852,55.958000000000006,0.040831226,0.028118598,-1.1563212,0.44320561,1.10670654,3.9752918,31.2,-2.3,75.1,-47.9,30.1,255.0,-1048.0,5.7,311.3,1015.6596000000002,-3.6826719,3139.9,0.040831226,-0.00292491,0.028118598,-0.0144870372,-1.1563212,-0.0081389322,55985.0,29373.0,28995.0,10.0,17.0,-24.0,0,None
2023-01-03 19:04:10,145.7646,0.1022000000000019,100.0,1118.5,24304.5,4891.0,98.0,1112.6,184.0,4845.9,78.23473,2.0662992,0.032088102,0.032828194,-1.1970564,55.882000000000005,0.039742296,0.03924758,-1.1645994000000002,0.5589208600000001,1.1049254300000002,4.423613399999999,30.8,15.7,69.4,-16.8,-6.9,264.8,-1068.9,-1.6,318.3,1015.6516,-3.6908045,3142.0,0.039742296,0.0007123359999999,0.03924758,0.0039210045999999,-1.1645994000000002,-0.024762258,55905.0,29335.5,28915.0,4.0,13.5,-27.5,0,None
2023-01-03 19:04:11,146.78500000000005,0.1019999999999981,100.0,1098.0,24291.5,4895.5,98.0,1096.4,187.2,4875.3,78.12433600000001,2.0972434,0.0345565139999999,0.0301305779999999,-1.1995654000000002,55.790000000000006,0.04267946,0.0361856579999999,-1.1658532,0.50328927,1.04574535,4.721182300000001,28.05,-17.9,65.65,-55.85,22.6,261.7,-1080.2,-7.45,300.05,1015.6585,-3.6836875500000006,3144.05,0.04267946,0.0224679816,0.0361856579999999,-0.002684969,-1.1658532,0.0001217959999999,55815.0,29325.0,28825.0,12.0,7.0,-27.0,0,None
2023-01-03 19:04:12,147.79309999999998,0.1003000000000013,100.0,1040.5,24230.0,4818.5,98.0,1059.7,190.1,4881.0,77.98503799999999,2.128546599999999,0.045030186,0.021032608,-1.2045692,55.69,0.0527281939999999,0.0284969819999999,-1.1711344,0.54733956,1.04885768,5.1937959000000005,33.3,5.4,63.0,-30.7,-31.7,255.0,-1062.4,7.4,315.9,1015.6694,-3.6728046,3146.3,0.0527281939999999,0.0013042116,0.0284969819999999,0.0018903110799999,-1.1711344,-0.0120644828,55720.0,29292.0,28730.0,12.5,8.0,-28.0,0,None
2023-01-03 19:04:13,148.79399999999998,0.0999999999999999,100.0,1010.5,24339.0,4891.5,98.0,1023.3,193.0,4864.6,77.889892,2.1589184,0.037754096,0.018654194,-1.2099761999999998,55.574,0.046252348,0.02569189,-1.176236,0.5485715800000001,1.06525373,5.066395,30.9,4.5,66.5,-47.0,-0.8,259.6,-1057.2,-1.5,318.8,1015.6918999999998,-3.6503984,3148.0,0.046252348,0.0059122946,0.02569189,-0.0040112312,-1.176236,-0.0145161866,55610.0,29273.5,28620.0,9.5,14.0,-25.5,0,None
2023-01-03 19:04:14,149.7939,0.0999999999999999,100.0,1075.5,24244.5,4895.0,98.0,1075.8,196.0,4834.2,77.844552,2.1881344,0.050354422,0.021236358,-1.2182238,55.456,0.059168792,0.0277143739999999,-1.1840000000000002,0.4729262500000001,0.93729619,6.6592759,33.9,-3.4,56.8,-30.7,10.4,255.6,-1078.3,1.1,317.4,1015.6808,-3.6614608,3150.4,0.059168792,0.0088632019999999,0.0277143739999999,0.0036315203999999,-1.1840000000000002,-0.0009563675999999,55480.0,29214.0,28490.0,4.0,15.0,-25.5,0,None
2023-01-03 19:04:15,150.8099,0.1019999999999981,100.0,1062.5,24307.0,4889.0,98.0,1058.7,198.9,4877.9,77.855472,2.21691,0.046031012,0.017344684,-1.207085,55.42,0.05498536,0.0239223979999999,-1.1728344,0.5355749599999999,1.15857782,6.0247042,24.2,10.5,63.1,-55.1,1.4,255.7,-1027.4,-11.3,316.9,1015.6694,-3.6729296000000007,3152.4,0.05498536,0.0011354007999999,0.0239223979999999,0.00379162,-1.1728344,0.034414418,55425.0,29266.5,28435.0,-2.0,20.5,-23.5,0,None
2023-01-03 19:04:16,151.77766666666668,0.1022222222222239,100.0,1050.0,24279.0,4872.5,98.0,1072.2222222222222,201.77777777777777,4880.333333333333,77.92947000000001,2.247776555555556,0.0395662659999999,0.023703418,-1.2062784,55.39,0.048549084,0.0304036819999999,-1.1714762,0.5273758111111111,1.0727130111111112,4.842766222222222,17.88888888888889,8.444444444444445,64.44444444444444,-51.0,12.666666666666666,256.8888888888889,-1062.2222222222222,-16.88888888888889,307.22222222222223,1015.6671111111112,-3.675095333333333,3154.111111111112,0.048549084,-0.0118160779999999,0.0304036819999999,0.0070958335999999,-1.1714762,0.016185946,55405.0,29291.0,28415.0,-6.5,19.5,-25.5,0,None
2023-01-03 19:04:17,152.73190000000002,0.0999999999999999,100.0,1053.0,24268.0,4812.0,98.0,1065.6,204.6,4872.6,78.00977200000001,2.275335,0.033795526,0.024135104,-1.2027256,55.346,0.042906106,0.0310139679999999,-1.1679568,0.4570637399999999,1.0389703899999998,5.173985700000001,19.4,-1.1,68.4,-50.8,4.8,263.3,-1054.5,2.7,314.7,1015.6613,-3.6809843,3155.8,0.042906106,0.0075666582,0.0310139679999999,-0.01135112368,-1.1679568,0.02429903294,55360.0,29293.0,28370.0,-2.0,20.0,-26.0,0,None
2023-01-03 19:04:18,153.748,0.1019999999999981,100.0,1036.0,24231.0,4889.0,98.0,1031.3,207.4,4843.7,78.07101,2.3025982,0.037265268,0.018142736,-1.2075782,55.302,0.045847738,0.025244568,-1.1729195999999995,0.48181686,1.07218745,5.489735099999999,23.9,7.7,67.9,-50.9,26.3,254.6,-1055.8,-17.1,313.6,1015.6752,-3.6670624,3157.9,0.045847738,0.0057483625999999,0.025244568,0.0085396535,-1.1729195999999995,-0.0037354638,55315.0,29302.0,28325.0,1.5,16.0,-26.5,0,None
2023-01-03 19:04:19,154.768,0.102000000000001,100.0,1059.5,24299.0,4822.0,98.0,1062.6,210.6,4888.8,78.12544,2.32794,0.041747768,0.023971646,-1.2149464,55.236,0.0500017179999999,0.030814382,-1.1807518,0.53128538,1.04337433,6.6846677,36.9,4.5,62.0,-31.6,-11.7,258.6,-1076.9,4.7,313.3,1015.6794,-3.6628983,3159.6,0.0500017179999999,-0.0191633093399999,0.030814382,0.0088688836,-1.1807518,0.006064464,55250.0,29231.5,28260.0,0.0,15.0,-27.5,0,None
2023-01-03 19:04:20,155.80089999999998,0.1040999999999996,100.0,1025.5,24315.5,4895.5,98.0,1060.0,213.6,4851.9,78.185358,2.3526856,0.044176062,0.016486038,-1.2084208,55.178,0.052219842,0.022752978,-1.1739916,0.44150882,1.03120978,6.1112603,22.55,-0.7,59.75,-53.05,22.2,246.05,-1046.8,3.45,313.3,1015.67895,-3.663218549999999,3161.4,0.052219842,0.0030437297399999,0.022752978,-0.004547132,-1.1739916,-0.00693653466,55185.0,29266.5,28195.0,3.0,18.0,-24.5,0,None
2023-01-03 19:04:21,156.7794444444445,0.1023333333333324,100.0,1057.0,24199.0,4888.0,98.0,1052.6666666666667,216.44444444444449,4871.555555555556,78.26157888888889,2.378045888888889,0.0406024575,0.016919215,-1.2032875,55.1475,0.04936954,0.0230102599999999,-1.16863825,0.4652360777777778,1.0528257,6.056157333333333,34.77777777777778,0.2222222222222222,64.55555555555556,-24.11111111111111,-2.888888888888889,257.44444444444446,-1106.6666666666667,14.22222222222222,315.6666666666667,1015.673,-3.669262,3163.222222222222,0.04936954,-0.00206241525,0.0230102599999999,-0.01332006075,-1.16863825,0.01608080625,55155.0,29295.5,28165.0,-1.5,19.5,-26.0,0,None
2023-01-03 19:04:22,157.75039999999998,0.1021000000000014,100.0,1080.0,24293.5,4895.5,98.0,1085.4,219.3,4863.6,78.35585,2.400563,0.038221864,0.023632348,-1.1994778,55.106,0.04673235,0.0298740259999999,-1.1653388,0.49897135,0.97780785,4.8072255,38.5,7.3,68.4,-26.1,11.4,256.5,-1085.4,18.5,317.7,1015.6734,-3.6690779,3165.1,0.04673235,0.021137322,0.0298740259999999,0.0291593041999999,-1.1653388,0.0001691374,55105.0,29319.0,28115.0,-3.0,17.5,-27.0,0,None
2023-01-03 19:04:23,158.7611,0.102000000000001,100.0,1091.5,24231.0,4823.0,98.0,1103.9,222.4,4847.6,78.45035599999999,2.4237732000000003,0.037305352,0.0251928739999999,-1.1897912,55.104000000000006,0.0449287,0.0314157419999999,-1.1558872,0.4682259699999999,1.01794617,4.375303300000001,28.5,-1.5,75.2,-34.3,-10.2,258.0,-1073.2,17.6,310.2,1015.6616,-3.6807735,3166.9,0.0449287,0.0115447382,0.0314157419999999,0.0059426361999999,-1.1558872,0.0186097626,55100.0,29374.5,28110.0,-2.0,19.5,-26.0,0,None
2023-01-03 19:04:24,159.7738,0.1000999999999976,100.0,1084.5,24290.0,4895.0,98.0,1085.2,225.6,4884.3,78.52090000000001,2.4461872,0.031853774,0.027218356,-1.1900556,55.134,0.039970816,0.033640156,-1.1562746000000002,0.51915733,1.02847563,3.8295365,27.1,10.8,71.7,-28.0,5.5,253.6,-1070.5,-14.2,302.9,1015.6491,-3.6931641,3168.5,0.039664265,0.00112595,0.0326155575,0.021553815,-1.1552190000000002,-0.014723782525,55135.0,29377.5,28145.0,-1.5,14.5,-30.5,0,None
2023-01-03 19:04:25,160.72400000000005,0.1000000000000006,100.0,1051.0,24309.0,4889.5,98.0,1085.888888888889,228.5555555555556,4887.888888888889,78.55484444444446,2.465926111111111,0.03320166,0.029961835,-1.1978365,55.142,0.041656236,0.035878502,-1.1641746000000002,0.5073738666666667,1.028393111111111,4.757736555555557,22.666666666666668,-4.0,67.66666666666667,-29.11111111111111,12.555555555555555,265.1111111111111,-1052.3333333333333,-1.5555555555555556,317.1111111111111,1015.6447777777778,-3.697517444444445,3170.4444444444443,0.0416261,0.0138278275,0.03607584,-0.007202865,-1.16356575,-0.0074500957499999,55140.0,29330.0,28150.0,4.0,11.5,-30.5,0,None
2023-01-03 19:04:26,161.7965,0.1121000000000009,100.0,1059.0,24232.5,4818.0,98.0,1065.3,231.6,4862.1,78.54942,2.4863311999999995,0.036767676,0.022828598,-1.2032702,55.154,0.0454934659999999,0.029531328,-1.169042,0.4663601049999999,0.9650396,4.97935685,31.15,2.8,65.8,-42.55,-13.15,255.15,-1064.9,3.75,307.0,1015.62885,-3.7133437,3172.35,0.0454934659999999,-0.0090819182,0.029531328,0.011214875,-1.169042,-0.0183369908,55155.0,29303.0,28165.0,7.0,10.5,-31.0,0,None
2023-01-03 19:04:27,162.795,0.0999999999999999,100.0,1086.0,24211.0,4886.0,98.0,1105.6,234.7,4836.7,78.53305999999999,2.5053932,0.046206852,0.024152364,-1.1995,55.14399999999999,0.05546934,0.031047578,-1.1652568,0.5812675500000001,1.02297923,4.0279696000000005,29.1,-2.3,61.3,-64.3,17.4,261.3,-1056.4,22.7,5839.800000000002,1015.6462,-3.695953,3174.1,0.05546934,0.02561877,0.031047578,0.0081456635999999,-1.1652568,-0.007569212,55140.0,29317.5,28150.0,4.5,17.0,-32.0,1,27_zmag_avg_drift_79.04000000000003
2023-01-03 19:04:28,163.81300000000002,0.1019999999999981,100.0,1119.0,24250.0,4895.5,98.0,1082.4,237.7,4884.4,78.53359999999998,2.524849,0.024607348,0.0126726408,-1.202931,55.104,0.03348656,0.020077286,-1.1686372,0.46854334,1.02412291,5.312939899999999,4.5,-3.9,71.5,-22.6,-30.8,257.9,-1070.7,-47.0,5918.840000000003,1015.6928,-3.6493359,3175.9,0.03348656,-0.0150142319999999,0.020077286,-0.0160095533999999,-1.1686372,-0.031212998,55105.0,29310.5,28115.0,5.0,27.5,-29.0,1,27_zmag_avg_drift_79.04000000000003
2023-01-03 19:04:29,164.80722222222224,0.1066666666666675,100.0,1092.0,24291.5,4895.0,98.0,1078.0,240.66666666666663,4856.333333333333,78.54775666666666,2.5429367777777774,0.0199876984,0.0048360737,-1.2127454,55.04,0.029050688,0.0120901416,-1.1788843999999998,0.3904481444444445,0.9336949666666666,5.592377555555554,16.555555555555557,-6.0,69.33333333333333,-44.55555555555556,35.888888888888886,247.11111111111111,-1070.6666666666667,20.77777777777778,5997.880000000003,1015.6973333333332,-3.6451041111111113,3177.555555555556,0.029050688,0.0225069935999999,0.0120901416,-0.003813018,-1.1788843999999998,0.0156230168,55040.0,29240.5,28050.0,6.0,19.0,-23.0,1,27_zmag_avg_drift_79.04000000000003
2023-01-03 19:04:30,165.80300000000005,0.1039999999999991,100.0,1088.0,24205.5,4900.5,98.0,1086.4,243.7,4871.6,78.56778599999998,2.553939,0.0255326559999999,0.0077859354679999,-1.1860674,55.034000000000006,0.033962076,0.015298874,-1.1523502,0.42322709,1.02696316,4.298724,20.05,19.7,74.15,-35.05,-2.4,250.65,-1067.75,6.55,6076.920000000003,1015.6812,-3.66116005,3179.45,0.033962076,0.006926983,0.015298874,0.0154438836,-1.1523502,-0.00038262912,55030.0,29401.5,28040.0,-3.5,14.0,-21.5,1,27_zmag_avg_drift_79.04000000000003
2023-01-03 19:04:31,166.785,0.1022222222222239,100.0,1115.0,24265.5,4825.0,98.0,1088.7777777777778,246.5555555555556,4842.111111111111,78.62079111111113,2.5630464444444443,0.0260755575,0.02660381,-1.1876455,55.05,0.0344907499999999,0.03302958,-1.1537475,0.5137575333333333,1.1773094888888889,3.7521343333333337,15.22222222222222,17.77777777777778,71.22222222222223,-49.11111111111112,12.555555555555555,259.77777777777777,-1072.0,-6.222222222222222,6155.960000000003,1015.6791111111112,-3.663203222222222,3181.111111111112,0.0344907499999999,0.0092158557499999,0.03302958,0.020659255,-1.1537475,-0.0153375067499999,55050.0,29388.0,28060.0,-3.5,6.5,-24.5,1,27_zmag_avg_drift_79.04000000000003
2023-01-03 19:04:32,167.75499999999997,0.1039999999999991,100.0,1079.0,24202.0,4827.0,98.0,1091.2,249.5,4894.7,78.65253399999999,2.5703400000000003,0.033791876,0.024557852,-1.190293,55.044,0.041942004,0.03040343,-1.1567784,0.4591265699999999,0.9857498,3.5026408000000004,16.9,-14.6,71.4,-27.1,9.1,255.0,-1077.8,-11.4,6235.000000000003,1015.6819000000002,-3.6606797,3182.7,0.041942004,0.0045324818,0.03040343,-0.006029232,-1.1567784,0.0139947484,55045.0,29371.5,28055.0,1.5,11.5,-23.0,1,27_zmag_avg_drift_79.04000000000003
2023-01-03 19:04:33,168.77388888888888,0.1088888888888909,100.0,1107.5,24270.5,4894.0,98.0,1110.111111111111,252.66666666666663,4890.777777777777,78.66554777777777,2.577933555555556,0.028812832,0.0169065059999999,-1.1888248,55.042,0.036801396,0.0239920499999999,-1.1558546,0.5360227777777777,1.0719259666666665,2.8068276666666665,15.444444444444445,14.72222222222222,69.22222222222223,-23.11111111111111,-0.6111111111111112,251.94444444444449,-1059.888888888889,9.38888888888889,6314.040000000003,1015.6743888888888,-3.6678732222222217,3184.555555555556,0.036801396,-0.0169105374,0.0239920499999999,0.0126817042,-1.1558546,0.0121076148,55040.0,29381.0,28050.0,-2.5,12.5,-23.0,1,27_zmag_avg_drift_79.04000000000003
2023-01-03 19:04:34,169.78699999999998,0.1059999999999973,100.0,1063.0,24287.0,4894.5,98.0,1065.1,255.8,4888.4,78.678344,2.5861936000000005,0.027076896,0.028742858,-1.1887812,55.064,0.0354134199999999,0.035637832,-1.1557012000000002,0.5197576399999999,1.12198156,3.9500768,20.8,2.65,75.9,-24.6,20.15,257.45,-1073.5,0.55,6393.080000000003,1015.66995,-3.67232805,3186.5,0.0354134199999999,0.0067312459999999,0.035637832,0.0093197852,-1.1557012000000002,0.02370492,55070.0,29379.0,28080.0,2.5,9.0,-24.5,1,27_zmag_avg_drift_79.04000000000003
2023-01-03 19:04:35,170.78722222222223,0.1066666666666675,100.0,1048.5,24212.5,4822.0,98.0,1067.6666666666667,258.6666666666667,4888.222222222223,78.66326555555557,2.5944144444444444,0.036147694,0.024386732,-1.196268,55.086,0.04341869,0.03112652,-1.1636571999999998,0.4512976999999999,1.1861319000000003,4.839047333333333,17.0,0.6666666666666666,70.44444444444444,-60.22222222222222,6.777777777777778,258.44444444444446,-1027.111111111111,-6.111111111111111,6472.120000000003,1015.6668888888888,-3.675329888888889,3188.111111111112,0.043108748,-0.0052445676,0.031119338,-0.0062591462,-1.1637419999999998,0.0119757848,55090.0,29327.0,28100.0,4.5,16.0,-27.5,1,27_zmag_avg_drift_79.04000000000003
2023-01-03 19:04:36,171.77370000000002,0.1001000000000004,100.0,1108.0,24258.0,4890.5,98.0,1091.9,261.7,4841.1,78.637198,2.6027628000000003,0.0344739499999999,0.024668734,-1.1985198,55.098,0.042914992,0.031044534,-1.1649318000000002,0.5074104,0.97927318,4.820301000000001,17.3,10.9,66.7,-44.9,0.3,253.5,-1084.9,-15.6,6551.160000000003,1015.6687999999998,-3.6735312,3189.6,0.042914992,0.0067757499599999,0.031044534,-0.0038669379999999,-1.1649318000000002,0.0001555792,55095.0,29328.5,28105.0,5.5,16.5,-29.5,1,27_zmag_avg_drift_79.04000000000003
2023-01-03 19:04:37,172.77599999999998,0.0999999999999999,100.0,1085.0,24186.0,4822.5,98.0,1072.9,264.8,4885.9,78.607886,2.6122712,0.036228068,0.01891849,-1.1976886,55.086,0.044553256,0.025457572,-1.164178,0.5251569899999999,1.16293553,5.474901900000001,29.5,-8.6,68.7,-18.6,5.4,258.6,-1081.8,9.2,6630.200000000003,1015.6542,-3.6881093,3191.3,0.044553256,-0.002889621,0.025457572,0.0029481996,-1.164178,-0.0149405034,55085.0,29332.0,28095.0,3.5,15.0,-26.0,1,27_zmag_avg_drift_79.04000000000003
2023-01-03 19:04:38,173.77799999999996,0.0999999999999999,100.0,1092.0,24261.0,4892.5,98.0,1099.3,267.8,4886.7,78.587266,2.6220352,0.038846174,0.029600954,-1.1984674,55.08,0.047521438,0.036153658,-1.1652484,0.5911586,1.2336345999999998,5.5599577,30.6,24.2,68.2,-48.4,14.7,254.5,-1046.0,-3.6,6709.2400000000025,1015.6541,-3.6881405,3193.0,0.047521438,0.0148932358599999,0.036153658,0.0038047832,-1.1652484,-0.0020208763,55075.0,29316.5,28085.0,-1.5,11.0,-27.0,1,27_zmag_avg_drift_79.04000000000003
2023-01-03 19:04:39,174.62885714285713,0.0999999999999983,100.0,1175.5,24153.5,4895.5,98.0,1164.428571428571,270.2857142857143,4892.0,78.57471571428572,2.6310347142857142,0.05136241,0.0368678566666666,-1.199438,55.05,0.0597581066666666,0.04355129,-1.165569,0.5870611142857144,1.331163285714286,6.743048571428572,27.285714285714285,1.1428571428571428,61.0,-11.0,3.7142857142857135,259.1428571428572,-1088.428571428571,12.0,6788.2800000000025,1015.6621428571428,-3.679966285714286,3194.5714285714284,0.0597581066666666,0.0073746966666666,0.04355129,0.0001257093333333,-1.165569,0.0049151373333333,55050.0,29327.0,28060.0,0.0,15.0,-28.0,1,27_zmag_avg_drift_79.04000000000003
2023-01-03 19:04:58,193.7821,0.1060000000000002,100.0,1002.0,24150.5,4892.5,97.0,1035.1,328.0,4866.1,77.24662000000001,2.876984,0.0179920824,0.026751528,-1.2113225999999997,54.07800000000001,0.025808056,0.034043266,-1.1760044,0.52907295,1.1069105,5.5176217,23.9,-13.6,74.65,-52.7,10.4,262.35,-1022.4,-1.0,6867.320000000002,1015.67125,-3.6710742499999993,3224.0,0.025808056,0.0302345899999999,0.034043266,-0.0142255507999999,-1.1760044,-0.01288505096,54095.0,29280.0,27105.0,10.0,16.0,-25.0,1,27_zmag_avg_drift_79.04000000000003
2023-01-03 19:04:59,194.7793333333333,0.1088888888888877,100.0,992.5,24175.5,4890.5,97.0,1064.111111111111,330.8888888888889,4837.222222222223,77.17086,2.8851946666666666,0.0460205525,0.0236069574999999,-1.20504725,54.0275,0.0532189075,0.0316001875,-1.170272,0.5603675666666666,1.3125702222222222,7.66331,23.88888888888889,13.444444444444445,67.77777777777777,-69.11111111111111,-7.777777777777778,249.66666666666663,-1098.3333333333333,47.66666666666666,301.8888888888889,1015.645222222222,-3.697109222222222,3225.4444444444443,0.0532189075,-0.0073780924999999,0.0316001875,0.01208581825,-1.170272,0.0234431525,54025.0,29279.5,27035.0,7.5,8.5,-27.0,0,None
2023-01-03 19:05:00,195.802,0.1039999999999991,100.0,1098.5,24188.0,4818.0,97.0,1079.6,334.0,4869.8,77.09989,2.8928704000000005,0.033113148,0.036146802,-1.1920368,54.01800000000001,0.0397440359999999,0.044037534,-1.1575002,0.4877428499999999,1.3366765,6.0514525,19.05,11.65,73.3,-49.2,9.1,255.35,-1053.3,-10.6,308.45,1015.64575,-3.69650765,3227.05,0.0397440359999999,0.007713918,0.044037534,0.0328314402,-1.1575002,0.0012324446,54010.0,29369.5,27020.0,2.5,13.0,-27.5,0,None
2023-01-03 19:05:01,196.815,0.1066666666666675,100.0,1112.0,24191.0,4898.0,97.0,1112.5555555555557,337.0,4858.444444444444,77.02691777777778,2.9014617777777776,0.035059674,0.042129558,-1.1914208,53.968,0.041710676,0.049786906,-1.1570102,0.3891328666666667,1.1718233333333332,7.249786222222222,28.55555555555556,5.777777777777778,75.66666666666667,-63.22222222222222,12.22222222222222,257.55555555555554,-1061.4444444444443,6.888888888888889,308.22222222222223,1015.6564444444444,-3.6858768888888895,3228.4444444444443,0.041710676,-0.0084612044,0.049786906,0.0063096572739999,-1.1570102,-0.0183831941999999,53970.0,29372.5,26980.0,6.0,7.5,-31.0,0,None
2023-01-03 19:05:02,197.78166666666664,0.111111111111111,100.0,1120.5,24133.0,4896.0,97.0,1124.111111111111,340.1111111111111,4870.444444444444,76.9473477777778,2.910554444444444,0.0417258619999999,0.040261898,-1.1945312,53.902,0.047724784,0.048084034,-1.1594352,0.5799717111111111,1.1542973666666667,6.22342888888889,25.55555555555556,-1.8333333333333333,69.0,-77.38888888888889,3.2222222222222223,265.1666666666667,-1053.611111111111,-13.11111111111111,300.77777777777777,1015.6620555555556,-3.680230111111111,3229.777777777778,0.048208376,0.0185204588,0.048184444,-0.000315058,-1.1593606,-0.0095072868,53905.0,29362.0,26915.0,12.0,6.5,-28.0,0,None
2023-01-03 19:05:03,198.804,0.1039999999999991,100.0,1115.0,24199.5,4821.5,97.0,1127.7,343.3,4878.5,76.85388599999999,2.9212002000000004,0.046486568,0.02958176,-1.1943718,53.876,0.051581474,0.038110052,-1.1592318,0.40943011,1.24734282,5.5410569,23.75,-2.35,67.05,-32.2,1.3,257.8,-1087.5,6.75,317.85,1015.6658,-3.6765624,3231.35,0.051581474,0.0004683338,0.038110052,0.000208476,-1.1592318,-0.0123722821999999,53875.0,29358.5,26885.0,12.5,10.0,-26.5,0,None
2023-01-03 19:05:04,199.7838888888889,0.1022222222222239,100.0,1096.0,24128.5,4899.5,97.0,1118.6666666666667,346.3333333333333,4842.111111111111,76.76682999999998,2.9329213333333337,0.045161585,0.0345063799999999,-1.1895485,53.875,0.0516240875,0.0430967499999999,-1.15505275,0.5516482777777777,1.0973388666666666,5.914331222222223,27.11111111111111,7.111111111111111,69.44444444444444,-20.22222222222222,-9.333333333333334,259.22222222222223,-1089.3333333333333,-9.22222222222222,327.77777777777777,1015.6665555555556,-3.675833222222222,3232.8888888888887,0.0516240875,0.0094842545,0.0430967499999999,0.0136637457,-1.15505275,0.02038646325,53875.0,29383.0,26885.0,7.5,13.0,-26.5,0,None
2023-01-03 19:05:05,200.75511111111115,0.1134444444444429,100.0,1054.0,24194.0,4812.0,97.0,1081.111111111111,349.3333333333333,4887.0,76.69977555555556,2.9444393333333334,0.039566096,0.034520242,-1.196172,53.878,0.046573302,0.0422817459999999,-1.1614964,0.4770731888888889,1.0000557,4.488696000000001,21.166666666666668,1.2777777777777777,67.83333333333333,-46.16666666666666,13.22222222222222,261.0,-1069.9444444444443,-21.38888888888889,312.6111111111111,1015.6602222222222,-3.6819962222222222,3234.055555555556,0.046573302,0.017800402,0.0422817459999999,-0.0056167809999999,-1.1614964,-0.021695277,53880.0,29332.0,26890.0,8.5,11.5,-28.0,0,None
2023-01-03 19:05:06,201.757,0.0999999999999999,100.0,1120.5,24191.5,4891.5,97.0,1109.4,352.2,4877.3,76.63429,2.9572238,0.055848364,0.025180846,-1.2024092,53.876,0.062149882,0.03345797,-1.1676704,0.5672756000000001,0.9058632999999998,4.5226736,18.5,-6.0,64.5,-30.9,20.6,261.7,-1078.5,-8.4,305.3,1015.6911,-3.6512422,3235.8,0.062149882,0.0182960195999999,0.03345797,-0.0075360335,-1.1676704,-0.0090190258,53870.0,29323.0,26880.0,9.0,16.0,-29.0,0,None
2023-01-03 19:05:07,202.757,0.0999999999999999,100.0,1146.0,24132.0,4818.5,97.0,1159.8,355.5,4863.2,76.59088400000002,2.970062,0.0502046379999999,0.020048576,-1.1905253999999998,53.846,0.056229682,0.028787998,-1.1568138,0.45335459,1.20202197,3.9355302,34.8,-0.7,65.1,-51.1,-16.4,253.4,-1087.3,14.2,308.5,1015.6944,-3.6479844,3237.0,0.056229682,0.0146596659999999,0.028787998,-0.00607351,-1.1568138,0.0119386447999999,53840.0,29373.0,26850.0,1.0,22.0,-24.0,0,None
2023-01-03 19:05:08,203.763,0.102000000000001,100.0,1166.0,24160.0,4888.0,97.0,1104.2,358.5,4843.2,76.58577600000001,2.9829424,0.040257708,0.022178812,-1.1896998,53.82000000000001,0.047297556,0.031138168,-1.1556156000000002,0.5111495699999999,1.13505784,4.4894603,25.0,13.9,63.7,-38.5,13.1,260.6,-1072.8,9.1,310.2,1015.6871,-3.6551171,3238.4,0.047297556,0.0117673712,0.031138168,0.022208902,-1.1556156000000002,0.0113160591,53815.0,29381.5,26825.0,-5.0,19.5,-22.5,0,None
2023-01-03 19:05:09,204.80300000000005,0.1039999999999991,100.0,1087.5,24112.0,4888.5,97.0,1097.1,361.9,4867.1,76.60361599999999,2.9951696,0.041926672,0.0334964559999999,-1.1938782,53.82000000000001,0.048570074,0.0420687379999999,-1.1613034,0.46676855,1.1454962400000004,4.9493453,33.15,15.1,68.75,-47.95,8.6,265.7,-1052.2,-2.75,308.65,1015.6641,-3.6782968,3239.8,0.048570074,0.008783994,0.0420687379999999,0.0201869247799999,-1.1613034,-0.0287035335999999,53815.0,29334.0,26825.0,-5.5,16.5,-24.5,0,None
2023-01-03 19:05:10,205.79144444444444,0.1044444444444441,100.0,1096.5,24180.5,4890.5,97.0,1109.3333333333333,364.8888888888889,4890.333333333333,76.61890333333332,3.007633777777777,0.044071642,0.035730286,-1.1967552,53.786,0.050535334,0.044128918,-1.1641298,0.5634398555555555,0.9799334666666666,4.168830333333333,20.444444444444443,-3.7777777777777777,64.11111111111111,-27.77777777777778,4.888888888888889,265.6666666666667,-1063.111111111111,-6.444444444444445,305.1111111111111,1015.6674444444444,-3.6748262222222223,3241.111111111112,0.050535334,0.0074829265999999,0.044128918,-0.00380704986,-1.1641298,-0.0015584167999999,53785.0,29333.0,26795.0,1.5,19.0,-24.0,0,None
2023-01-03 19:05:11,206.781,0.1060000000000001,100.0,1110.0,24165.0,4894.5,97.0,1104.4,367.9,4892.5,76.61668999999999,3.0191334,0.040088696,0.031272256,-1.1951376000000002,53.738,0.046611134,0.039986596,-1.1627588,0.4696745,0.94494652,5.4065025,35.65,-3.25,63.65,-60.9,5.55,258.55,-1064.5,19.65,311.95,1015.6571,-3.68509365,3242.4,0.046611134,-0.0124683048,0.039986596,-0.0055258008,-1.1627588,0.0235933058,53735.0,29346.0,26745.0,6.5,21.0,-26.0,0,None
2023-01-03 19:05:12,207.7758888888889,0.1022222222222239,100.0,1072.0,24108.0,4821.0,97.0,1082.7777777777778,371.0,4839.0,76.60569222222222,3.030861555555556,0.0303819699999999,0.02800391,-1.1981780000000002,53.715,0.0369909975,0.0365700125,-1.16623025,0.4749185444444444,1.1062827666666666,5.775533333333333,21.666666666666668,16.0,71.77777777777777,-46.0,-0.2222222222222222,259.1111111111111,-1095.5555555555557,-39.22222222222222,311.3333333333333,1015.6545555555556,-3.687665,3244.0,0.0369909975,-0.031482023425,0.0365700125,0.019888995,-1.16623025,-0.00098231125,53720.0,29328.0,26730.0,3.0,17.0,-25.0,0,None
2023-01-03 19:05:13,208.741,0.0999999999999999,100.0,1087.5,24162.5,4898.5,97.0,1081.4,373.8,4878.2,76.583024,3.0419898000000005,0.038081946,0.0303301839999999,-1.2096192,53.67999999999999,0.045266184,0.038234842,-1.1775606,0.38014576,1.2375231999999998,6.2031923,20.8,-6.3,58.8,-69.9,18.7,256.7,-1086.1,-10.8,304.4,1015.6701,-3.6721952,3245.5,0.045266184,0.0375742714,0.038234842,-0.016274558862,-1.1775606,0.0198184694,53685.0,29246.5,26695.0,10.0,13.0,-28.0,0,None
2023-01-03 19:05:14,209.743,0.0999999999999999,100.0,1092.5,24093.5,4823.5,97.0,1110.2,376.9,4848.6,76.55353,3.0521018,0.03826507,0.024377756,-1.1942502000000002,53.614,0.0450510659999999,0.032397158,-1.1629664,0.4232824199999999,1.06435156,3.1462130000000004,29.8,6.0,69.5,-62.5,-16.7,257.6,-1086.2,1.4,318.6,1015.6523,-3.689961,3246.5,0.0450510659999999,-0.0236719916,0.032397158,-0.0018020924,-1.1629664,0.0226483516,53620.0,29331.0,26630.0,9.0,20.0,-27.5,0,None
2023-01-03 19:05:15,210.7391,0.0999999999999999,100.0,1104.0,24180.5,4898.0,97.0,1087.7,379.9,4874.8,76.53127199999999,3.0616186,0.022118694,0.022354448,-1.1901153999999998,53.584,0.029401694,0.0298846119999999,-1.158989,0.4881641,1.10495293,4.2258775,19.0,1.6,77.3,-45.1,1.2,260.0,-1090.8,-8.2,319.6,1015.6844,-3.6580469,3248.2,0.029401694,0.0086085086,0.0298846119999999,-0.0066193547999999,-1.158989,-0.0175828266,53590.0,29368.5,26600.0,8.5,18.0,-27.5,0,None
2023-01-03 19:05:16,211.747,0.1019999999999981,100.0,1057.5,24077.5,4899.0,97.0,1040.8,382.9,4861.1,76.506342,3.0691151,0.0292187039999999,0.0129078967999999,-1.201958,53.562,0.035626066,0.020551496,-1.171141,0.4815837999999999,1.16985566,6.9101162,17.2,0.5,69.0,-49.0,5.8,254.7,-1056.3,-29.1,310.4,1015.7119000000002,-3.6305859,3249.5,0.035626066,0.030815662,0.020551496,-0.0175543729999999,-1.171141,0.0037886132,53570.0,29292.0,26580.0,12.0,9.0,-23.5,0,None
2023-01-03 19:05:17,212.787,0.1060000000000001,100.0,1043.0,24176.5,4894.5,97.0,1013.2,385.9,4888.9,76.49228,3.074936,0.0402869566666666,0.0144902565,-1.2001906666666666,53.528333333333336,0.04694693,0.0214710616666666,-1.1697435,0.4747573099999999,1.2091466499999997,6.471157600000001,19.15,13.3,66.7,-44.9,-16.3,257.5,-1065.8,-23.65,322.25,1015.70395,-3.6384765,3250.7,0.04694693,0.0274944978333333,0.0214710616666666,0.0039671753333333,-1.1697435,-0.0161338745,53530.0,29295.33333333333,26540.0,3.0,8.333333333333334,-21.0,0,None
2023-01-03 19:05:18,213.7915555555556,0.1044444444444441,100.0,1031.0,24143.0,4815.0,97.0,1022.6666666666666,388.77777777777777,4887.111111111111,76.50461888888888,3.079792111111111,0.0420717625,0.02580012,-1.20538675,53.5175,0.0491583425,0.0324325225,-1.17541825,0.4899787222222223,1.2288643333333331,7.622636,21.22222222222222,12.444444444444445,63.0,-50.333333333333336,13.333333333333334,256.0,-1084.0,-24.11111111111111,314.6666666666667,1015.7003333333336,-3.641953111111111,3252.0,0.0491583425,0.06168099575,0.0324325225,0.0014627449999999,-1.17541825,0.008461884775,53520.0,29269.0,26530.0,2.0,9.0,-22.0,0,None
2023-01-03 19:05:19,214.7571,0.1001000000000004,100.0,1030.0,24201.5,4892.5,97.0,1021.8,391.5,4845.9,76.525738,3.0844622,0.0547430639999999,0.016973324,-1.2071878,53.52,0.0614081779999999,0.02364893,-1.1768930000000002,0.4829018999999999,1.1900217000000002,6.6156892,30.8,5.7,58.1,-24.6,-7.9,253.2,-1101.2,25.8,318.3,1015.6929,-3.6493983,3253.4,0.0614081779999999,-0.0003882899999999,0.02364893,0.0145624721999999,-1.1768930000000002,-0.028809624,53520.0,29254.5,26530.0,0.0,19.0,-20.5,0,None
2023-01-03 19:05:20,215.758,0.0999999999999999,100.0,1027.5,24208.5,4897.0,97.0,1042.6,394.3,4894.0,76.56852599999999,3.0905115999999992,0.034371436,0.029804498,-1.2043662000000002,53.538,0.041215428,0.036703856,-1.174657,0.57164555,1.07153754,5.9311425,23.3,-1.6,65.0,-38.8,-24.8,261.1,-1050.3,0.8,310.3,1015.6679,-3.6743673,3254.5,0.041215428,-0.03010756,0.036703856,0.004959338,-1.174657,0.018626318824,53535.0,29265.5,26545.0,-2.0,29.0,-22.5,0,None
2023-01-03 19:05:21,216.7579,0.0999999999999999,100.0,994.0,24163.0,4824.5,97.0,1017.2,397.1,4851.2,76.61154400000001,3.0970646000000004,0.029068808,0.0071037888254,-1.2012832,53.564,0.036555142,0.0136717736,-1.1719696000000002,0.5201800555555557,1.1682302333333334,6.87070911111111,31.5,-9.7,73.4,-16.9,9.2,251.2,-1054.2,15.9,317.5,1015.6776000000002,-3.6647108,3255.9,0.036555142,0.0359177574,0.0136717736,-0.007943312,-1.1719696000000002,-0.020660702,53565.0,29281.0,26575.0,5.0,20.0,-25.0,0,None
2023-01-03 19:05:22,217.758,0.0999999999999999,100.0,1016.0,24186.0,4899.5,97.0,1017.1,400.0,4851.1,76.64890199999999,3.101554,0.042034626,0.019583778,-1.2037646,53.552,0.048897652,0.02639951,-1.1740072,0.54744472,1.14323396,7.1351339,27.0,8.6,63.1,-35.3,24.6,257.3,-1074.5,-9.9,313.8,1015.6663999999998,-3.6759844,3257.2,0.048897652,0.0136357759999999,0.02639951,-0.0055144279999999,-1.1740072,-0.0007651411999999,53550.0,29274.5,26560.0,-3.5,12.5,-24.0,0,None
2023-01-03 19:05:23,218.766,0.102000000000001,100.0,966.0,24182.5,4898.0,97.0,999.0,402.8,4898.0,76.701148,3.1055578,0.040068886,0.0232633166,-1.2003338,53.602,0.04711857,0.030394094,-1.1705042000000003,0.6082280800000001,1.2297264,6.405311500000001,26.0,35.9,68.9,-43.9,-5.5,253.8,-1061.0,-23.6,312.1,1015.6219,-3.7203671,3258.4,0.04711857,-0.010329712,0.030394094,0.035110284,-1.1705042000000003,0.0072648333999999,53595.0,29298.5,26605.0,-9.5,13.5,-27.0,0,None
2023-01-03 19:05:24,219.794,0.1019999999999981,100.0,1030.5,24208.0,4898.0,97.0,1067.9,405.9,4858.1,76.75634799999999,3.1101842000000004,0.051511282,0.041504076,-1.2015472,53.648,0.0587608979999999,0.04821906,-1.1713666,0.5922121000000001,0.9791109100000002,6.4809394,21.7,21.0,61.8,-67.65,41.45,261.85,-1045.45,-13.15,307.65,1015.59995,-3.7423163,3259.6,0.0587608979999999,0.0384321929999999,0.04821906,0.0015212019999999,-1.1713666,0.0038093194,53645.0,29276.5,26655.0,-5.5,12.0,-36.0,0,None
2023-01-03 19:05:25,220.79466666666667,0.1066666666666675,100.0,1145.5,24106.0,4900.5,97.0,1185.3333333333333,409.1111111111111,4872.888888888889,76.79424000000002,3.116468222222222,0.052114346,0.0506370359999999,-1.1845082000000002,53.664,0.058915416,0.057838384,-1.1532156,0.5920499555555555,0.9952248666666668,6.825317888888888,32.111111111111114,-9.333333333333334,62.77777777777778,-51.11111111111112,-1.1111111111111112,267.0,-1042.0,34.111111111111114,304.22222222222223,1015.6196666666666,-3.722638666666666,3260.6666666666665,0.058915416,0.0004078943999999,0.057838384,-0.019578242,-1.1532156,0.0168631004,53670.0,29365.0,26680.0,-1.0,17.0,-36.5,0,None
