00000_Time_epoch,00000_Time_boot_sec,00000_Span_Time_boot_sec,1_battery_remaining_avg,1_current_battery_avg,1_voltage_battery_avg,125_Vcc_avg,147_battery_remaining_avg,147_current_battery_avg,147_current_consumed_avg,165_Vcc_avg,168_direction_avg,168_speed_avg,178_pitch_avg,178_roll_avg,178_yaw_avg,182_altitude_avg,182_pitch_avg,182_roll_avg,182_yaw_avg,241_vibration_x_avg,241_vibration_y_avg,241_vibration_z_avg,27_xacc_avg,27_xgyro_avg,27_xmag_avg,27_yacc_avg,27_ygyro_avg,27_ymag_avg,27_zacc_avg,27_zgyro_avg,27_zmag_avg,29_press_abs_avg,29_press_diff_avg,29_temperature_avg,30_pitch_avg,30_pitchspeed_avg,30_roll_avg,30_rollspeed_avg,30_yaw_avg,30_yawspeed_avg,33_alt_avg,33_hdg_avg,33_relative_alt_avg,33_vx_avg,33_vy_avg,33_vz_avg,label,diagnosis
2022-12-25 08:57:20,260.19300000000004,-0.0571428571428539,77.0,94.0,23020.5,4886.5,99.0,95.66666666666669,70.0,4869.857142857143,30.12334285714285,0.6929065714285715,0.0154986999999999,0.0391446,-1.4857636666666665,32.39666666666667,0.0206964766666666,0.0466047866666666,-1.5038729999999998,0.0271202833333333,0.0287535016666666,0.0650649033333333,4.333333333333333,2.6666666666666665,1.0,-58.16666666666666,3.6666666666666665,275.0,-1053.5,0.1666666666666666,317.8333333333333,1016.3105714285714,-0.1755580142857142,3570.5714285714284,0.0206964766666666,0.0039510553333333,0.0466047866666666,0.0032796106666666,-1.5038729999999998,0.00044565969,32420.0,27384.0,-50.0,5.0,8.0,-17.0,0,None
2022-12-25 08:57:21,261.043,0.0999999999999999,77.0,90.5,22980.0,4884.0,99.0,93.6,70.0,4873.9,29.509972000000005,0.5612314399999999,0.015022584,0.039433482,-1.4857116,32.316,0.020882038,0.0468328019999999,-1.503644,0.035447347,0.033372387,0.050505229,4.2,2.0,1.6,-56.5,1.5,275.5,-1064.2,1.0,318.5,1016.3171999999998,-0.16892968,3571.5,0.020882038,0.0040210998,0.0468328019999999,0.0023204302,-1.503644,0.0007328378199999,32335.0,27384.5,-135.0,6.0,9.0,-17.0,0,None
2022-12-25 08:57:22,262.043,0.0999999999999999,77.0,141.5,22984.5,4889.0,99.0,175.2,70.4,4881.0,28.6864,0.6120126000000001,0.01613469,0.039155134,-1.4872596,32.222,0.021226108,0.046970234,-1.5038604,0.16986603,0.21806855,1.45438371,14.5,4.1,-3.1,-54.3,4.8,276.8,-1058.1,-19.9,316.9,1016.3352,-0.15084375,3572.4,0.021226108,0.004208792,0.046970234,0.00284700258,-1.5038604,-0.019388788,32245.0,27386.0,-225.0,6.5,9.5,-17.5,0,None
2022-12-25 08:57:23,263.06120000000004,0.1040999999999996,77.0,133.5,22987.5,4889.0,99.0,135.7,71.0,4877.3,28.136512,0.7365626600000001,0.015453346,0.038701998,-1.4883598,32.105999999999995,0.021437318,0.046684552,-1.5034218,0.24473613,0.2012023999999999,0.95502215,5.7,1.8,-2.6,-58.1,3.7,276.9,-1049.2,19.3,318.3,1016.3435999999998,-0.1426171799999999,3573.5,0.021437318,0.0046646454,0.046684552,0.000786871576,-1.5034218,0.0152217979999999,32135.0,27383.5,-335.0,5.5,11.5,-19.5,0,None
2022-12-25 08:57:24,264.084,0.0999999999999999,76.5,1711.5,22562.5,4889.5,99.0,1447.8,73.0,4882.3,27.883236,0.8822994999999999,-0.0002848513999999,0.0018148155999999,-1.4915832,32.144000000000005,0.0052061956,0.0089834217999999,-1.5021824,0.4651975999999999,0.92872454,3.5334534000000004,7.1,-67.4,-22.4,-24.3,-32.7,254.6,-1181.3,5.1,291.4,1016.5287999999998,0.042468739,3574.7,0.0052061956,-0.051848633,0.0089834217999999,-0.076492144,-1.5021824,0.02968487188,32085.0,27374.5,-385.0,5.0,10.5,6.0,0,None
2022-12-25 08:57:25,265.084,0.0999999999999999,75.5,1828.0,22454.5,4882.0,99.0,1937.5,78.0,4874.3,28.664796000000003,1.0005874199999998,0.0013503092,0.0185410882,-1.4641766,33.554,0.0065895159799999,0.0253810192,-1.4686028,0.37084277,1.07536548,2.8370595,-2.7,80.4,-15.3,-12.2,56.0,255.5,-1220.5,35.0,291.8,1016.1899,-0.2962812199999999,3575.7,0.0065895159799999,0.0322302723999999,0.0253810192,0.125541186,-1.4686028,0.029755622,33155.0,27564.5,685.0,-11.5,-14.0,171.0,0,None
2022-12-25 08:57:26,266.03844444444445,0.1044444444444441,74.5,1748.5,22485.0,4890.0,99.0,1736.4444444444443,82.77777777777777,4881.555555555556,30.02442555555556,1.0889934444444445,0.036142364,-0.0011191651999999,-1.4819994,36.578,0.0392772099999999,0.0036325559999999,-1.562977,0.3791706,1.1949308222222224,4.419896444444444,-1.8888888888888888,-102.0,-24.22222222222222,0.2777777777777778,13.38888888888889,253.5555555555556,-1113.0,-33.55555555555556,285.1111111111111,1015.8638333333332,-0.6224479222222222,3576.8888888888887,0.0392772099999999,0.01430867,0.0036325559999999,-0.0987238564,-1.562977,-0.03111673914,36000.0,27255.0,3530.0,32.5,-7.5,299.0,0,None
2022-12-25 08:57:27,267.03830000000005,0.1060000000000001,74.0,1178.0,22648.5,4883.0,99.0,1205.8,87.2,4877.8,32.018964,1.151011,-0.0012809838,-0.055204714,-1.5133278,39.798,0.003865661594,-0.047622202,-1.6082558000000002,0.53166031,0.8604390399999999,3.4592847000000004,-10.4,10.5,-15.5,16.1,-34.5,240.5,-882.5,-1.2,330.6,1015.4797999999998,-1.00634369,3577.9,0.003865661594,-0.03130899502,-0.047622202,-0.003602796,-1.6082558000000002,0.0074970312,39325.0,26786.0,6855.0,30.0,14.5,273.5,0,None
2022-12-25 08:57:28,268.08489999999995,0.1001000000000032,73.5,1119.5,22645.5,4888.5,99.0,1112.1,90.2,4880.0,34.271742,1.1572326,-0.0111713454,-0.036825184,-1.4978278,41.334,-0.003940369,-0.031046724,-1.5880782,0.63744964,0.94467485,3.8150049,-2.8,31.2,-3.7,12.2,12.0,242.5,-947.7,11.2,328.4,1015.2711000000002,-1.2150469000000002,3579.3,-0.003940369,0.018745472,-0.031046724,0.0291566732,-1.5880782,0.0024397007999999,41210.0,26893.5,8740.0,8.5,10.0,86.5,0,None
2022-12-25 08:57:29,269.085,0.0999999999999999,73.0,1159.5,22618.0,4883.0,99.0,1188.0,93.5,4879.9,36.609716000000006,1.115148,-2.267690000000017e-05,-0.029811186,-1.5033340000000002,41.752,0.005068383,-0.0248007599999999,-1.587535,0.53187067,1.06551717,7.0459503,3.5,-5.8,-11.0,-2.4,15.3,245.7,-1024.6,-12.5,323.1,1015.1851,-1.3009453,3580.4,0.005068383,0.01156641172,-0.0248007599999999,-0.0177124212,-1.587535,0.0075632266,41690.0,26909.0,9220.0,7.0,2.0,13.0,0,None
2022-12-25 08:57:30,270.085,0.0999999999999999,73.0,1188.0,22636.0,4877.0,99.0,1176.8,96.8,4879.3,39.163518,1.0520754,0.0034360582,-0.0196054879999999,-1.4928654,41.956,0.007654582,-0.0143399647999999,-1.5731622,0.53022483,1.28524605,8.473663,6.7,21.4,-5.6,-6.1,5.2,251.6,-1030.6,3.4,321.7,1015.155,-1.3311329,3581.6,0.007654582,-0.0013054579999999,-0.0143399647999999,0.0210533988,-1.5731622,0.0195682329999999,41930.0,26957.5,9460.0,8.0,-0.5,-8.0,0,None
2022-12-25 08:57:31,271.0372222222222,0.1022222222222176,72.0,1179.5,22624.0,4873.0,99.0,1173.111111111111,100.0,4878.888888888889,42.16995222222223,0.9846517555555554,0.0005720356175,-0.0183175975,-1.4968535,42.035,0.004374686175,-0.01429226725,-1.57360225,0.4332646444444444,1.3696456222222222,9.739003444444442,-5.055555555555555,-15.22222222222222,-4.777777777777778,18.22222222222222,1.1111111111111112,253.72222222222223,-1039.3333333333333,8.055555555555555,328.55555555555554,1015.1359444444444,-1.3502301111111108,3582.611111111112,0.004374686175,0.0107149799999999,-0.01429226725,-0.0158518815,-1.57360225,0.01649106425,42030.0,26985.0,9560.0,16.0,-10.0,-18.0,0,None
2022-12-25 08:57:32,272.031,0.1060000000000002,72.0,1221.5,22595.5,4889.0,99.0,1210.8,103.3,4884.8,46.57086399999999,0.91385046,-0.0851522444,-0.04702731,-1.4807484,42.092,-0.080513367,-0.042672772,-1.5548638,0.5105087100000001,1.6309344,11.2278971,-8.1,-15.0,26.5,10.6,6.1,237.6,-1063.3,-5.3,324.3,1015.1239,-1.3622421000000002,3583.9,-0.080513367,-0.0679998839999999,-0.042672772,-0.013981892,-1.5548638,0.0046979626,42090.0,27096.0,9620.0,14.0,-59.0,-21.0,0,None
2022-12-25 08:57:33,273.0283333333333,0.1066666666666706,72.0,1251.0,22547.5,4892.0,99.0,1281.7777777777778,106.66666666666669,4883.222222222223,51.95135222222223,0.8579803444444445,0.03942105,-0.192075538,-1.5012606,42.084,0.0410747859999999,-0.186771216,-1.5710149999999998,0.5213188444444445,1.715653222222222,13.134588888888889,-14.22222222222222,-224.38888888888889,-10.444444444444445,44.833333333333336,42.333333333333336,206.22222222222223,-1065.888888888889,-19.11111111111111,360.8888888888889,1015.1378333333336,-1.3482897777777776,3585.055555555556,0.0410747859999999,0.0765606299999999,-0.186771216,-0.200873578,-1.5710149999999998,-0.0103900498,42085.0,26994.5,9615.0,-49.0,-94.5,-21.5,0,None
2022-12-25 08:57:34,274.051,0.1060000000000002,71.0,1142.5,22605.0,4890.5,99.0,1119.3,110.2,4884.4,58.873538,0.80645644,-0.0122396484,0.0640367799999999,-1.5071146000000002,42.066,-0.0083552424,0.06546409,-1.57729,0.4922363199999999,1.7479115000000005,12.5141897,6.4,586.6,-0.9,28.8,-36.5,242.1,-1099.9,-13.2,319.0,1015.2156,-1.2707263999999998,3586.5,-0.0083552424,-0.001706482,0.06546409,0.5919023400000001,-1.57729,-0.0144430079999999,42065.0,26964.5,9595.0,-154.0,-85.5,-16.0,0,None
2022-12-25 08:57:35,275.05511111111105,0.1044444444444441,71.0,1317.0,22515.0,4890.0,99.0,1299.6666666666667,113.66666666666669,4884.444444444444,67.27197777777778,0.7597582777777778,0.10961939,0.040113302,-1.5218973999999998,41.926,0.1082137308,0.0397862319999999,-1.587369,0.4642955444444444,1.9375433333333327,13.582454888888886,5.555555555555555,-412.3888888888889,-35.22222222222222,12.27777777777778,218.3333333333333,280.5,-1067.3333333333333,5.777777777777778,290.3333333333333,1015.204111111111,-1.282131,3587.722222222222,0.1082137308,0.2381062357999999,0.0397862319999999,-0.4329077879999999,-1.587369,0.01567053,41920.0,26906.0,9450.0,57.5,-83.5,-15.5,0,None
2022-12-25 08:57:36,276.0432,0.1040999999999996,71.0,1116.5,22591.0,4891.5,99.0,1149.9,116.8,4887.4,74.998336,0.7344548399999999,0.159573664,-0.075916454,-1.4926524,41.988,0.159192058,-0.0651459952,-1.5507646,0.5691818599999999,1.18425662,8.031204300000002,46.1,128.6,-66.5,16.3,-281.5,223.6,-1071.7,16.6,341.9,1015.1536,-1.3325078,3588.8,0.159192058,-0.351669064,-0.0651459952,0.1199444259999999,-1.5507646,0.0285050444,41990.0,27120.5,9520.0,12.0,95.5,-9.0,0,None
2022-12-25 08:57:37,277.03155555555554,0.1044444444444441,70.0,1303.0,22501.5,4895.0,99.0,1215.4444444444443,120.0,4881.555555555556,83.70238444444445,0.7408331555555556,-0.226137975,0.004539535,-1.5068305,42.0525,-0.214619325,0.0080573447499999,-1.5626385,0.5910562666666667,1.5692718888888888,9.856868111111112,16.5,-9.5,57.05555555555556,11.61111111111111,-147.33333333333334,259.27777777777777,-1040.4444444444443,-30.38888888888889,303.3888888888889,1015.1725555555556,-1.3135547777777774,3589.777777777778,-0.214619325,-0.08800681,0.0080573447499999,-0.0350260025,-1.5626385,-0.00861328975,42040.0,27045.5,9570.0,14.5,-14.5,-23.0,0,None
2022-12-25 08:57:38,278.02419999999995,0.1040999999999996,70.0,1569.0,22426.5,4894.0,99.0,1509.0,124.0,4887.3,93.000986,0.78310266,-0.15193502,-0.059352584,-1.5165136,42.05,-0.14485566,-0.058601134,-1.5690332000000002,0.43856796,1.4269982,7.8153221,-13.1,-74.5,40.9,15.2,29.6,243.6,-1165.0,-13.7,320.6,1015.1699999999998,-1.3162030999999998,3591.1,-0.14485566,0.0542911539999999,-0.058601134,-0.069399,-1.5690332000000002,-0.0200871904,42110.0,26991.0,9640.0,11.5,-220.0,24.0,0,None
2022-12-25 08:57:39,279.047,0.0999999999999999,69.5,1491.5,22492.0,4891.5,99.0,1515.7777777777778,128.33333333333334,4880.0,100.743036,0.8415756,-0.19289812,-0.1211475999999999,-1.537783,42.71,-0.1874942,-0.11879822,-1.5859758,0.45592163,1.3222677000000005,8.686195099999999,-44.4,-0.1,44.4,34.1,-42.3,211.8,-1095.8,-7.7,333.2,1015.1016999999998,-1.3845703,3592.1,-0.1874942,-0.046788288,-0.11879822,-0.012878744,-1.5859758,-0.0176359686,42915.0,26906.0,10445.0,-49.0,-384.5,80.5,0,None
2022-12-25 08:57:40,280.047,0.0999999999999999,69.0,1561.5,22443.5,4883.0,99.0,1540.0,132.6,4874.0,107.69278,0.91071838,-0.17133932,-0.0630687579999999,-1.540429,43.822,-0.16691438,-0.062491248,-1.5826438,0.46504528,1.3696545000000002,10.452115700000002,-71.9,14.7,47.3,53.7,129.1,232.5,-1126.2,7.3,318.6,1014.8942,-1.5918828,3593.4,-0.16691438,0.1146091529999999,-0.062491248,0.02449297,-1.5826438,-0.0009982478,44140.0,26942.5,11670.0,-66.0,-540.5,132.0,0,None
2022-12-25 08:57:41,281.10144444444444,0.1133333333333312,69.0,1288.0,22505.0,4882.0,99.0,1312.888888888889,136.66666666666666,4877.388888888889,114.4528777777778,0.9802059666666668,0.050107058,-0.067682017,-1.5397112000000002,45.644000000000005,0.0479990099999999,-0.0628080225999999,-1.5775818,0.5079105555555556,1.1053684333333331,10.787240944444443,-61.72222222222222,151.88888888888889,-22.5,48.55555555555556,97.66666666666669,223.38888888888889,-1046.5555555555557,6.111111111111111,342.27777777777777,1014.6807777777778,-1.805390555555556,3594.555555555556,0.0479990099999999,0.1702559899999999,-0.0628080225999999,0.107928322,-1.5775818,0.01392233798,46070.0,26957.0,13600.0,-58.0,-504.5,150.5,0,None
2022-12-25 08:57:42,282.06699999999995,0.0999999999999999,69.0,1427.5,22481.0,4889.0,99.0,1377.9,140.2,4882.3,119.8264,1.0424091999999996,0.0400092343999999,0.032991272,-1.5433014,47.526,0.0387105025999999,0.039562418,-1.579322,0.4756648099999999,1.2961563,11.469946099999998,-53.5,-91.8,-25.5,48.7,41.7,260.4,-1072.2,1.0,310.4,1014.5332,-1.9530703,3595.5,0.0387105025999999,0.0533645799999999,0.039562418,-0.089757944,-1.579322,-0.0003972117999999,47890.0,26965.5,15420.0,27.0,-407.5,146.5,0,None
2022-12-25 08:57:43,283.06699999999995,0.0999999999999999,68.0,1532.5,22448.5,4888.0,99.0,1510.0,144.3,4880.4,124.10728000000002,1.106978,0.01881553,0.007655762,-1.5503102,49.202,0.020121284,0.017212484,-1.5802804,0.4374368299999999,1.3183308,10.8031952,-41.2,160.5,-26.0,56.8,-196.4,237.9,-1070.2,0.8,317.5,1014.4145,-2.0717735,3596.6,0.020121284,-0.1876497399999999,0.017212484,0.158848542,-1.5802804,-0.0063780634,49560.0,26924.0,17090.0,66.0,-320.5,162.5,0,None
2022-12-25 08:57:44,284.06699999999995,0.0999999999999999,68.0,1482.0,22434.0,4893.0,99.0,1519.1,148.5,4882.1,127.59799999999998,1.1738676,-0.023163586,0.010145232,-1.559433,50.964,-0.0176818199999999,0.0150285059999999,-1.5827952,0.42625341,1.4536043,11.566533000000002,-39.6,-221.4,0.0,21.4,258.9,264.0,-1062.4,13.0,309.6,1014.1945,-2.291711,3597.7,-0.0176818199999999,0.28292472,0.0150285059999999,-0.216640972,-1.5827952,0.0124560626,51345.0,26947.0,18875.0,158.0,-342.0,166.0,0,None
2022-12-25 08:57:45,285.06699999999995,0.0999999999999999,68.0,1590.5,22406.5,4889.5,99.0,1603.3,152.9,4877.1,130.93352,1.2366076,0.1436617599999999,-0.110004894,-1.5572852,52.792,0.14533158,-0.1006662439999999,-1.5733673999999995,0.4032582444444444,1.2987424444444442,8.198613000000002,-26.0,49.7,-59.6,43.5,-19.5,207.6,-1064.1,-0.7,341.0,1013.989,-2.4970859,3598.7,0.14533158,-0.029270244,-0.1006662439999999,0.0560696319999999,-1.5733673999999995,-0.0015631684,53175.0,26992.5,20705.0,92.5,-188.0,167.0,0,None
2022-12-25 08:57:46,286.06699999999995,0.0999999999999999,67.0,1357.0,22470.5,4891.5,99.0,1445.5,157.2,4886.4,134.14466000000002,1.2982548,0.11826902,-0.060359984,-1.5647458,54.56999999999999,0.12519238,-0.0549825759999999,-1.5730756,0.42077738,1.3989912,8.5636941,-15.7,24.8,-47.7,43.6,-0.5,227.6,-993.0,7.8,323.3,1013.7595,-2.7268124,3599.7,0.12519238,0.00960949968,-0.0549825759999999,0.027763313,-1.5730756,-0.01242383,54895.0,26998.5,22425.0,51.5,-60.0,128.5,0,None
2022-12-25 08:57:47,287.06699999999995,0.0999999999999999,67.0,1242.0,22500.0,4894.0,98.9,1169.4,160.5,4883.9,136.88425999999998,1.3645415999999997,0.07858197,-0.033872662,-1.5665458,55.52,0.0864312719999999,-0.031973864,-1.569225,0.51722357,1.18488248,8.5245377,0.9,37.6,-34.1,31.7,-53.0,239.1,-935.6,1.6,336.7,1013.6473,-2.8388360000000006,3600.6,0.0864312719999999,-0.0484236,-0.031973864,0.0463922248,-1.569225,-0.0093954164,55550.0,27009.5,23080.0,43.0,11.0,-4.5,0,None
2022-12-25 08:57:48,288.06699999999995,0.0999999999999999,67.0,1344.5,22470.0,4891.5,98.0,1345.7,164.1,4886.1,138.83592000000002,1.434336,-0.040757214,-0.03326575,-1.5655667999999998,55.544,-0.032132638,-0.03439718,-1.5636953999999998,0.43553913,1.344764,8.1843255,0.0,-28.4,-2.7,26.3,-144.5,249.8,-1042.3,-4.2,322.3,1013.6095,-2.8767654,3601.6,-0.032132638,-0.162074556,-0.03439718,-0.0252071498,-1.5636953999999998,0.0061276273999999,55550.0,27042.5,23080.0,49.5,-3.0,-17.0,1,27_xacc_avg_constant_0
2022-12-25 08:57:49,289.06699999999995,0.0999999999999999,67.0,1333.0,22440.5,4896.0,98.0,1334.0,167.9,4882.4,140.3103,1.5051457999999998,0.085051336,-0.0577100599999999,-1.5697214,55.6,0.091149902,-0.06116724,-1.5662522,0.4613340999999999,1.378185,8.9850961,0.0,-2.6,-29.7,40.4,202.6,235.8,-1061.4,8.5,332.6,1013.6081,-2.8781015,3602.7,0.091149902,0.209131552,-0.06116724,-0.0063018016,-1.5662522,0.006531853,55605.0,27030.0,23135.0,34.0,-2.0,-18.5,1,27_xacc_avg_constant_0
2022-12-25 08:57:50,290.071,0.1019999999999981,67.0,1292.0,22468.0,4888.5,98.0,1293.8,171.5,4882.6,141.56768,1.5752302000000002,-0.0062101625999999,-0.097780016,-1.5686228,55.624,-0.0016560219999999,-0.0994972139999999,-1.5629494000000002,0.4619866199999999,1.3795254,8.925358200000002,0.0,-77.8,-15.1,29.4,-232.4,229.2,-1051.7,-18.0,346.1,1013.6019,-2.8842264,3603.6,-0.0016560219999999,-0.2319296,-0.0994972139999999,-0.083062478,-1.5629494000000002,-0.0067493954,55630.0,27047.5,23160.0,-3.5,25.0,-19.5,1,27_xacc_avg_constant_0
2022-12-25 08:57:51,291.087,0.0999999999999999,67.0,1326.5,22451.5,4885.0,98.0,1355.8,175.3,4882.8,142.5304,1.6515586,-0.154016468,-0.13482452,-1.5806314,55.626,-0.144327318,-0.1385705,-1.5714994,0.4558932,1.3920296,9.0097596,0.0,29.5,36.9,41.3,90.2,213.0,-1069.6,-3.8,344.1,1013.6093,-2.8767576,3604.4,-0.144327318,0.090379138,-0.1385705,0.035065756,-1.5714994,-0.00994745,55630.0,26972.0,23160.0,-89.5,-120.0,-20.5,1,27_xacc_avg_constant_0
2022-12-25 08:57:52,292.087,0.0999999999999999,67.0,1239.5,22475.0,4884.0,98.0,1209.3,178.8,4884.1,143.53458,1.7279574,0.108333746,0.0075303503199999,-1.5842586,55.648,0.109325794,-5.902020000000119e-05,-1.5748006,0.57399258,1.539084,11.2562602,0.0,125.1,-40.0,58.0,182.4,241.7,-1126.4,25.7,322.8,1013.6184,-2.8678279000000004,3605.3,0.109325794,0.194531688,-5.902020000000119e-05,0.145222218,-1.5748006,-0.005775683246,55650.0,26985.5,23180.0,-71.0,-92.0,-16.0,1,27_xacc_avg_constant_0
2022-12-25 08:57:53,293.087,0.0999999999999999,67.0,1299.0,22461.5,4893.0,98.0,1255.1,182.2,4884.1,144.55038,1.7897268,0.0528198856,-0.0144080429999999,-1.5940822,55.596,0.052619183,-0.0163910484,-1.5807028,0.4807727899999999,1.7198086000000004,11.595310199999998,0.0,-69.5,-36.7,18.3,-122.6,244.9,-1017.2,-1.3,321.3,1013.6435,-2.8426092,3606.1,0.052619183,-0.151191742,-0.0163910484,-0.066525266,-1.5807028,-0.0099907466,55590.0,26938.5,23120.0,-13.5,-5.5,-20.0,1,27_xacc_avg_constant_0
2022-12-25 08:57:54,294.0525555555556,0.1022222222222239,66.0,1294.5,22459.5,4895.5,98.0,1284.3333333333333,185.5555555555556,4890.222222222223,145.114,1.8344453333333333,0.0010614058,-0.045371598,-1.5860774,55.58200000000001,0.0043764306,-0.045062806,-1.5713838,0.4514102875,1.49541625,9.73794175,0.0,19.22222222222222,-12.944444444444445,43.16666666666666,22.72222222222222,238.16666666666663,-1054.9444444444443,21.77777777777778,323.1111111111111,1013.6060555555556,-2.8800303888888887,3607.3333333333335,0.0043764306,0.0376848932,-0.045062806,0.0288033259999999,-1.5713838,0.028087142,55570.0,27003.0,23100.0,-16.0,-11.0,-16.0,1,27_xacc_avg_constant_0
2022-12-25 08:57:55,295.011,0.0999999999999999,66.0,1275.5,22452.0,4898.5,98.0,1255.4,188.9,4890.1,145.52824,1.8706278,0.02097906,-0.02226099,-1.5825017999999995,55.612,0.024798748,-0.022690042,-1.5671072,0.4541667199999999,1.4083850399999998,8.963255899999998,0.0,19.3,-17.0,27.2,22.1,246.7,-1061.0,3.4,320.6,1013.6011999999998,-2.8848826999999995,3608.1,0.024798748,0.0159269096,-0.022690042,0.031258988,-1.5671072,-0.0076391559999999,55605.0,27023.0,23135.0,-14.0,-15.5,-21.0,1,27_xacc_avg_constant_0
2022-12-25 08:57:56,296.021,0.1019999999999981,66.0,1284.5,22449.5,4894.5,98.0,1246.1,192.7,4888.6,145.85764,1.9023276,-0.052988482,0.0041504476,-1.5890874,55.63,-0.049414058,0.00423508618,-1.5731156,0.4820415899999999,1.4488701,10.0454679,0.0,24.3,-4.5,23.7,-145.2,252.4,-1049.9,-8.5,317.0,1013.6227,-2.8633595000000005,3608.7,-0.049414058,-0.140670076,0.00423508618,0.0262192219999999,-1.5731156,-0.0074773342,55630.0,27004.5,23160.0,8.5,-17.5,-20.0,1,27_xacc_avg_constant_0
2022-12-25 08:57:57,297.045,0.104000000000002,66.0,1332.5,22443.0,4887.5,98.0,1335.7,196.3,4891.0,146.0016,1.9288016,0.073285768,-0.0623349659999999,-1.5826454,55.578,0.075777872,-0.06175644,-1.5650574,0.4763634499999999,1.5527871,9.340761,0.0,-67.7,-22.8,17.9,228.6,236.4,-1057.3,25.1,320.6,1013.6222999999998,-2.8640001,3609.8,0.075777872,0.2053078579999999,-0.06175644,-0.05529315,-1.5650574,0.0202797263999999,55590.0,26997.5,23120.0,38.5,-73.0,-21.5,1,27_xacc_avg_constant_0
2022-12-25 08:57:58,298.06699999999995,0.0999999999999999,66.0,1259.0,22451.0,4898.0,98.0,1230.5,199.9,4885.7,146.15948,1.9532664,0.037344917,-0.0243062152,-1.5837776,55.596,0.040765935616,-0.0217599636,-1.5665472,0.4928828799999999,1.489065,9.0794879,0.0,66.7,-28.1,35.5,-96.7,247.8,-1036.1,-13.5,330.8,1013.6101999999998,-2.8760858,3610.7,0.040765935616,-0.0858418619999999,-0.0217599636,0.056670772,-1.5665472,-0.0197090378,55575.0,27052.0,23105.0,14.0,-5.0,-13.5,1,27_xacc_avg_constant_0
2022-12-25 08:57:59,299.06699999999995,0.0999999999999999,66.0,1159.5,22461.5,4894.0,98.0,1124.0,203.2,4885.9,146.17644,1.9795836,0.008546814,-0.045570736,-1.5859976,55.636,0.0145064509999999,-0.0435606599999999,-1.5686808,0.6566229699999999,1.6829131999999998,11.312391600000002,0.0,-44.7,-8.3,3.8,30.1,242.5,-1068.3,7.1,330.4,1013.5975,-2.8886562,3611.5,0.01281714125,0.0071066499999999,-0.0429596075,-0.027887295,-1.568835,0.014138714,55630.0,26988.0,23160.0,24.5,-3.5,-16.0,1,27_xacc_avg_constant_0
2022-12-25 08:58:00,300.0325555555556,0.1044444444444441,66.0,1136.0,22471.0,4894.5,98.0,1167.888888888889,206.22222222222223,4888.555555555556,146.12572222222224,2.0053793333333334,-0.05503764,-0.0460386275,-1.58875625,55.635000000000005,-0.0484746392499999,-0.044228075,-1.57108525,0.6552175888888888,1.1828286666666668,11.95275411111111,0.0,16.5,0.5555555555555556,24.166666666666668,-40.333333333333336,240.8333333333333,-1045.6666666666667,-12.055555555555555,331.44444444444446,1013.6088333333332,-2.8775304444444445,3612.1111111111113,-0.0484746392499999,-0.0207424999999999,-0.044228075,0.02412593575,-1.57108525,-0.0238874975,55635.0,27017.0,23165.0,14.0,-33.0,-23.0,1,27_xacc_avg_constant_0
2022-12-25 08:58:01,301.025,0.104000000000002,66.0,1287.0,22449.0,4898.0,98.0,1270.0,209.7,4890.4,146.09552,2.0372884,0.12670708,-0.042087114,-1.5830635999999998,55.606,0.129453556,-0.040469964,-1.5655309999999998,0.4817612,1.5232846,10.5029545,0.0,2.9,-48.7,28.0,25.2,234.8,-1067.4,9.6,326.5,1013.593,-2.8931405000000003,3613.0,0.129453556,0.0888764479999999,-0.040469964,0.0009944608,-1.5655309999999998,0.01546062,55605.0,27023.0,23135.0,5.0,-40.0,-27.5,1,27_xacc_avg_constant_0
2022-12-25 08:58:02,302.051,0.1019999999999981,66.0,1160.0,22478.0,4886.5,98.0,1177.9,213.2,4881.9,145.98012,2.0705722,0.0210618772,-0.0298483459999999,-1.5893034,55.628,0.0262721582,-0.026806354,-1.5716222,0.53719677,1.28612196,9.6343512,18.5,19.4,-16.6,20.5,-81.5,245.2,-1065.8,-14.8,324.9,1013.606,-2.8800546,3614.0,0.0262721582,-0.0864588,-0.026806354,0.0056095319999999,-1.5716222,-0.0047219050199999,55625.0,27002.5,23155.0,3.0,32.5,-20.0,0,None
2022-12-25 08:58:03,303.071,0.1019999999999981,66.0,1330.5,22426.5,4894.5,98.0,1255.1,216.5,4883.8,145.75106000000002,2.1038842000000004,0.02022617056,-0.034470848,-1.5908986,55.63,0.02657347,-0.031861152,-1.5734050000000002,0.5215659500000001,1.26099088,8.4976368,16.5,-5.8,-16.4,27.4,43.2,247.6,-1056.3,12.6,333.2,1013.6148,-2.8711718,3614.7,0.02657347,0.0455540213999999,-0.031861152,-0.0003642439999999,-1.5734050000000002,0.0081566526,55635.0,26976.0,23165.0,11.0,13.0,-21.0,0,None
2022-12-25 08:58:04,304.0525555555556,0.1022222222222239,66.0,1234.0,22446.5,4891.5,98.0,1226.5555555555557,220.0,4891.333333333333,145.6211888888889,2.132084111111112,0.0254729879999999,-0.041349384,-1.5748422,55.612,0.030022972,-0.039295528,-1.5578054,0.5003814,1.3233631555555554,8.453967666666665,17.72222222222222,-0.1666666666666666,-9.0,25.77777777777778,-22.38888888888889,250.22222222222223,-1074.4444444444443,11.22222222222222,340.22222222222223,1013.6132222222222,-2.873090055555556,3615.444444444444,0.030022972,-0.016812307,-0.039295528,0.0078873058,-1.5578054,0.0036203259999999,55610.0,27070.5,23140.0,12.0,11.5,-20.0,0,None
2022-12-25 08:58:05,305.011,0.0999999999999999,66.0,1226.0,22438.5,4893.5,98.0,1210.9,223.2,4894.1,145.50868,2.1591158000000004,0.0250199518,-0.03352589,-1.5828222,55.6,0.0300353924,-0.03166053,-1.5664139999999998,0.51725507,1.1384038800000005,7.6634495,18.3,14.5,-17.6,22.6,31.0,243.1,-1064.6,-15.7,330.4,1013.645,-2.8411249000000005,3616.2,0.0300353924,0.051409594,-0.03166053,0.0173420024,-1.5664139999999998,-0.01432191024,55605.0,27032.5,23135.0,5.0,-1.5,-19.0,0,None
2022-12-25 08:58:06,306.013,0.1019999999999981,66.0,1180.5,22464.0,4889.5,98.0,1202.2,226.6,4892.5,145.40609999999998,2.1860606,0.035962522,-0.021103012,-1.5881598,55.566,0.03989699,-0.018695118,-1.5724332,0.56275115,1.5188217000000002,7.8598237,19.3,18.0,-23.2,13.0,-13.4,249.2,-1038.8,-2.4,322.0,1013.6404,-2.8457654000000003,3617.0,0.03989699,0.0023279661999999,-0.018695118,0.0291146101999999,-1.5724332,-0.00777382,55565.0,26995.0,23095.0,7.5,4.0,-13.0,0,None
2022-12-25 08:58:07,307.0453,0.104000000000002,66.0,1235.0,22434.0,4895.5,98.0,1235.1,230.2,4888.5,145.20214,2.210369,0.0331503879999999,-0.030019238,-1.5912468,55.566,0.037740152,-0.0280092259999999,-1.5765398,0.5588745500000001,1.14236214,9.621697899999996,14.6,-21.4,-20.9,30.1,-6.8,249.5,-1076.0,-1.0,329.5,1013.6274,-2.858789,3617.6,0.037740152,0.00551804,-0.0280092259999999,-0.0362668034,-1.5765398,0.0031831359999999,55565.0,26965.5,23095.0,20.5,11.5,-17.5,0,None
2022-12-25 08:58:08,308.064,0.1088888888888908,66.0,1222.0,22412.5,4884.0,98.0,1222.2222222222222,233.5555555555556,4882.222222222223,144.87346666666667,2.2342792222222223,0.0208390175,-0.0494679774999999,-1.57466275,55.5725,0.0262997425,-0.0473099525,-1.560478,0.4724929222222223,1.4115539777777777,8.681411555555556,14.166666666666666,-7.5,-14.944444444444445,27.27777777777778,15.333333333333334,242.94444444444449,-999.1666666666666,30.61111111111111,324.3888888888889,1013.6346666666666,-2.8514452222222224,3618.1111111111113,0.0262997425,0.01140625,-0.0473099525,-0.01320934,-1.560478,0.02659102025,55570.0,27061.0,23100.0,15.0,10.5,-16.0,0,None
2022-12-25 08:58:09,309.0671,0.1039999999999963,66.0,1221.5,22450.5,4895.5,98.0,1247.9,237.0,4882.1,144.63556,2.2567794,0.0376821279999999,-0.031284974,-1.5735481999999998,55.568000000000005,0.04342421,-0.0286747879999999,-1.559999,0.49822095,1.22815475,7.513552299999999,21.0,34.8,-21.3,11.1,31.8,252.1,-1020.2,-16.7,327.5,1013.6343,-2.8517499,3618.9,0.04342421,0.027447154,-0.0286747879999999,0.0508611019999999,-1.559999,-0.0223835643,55570.0,27049.5,23100.0,2.5,7.0,-15.5,0,None
2022-12-25 08:58:10,310.0731111111111,0.1089999999999993,65.0,1236.5,22422.0,4878.5,98.0,1232.4444444444443,240.5555555555556,4892.111111111111,144.39463333333333,2.281314,0.025398234,-0.0257217719999999,-1.5821928,55.574,0.0312098039999999,-0.023684578,-1.5693904,0.4332414666666666,1.3746473222222222,8.047780222222222,14.0,-8.0,-17.72222222222222,28.166666666666668,-24.444444444444443,243.16666666666663,-1063.1666666666667,8.0,325.3888888888889,1013.6230555555557,-2.863046777777778,3619.6111111111113,0.0312098039999999,-0.050509838,-0.023684578,-0.01467960592,-1.5693904,0.014898694,55575.0,27011.0,23105.0,12.0,17.5,-16.0,0,None
2022-12-25 08:58:11,311.03700000000003,0.1065555555555558,65.0,1217.5,22440.0,4883.0,98.0,1210.4444444444443,243.66666666666663,4883.888888888889,144.11487777777776,2.3021924444444446,0.01817305775,-0.0275020925,-1.58254,55.595,0.024154215,-0.02510552,-1.56992275,0.4809439777777778,1.430154511111111,8.026026777777778,10.38888888888889,3.555555555555556,-16.72222222222222,11.5,23.5,243.27777777777777,-1048.5555555555557,-13.88888888888889,323.94444444444446,1013.617,-2.8690624444444444,3620.055555555556,0.024154215,0.003088681,-0.02510552,0.0071170425,-1.56992275,-0.0282307825,55595.0,26991.0,23125.0,13.5,10.0,-18.5,0,None
2022-12-25 08:58:12,312.0254,0.1040000000000019,65.0,1186.0,22444.5,4882.0,98.0,1184.3,247.2,4889.6,143.86203999999998,2.3210756000000003,0.02020501,-0.0319313259999999,-1.590883,55.60600000000001,0.026440576,-0.030139506,-1.5778534,0.5280104700000001,1.6652458,7.107347700000001,17.6,-13.6,-21.1,9.8,8.2,236.4,-1022.2,-3.6,327.0,1013.5979,-2.8882265000000005,3621.0,0.026440576,0.0269090901999999,-0.030139506,-0.0107728157999999,-1.5778534,0.0018378856,55610.0,26957.5,23140.0,15.5,5.0,-19.0,0,None
2022-12-25 08:58:13,313.0552,0.1019999999999981,65.0,1205.0,22433.5,4883.5,98.0,1193.2,250.5,4882.9,143.65524,2.3380592,0.027459408,-0.043080342,-1.586183,55.63199999999999,0.0331799619999999,-0.041358194,-1.573476,0.62224539,1.12313359,9.1703412,15.0,13.5,-20.4,24.6,8.2,235.0,-1054.6,4.8,330.0,1013.5966,-2.8894532000000006,3621.4,0.0331799619999999,0.0033703069999999,-0.041358194,0.0099435416,-1.573476,0.0137878972,55635.0,26997.5,23165.0,8.0,5.0,-22.0,0,None
2022-12-25 08:58:14,314.0347777777778,0.1022222222222239,65.0,1207.5,22434.5,4896.0,98.0,1196.7777777777778,253.66666666666663,4888.444444444444,143.50333333333333,2.3550594444444446,0.028652898,-0.039414518,-1.5811427999999998,55.64,0.03484143,-0.037501354,-1.5705572,0.4526367,1.6356763333333335,8.767875444444444,15.055555555555555,-6.055555555555555,-16.944444444444443,27.55555555555556,-9.22222222222222,242.11111111111111,-1056.5555555555557,-2.111111111111111,329.22222222222223,1013.5980555555556,-2.888007722222222,3622.055555555556,0.03484143,-0.015609472,-0.037501354,0.0012583401999999,-1.5705572,-0.0047710415999999,55640.0,27016.0,23170.0,5.0,9.0,-20.0,0,None
2022-12-25 08:58:15,315.0375,0.104000000000002,65.0,1212.0,22405.0,4890.0,98.0,1189.4,257.2,4888.1,143.36242,2.374782,0.033469568,-0.027713056,-1.5883612,55.636,0.03996811,-0.02553909,-1.5786440000000002,0.4882296399999999,1.7518284999999998,9.2783499,18.5,9.4,-23.6,5.5,40.5,247.9,-1058.6,-8.5,334.2,1013.6011999999998,-2.8849218,3622.6,0.03996811,0.0349271773999999,-0.02553909,0.024821114,-1.5786440000000002,0.0031101323999999,55640.0,26960.0,23170.0,2.5,8.0,-21.0,0,None
2022-12-25 08:58:16,316.0651,0.1039999999999963,65.0,1178.0,22409.5,4893.0,98.0,1209.1,260.5,4891.7,143.20254,2.393861,0.0258074234,-0.036893928,-1.582673,55.636,0.032367379,-0.034074204,-1.5735952000000002,0.43866429,1.5170733200000002,9.0559796,9.8,-4.6,-22.3,22.5,-47.6,242.2,-1048.0,8.7,329.1,1013.5957999999998,-2.8902343,3623.0,0.032367379,-0.062674078,-0.034074204,-0.0065940332799999,-1.5735952000000002,-0.00060175,55635.0,26976.5,23165.0,5.5,24.0,-23.5,0,None
2022-12-25 08:58:17,317.06177777777776,0.1045555555555589,65.0,1210.5,22418.0,4878.5,98.0,1200.5555555555557,263.77777777777777,4895.444444444444,143.00872222222222,2.413683222222222,-2.6867500000004804e-06,-0.0293855675,-1.5766955,55.615,0.007188753075,-0.0264513975,-1.5676392499999998,0.5729808666666666,1.3712997666666666,7.963746111111111,11.5,9.22222222222222,-17.5,22.72222222222222,21.72222222222222,245.5555555555556,-1058.9444444444443,7.111111111111111,332.77777777777777,1013.6241666666668,-2.8619617777777777,3623.8333333333335,0.007188753075,0.029458629,-0.0264513975,0.001974735,-1.5676392499999998,-0.0011467914999999,55620.0,27018.5,23150.0,2.0,13.5,-21.5,0,None
2022-12-25 08:58:18,318.0431,0.1019000000000005,65.0,1234.0,22403.5,4886.5,98.0,1249.7,267.2,4896.3,142.94314,2.4278458,0.0324555319999999,-0.029876432,-1.582499,55.576,0.0387408879999999,-0.0271610519999999,-1.5739878,0.4602148,1.2741883900000002,8.137032800000002,8.6,5.7,-22.5,10.3,14.0,244.5,-1066.7,-5.7,329.3,1013.6291,-2.8570545,3624.1,0.0387408879999999,0.02701798,-0.0271610519999999,0.0147823178,-1.5739878,-0.0096762065999999,55580.0,26981.0,23110.0,4.5,6.5,-18.0,0,None
2022-12-25 08:58:19,319.0393333333334,0.1088888888888845,65.0,1225.5,22413.0,4894.0,98.0,1211.5555555555557,270.3333333333333,4891.222222222223,142.8814111111111,2.4399388888888893,0.017809386,-0.025470236,-1.581752,55.584,0.024600615,-0.022732864,-1.574057,0.4714936555555556,1.4199367777777778,8.96566288888889,5.0,1.8888888888888888,-19.55555555555556,24.55555555555556,-29.22222222222222,245.88888888888889,-1051.7222222222222,7.0,326.05555555555554,1013.6034444444444,-2.8826345,3625.0,0.024600615,-0.0194210554,-0.022732864,0.0019733102599999,-1.574057,0.0205788104,55585.0,26981.0,23115.0,8.5,19.5,-17.0,0,None
2022-12-25 08:58:20,320.0473,0.104000000000002,65.0,1228.5,22413.5,4892.0,98.0,1208.0,273.8,4896.2,142.7898,2.4518762,0.0022589945,-0.03057466,-1.5717458,55.614,0.0090367098,-0.0276861079999999,-1.5646679999999995,0.4986662,1.25171709,8.809065900000002,4.3,6.2,-8.8,14.3,26.4,246.0,-1039.6,15.5,337.4,1013.6116,-2.8745234,3625.0,0.0090367098,0.0120118941999999,-0.0276861079999999,-0.00144655198,-1.5646679999999995,0.0127881036,55615.0,27035.5,23145.0,11.0,9.5,-19.0,0,None
2022-12-25 08:58:21,321.0594444444444,0.1088888888888908,65.0,1206.5,22369.0,4884.5,98.0,1192.111111111111,277.22222222222223,4896.555555555556,142.78205555555556,2.4595333333333333,0.0047423906,-0.0268420979999999,-1.5727118,55.618,0.01072812838,-0.024088666,-1.5665090000000004,0.5532023,1.5882045555555555,12.110947444444443,-0.4444444444444444,-3.6666666666666665,-10.77777777777778,19.77777777777778,-14.38888888888889,253.94444444444449,-1075.7222222222222,-30.166666666666668,323.3333333333333,1013.6282222222222,-2.8580294444444445,3625.8888888888887,0.01072812838,-0.01202856,-0.024088666,-0.01234554628,-1.5665090000000004,-0.0238007012,55620.0,27032.5,23150.0,13.5,3.5,-22.0,0,None
2022-12-25 08:58:22,322.04622222222224,0.1089999999999993,65.0,1201.0,22416.0,4894.0,98.0,1215.111111111111,280.6666666666667,4896.0,142.8216111111111,2.464615555555556,0.0183712565,-0.0457593975,-1.600275,55.5825,0.024375775,-0.042853425,-1.5937845,0.5356401555555556,1.362793822222222,11.04044777777778,-4.5,-21.05555555555556,-23.166666666666668,23.55555555555556,-5.777777777777778,240.0555555555556,-1054.0,-20.11111111111111,335.77777777777777,1013.6516666666666,-2.8345441666666664,3626.1111111111113,0.024375775,0.0402840025,-0.042853425,0.00463538975,-1.5937845,-0.0270193724749999,55580.0,26858.5,23110.0,15.0,5.0,-15.0,0,None
2022-12-25 08:58:23,323.0432,0.1019000000000005,65.0,1154.0,22416.5,4893.5,98.0,1166.0,283.9,4893.7,142.90663999999998,2.4699782,0.000350359,-0.05676884,-1.5958036000000002,55.582,0.0070284671999999,-0.0536304959999999,-1.5900786,0.63577256,1.06052254,12.1137802,4.2,14.6,-15.8,26.1,15.1,239.0,-1019.5,15.3,335.1,1013.6131999999998,-2.8726641,3627.0,0.0070284671999999,0.0076181667999999,-0.0536304959999999,-0.0045785019999999,-1.5900786,0.0104618574,55590.0,26906.0,23120.0,3.5,0.5,-16.5,0,None
2022-12-25 08:58:24,324.0237777777777,0.1088888888888845,65.0,1222.5,22391.0,4893.0,98.0,1217.888888888889,287.0,4891.111111111111,143.04626666666667,2.478057222222222,0.0230193075,-0.035352325,-1.59672175,55.584,0.026468804,-0.03496234,-1.590938,0.6357737444444445,1.0249067555555555,13.62370222222222,2.333333333333333,6.722222222222222,-22.61111111111111,20.666666666666668,11.055555555555555,240.11111111111111,-1065.7222222222222,-10.38888888888889,330.94444444444446,1013.6599444444444,-2.826271777777777,3627.277777777778,0.026468804,0.0190356392,-0.03496234,-0.00315980936,-1.590938,-0.0171570455999999,55570.0,26870.0,23100.0,-4.5,-1.0,-17.5,0,None
2022-12-25 08:58:25,325.0235,0.1020000000000038,65.0,1237.0,22393.5,4895.5,98.0,1196.2,290.7,4889.6,143.21792,2.4885068,0.02529235,-0.051706188,-1.5965964,55.532,0.0312598999999999,-0.04890296,-1.5929918,0.52263127,1.6950975,10.3801054,10.1,8.8,-24.9,23.8,1.0,235.9,-1045.2,11.4,339.1,1013.6132,-2.8729766000000003,3627.8,0.0312598999999999,-0.008609804,-0.04890296,-0.003790348,-1.5929918,0.008969607,55535.0,26881.0,23065.0,-8.0,11.0,-12.5,0,None
2022-12-25 08:58:26,326.0348888888889,0.1066666666666643,65.0,1171.0,22412.0,4894.0,98.0,1189.4444444444443,293.6666666666667,4892.888888888889,143.34473333333335,2.4993716666666668,0.0115442413999999,-0.032400166,-1.5858298,55.598,0.0175978684,-0.030908874,-1.582957,0.5086344333333332,1.792007111111111,12.223548222222222,19.61111111111111,-0.2777777777777778,-23.72222222222222,36.888888888888886,-16.88888888888889,241.16666666666663,-1039.1666666666667,9.77777777777778,329.8888888888889,1013.5925,-2.893711,3628.0,0.0175978684,-0.0187665714,-0.030908874,0.0026676088,-1.582957,0.0143363821999999,55605.0,26935.5,23135.0,2.0,9.5,-19.5,0,None
2022-12-25 08:58:27,327.03529999999995,0.104000000000002,65.0,1255.5,22383.0,4895.5,98.0,1247.8,297.4,4892.5,143.46890000000002,2.5112672000000003,-0.141008788,-0.062894732,-1.5804442,55.626,-0.133071772,-0.062185764,-1.5783425999999998,0.5360478599999999,1.6436204,12.82542,-2.4,-24.6,27.5,25.6,-81.8,236.9,-1050.3,5.6,329.8,1013.6129,-2.8731952,3628.8,-0.133071772,-0.0510469239999999,-0.062185764,-0.0205199293999999,-1.5783425999999998,0.0002245577999999,55625.0,26967.5,23155.0,2.0,-94.5,-23.5,0,None
2022-12-25 08:58:28,328.0491,0.1019999999999981,65.0,1161.0,22413.0,4894.0,98.0,1218.3,300.8,4893.8,143.59488,2.5257372,-0.032158532,-0.1120491519999999,-1.5759534000000002,55.6,-0.0273099459999999,-0.11137516,-1.575171,0.52635379,1.5230982999999998,11.6026257,-16.0,-8.3,7.1,28.5,164.3,219.6,-1119.1,-24.0,343.1,1013.5914,-2.8948515,3628.9,-0.0273099459999999,0.176243784,-0.11137516,-0.025244502,-1.575171,0.0040394686,55605.0,26970.5,23135.0,-38.0,-187.0,-18.5,0,None
2022-12-25 08:58:29,329.027125,0.1176250000000038,65.0,1201.5,22375.0,4894.0,98.0,1159.625,303.9375,4891.875,143.810025,2.541343375,0.1045494966666666,-0.0286811143333333,-1.586246,55.626666666666665,0.1055526566666666,-0.0279046929999999,-1.5885683333333336,0.58165190625,1.7566305625000005,12.615906375,-8.1875,93.3125,-46.6875,16.0,15.9375,235.5625,-1004.0,-11.875,326.6875,1013.6455,-2.840493125,3630.0,0.1055526566666666,0.0459479433333333,-0.0279046929999999,0.10398046,-1.5885683333333336,-0.0119923526666666,55620.0,26881.0,23150.0,-35.0,-116.5,-18.0,0,None
2022-12-25 08:58:30,330.0253,0.1038999999999986,65.0,1181.0,22371.0,4885.5,98.0,1174.2,307.4,4894.2,144.05414,2.5547963,0.0389154738,-0.034904012,-1.5880388,55.562,0.0430799476,-0.031635974,-1.5909322,0.61935015,1.52068485,11.4778884,-5.0,-14.6,-29.2,44.9,39.2,242.5,-1081.8,20.3,328.3,1013.6663,-2.8196562,3630.0,0.0430799476,0.0281677099999999,-0.031635974,-0.00775827794,-1.5909322,0.0281910184,55535.0,26933.5,23065.0,-5.0,-63.0,-15.0,1,27_xgyro_avg_constant_-14.6
2022-12-25 08:58:31,331.0671,0.1039999999999963,65.0,1150.0,22421.0,4889.5,98.0,1172.2,310.5,4892.7,144.22328,2.564579,0.045636784,-0.0479954239999999,-1.5695538,55.526,0.0503625299999999,-0.043474772,-1.571842,0.5967011099999999,1.7565563000000002,13.4249115,15.1,-14.6,-26.1,28.9,-13.8,241.7,-1033.2,1.5,335.9,1013.6119,-2.8741951,3630.5,0.0503625299999999,-0.023160098,-0.043474772,-0.020362964,-1.571842,-0.0026929505999999,55535.0,26998.0,23065.0,1.5,-27.5,-16.5,1,27_xgyro_avg_constant_-14.6
2022-12-25 08:58:32,332.0597777777777,0.1044444444444441,65.0,1181.0,22411.0,4895.5,98.0,1192.111111111111,313.77777777777777,4895.888888888889,144.36146666666664,2.575655,0.05935319,-0.045434866,-1.5626920000000002,55.59400000000001,0.064702482,-0.04217809,-1.5644732,0.5930734222222223,1.4320394333333333,12.684013333333334,10.555555555555555,-14.6,-28.88888888888889,51.55555555555556,39.0,238.66666666666663,-1008.5555555555557,13.444444444444445,329.6666666666667,1013.5605555555557,-2.925525055555556,3631.1111111111113,0.064702482,0.0503265499999999,-0.04217809,0.0198298869999999,-1.5644732,0.0044277387999999,55600.0,27045.0,23130.0,4.0,-13.0,-23.0,1,27_xgyro_avg_constant_-14.6
2022-12-25 08:58:33,333.045,0.104000000000002,65.0,1182.5,22380.5,4893.0,98.0,1183.8,317.2,4886.2,144.45466000000002,2.5890208,0.053181586,-0.039540834,-1.5594758,55.678,0.058199492,-0.03636059,-1.561491,0.60053809,1.6758035000000002,12.126732,17.3,-14.6,-24.2,29.5,-29.3,241.1,-1052.6,-11.6,336.3,1013.5894,-2.8967967000000003,3631.8,0.058199492,-0.0460920808,-0.03636059,-0.0034849411999999,-1.561491,-0.0070043478,55675.0,27065.5,23205.0,9.5,16.0,-25.5,1,27_xgyro_avg_constant_-14.6
2022-12-25 08:58:34,334.0548888888889,0.1066666666666643,64.0,1242.0,22371.0,4891.5,98.0,1264.2222222222222,320.6666666666667,4893.111111111111,144.4585111111111,2.6052985555555552,0.0301899999999999,-0.04732342,-1.560882,55.645,0.0358345775,-0.0446321325,-1.56289975,0.5058618444444444,1.4465464555555556,10.543447333333337,26.38888888888889,-14.6,-19.55555555555556,36.44444444444444,3.4444444444444446,235.22222222222223,-1029.0555555555557,9.944444444444445,328.94444444444446,1013.5535,-2.932630055555556,3632.1111111111113,0.0358345775,-0.0180357075,-0.0446321325,0.0159353947499999,-1.56289975,-0.0056186035,55650.0,27042.0,23180.0,16.5,33.5,-24.5,1,27_xgyro_avg_constant_-14.6
2022-12-25 08:58:35,335.0553,0.1061000000000035,64.0,1221.0,22385.0,4886.5,97.6,1238.3,324.2,4886.7,144.45974,2.6203614,0.0211218825,-0.0520992875,-1.5589225,55.686,0.02705267,-0.050045462,-1.5611814,0.5591801700000001,1.35338097,10.1129848,15.3,-14.6,-18.9,41.1,6.9,224.6,-1034.1,4.9,320.8,1013.5732000000002,-2.9129608000000005,3632.9,0.02705267,0.0260232695202,-0.050045462,-0.0121645425999999,-1.5611814,0.013868816,55685.0,27057.5,23215.0,20.0,28.0,-26.5,1,27_xgyro_avg_constant_-14.6
2022-12-25 08:58:36,336.0571111111111,0.1044444444444441,64.0,1168.5,22386.5,4903.0,97.0,1218.888888888889,327.44444444444446,4895.444444444444,144.52238888888888,2.6361170000000005,0.0127654568,-0.06764062,-1.553025,55.67,0.0187066844,-0.067450952,-1.5555211999999998,0.6142981444444443,1.5417676666666666,11.852102555555554,28.88888888888889,-14.6,-13.833333333333334,30.72222222222222,22.83333333333333,229.61111111111111,-1062.111111111111,11.72222222222222,338.3333333333333,1013.575888888889,-2.9102472222222224,3633.277777777778,0.0182426838,0.019883091,-0.067470732,-0.0366105744,-1.55547,0.0135970234,55670.0,27088.0,23200.0,16.0,6.0,-25.5,1,27_xgyro_avg_constant_-14.6
2022-12-25 08:58:37,337.0611,0.1058999999999968,64.0,1236.0,22372.0,4897.0,97.0,1223.6,330.8,4895.2,144.65221999999997,2.6532494000000004,0.0484784559999999,-0.063334358,-1.5497616,55.646,0.053401488,-0.06360824,-1.5535848,0.5647728799999999,1.3888896199999998,10.6649703,33.2,-14.6,-20.8,36.3,11.1,235.0,-1045.0,14.6,338.2,1013.5973,-2.8888904,3634.0,0.053401488,0.027109914,-0.06360824,-0.005047772,-1.5535848,0.004218484,55645.0,27107.0,23175.0,2.5,1.5,-21.5,1,27_xgyro_avg_constant_-14.6
2022-12-25 08:58:38,338.0372222222222,0.1000000000000037,64.0,1289.0,22373.0,4903.0,97.0,1272.7777777777778,334.3333333333333,4895.111111111111,144.7813,2.6726977777777776,0.05232133,-0.04220134,-1.5520674,55.59400000000001,0.057216724,-0.042461632,-1.5572284,0.5267217666666667,1.3973124111111108,8.55634188888889,24.88888888888889,-14.6,-24.55555555555556,26.11111111111111,17.444444444444443,245.77777777777777,-1068.0,-16.666666666666668,329.77777777777777,1013.6531111111112,-2.833133555555556,3634.3333333333335,0.057216724,0.0179128959999999,-0.042461632,0.031608063,-1.5572284,-0.0091853766,55595.0,27081.0,23125.0,-9.5,12.5,-19.0,1,27_xgyro_avg_constant_-14.6
2022-12-25 08:58:39,339.0235,0.1060000000000001,64.0,1275.0,22351.33333333333,4903.0,97.0,1278.5,337.9,4898.2,144.87292,2.6952346,0.027767676,-0.036995386,-1.563643,55.54,0.0330397119999999,-0.0365458419999999,-1.5692454000000002,0.46528047,1.3306905,7.725046199999999,15.7,-14.6,-22.4,26.45,-26.35,243.6,-1041.85,-6.8,332.1,1013.66005,-2.82605445,3634.95,0.0330397119999999,-0.0403217324,-0.0365458419999999,0.0071376893999999,-1.5692454000000002,0.0080185574,55540.0,27011.5,23070.0,-4.5,27.0,-15.5,1,27_xgyro_avg_constant_-14.6
2022-12-25 08:58:40,340.01044444444443,0.1022222222222176,64.0,1233.0,22370.0,4903.0,97.0,1286.0,341.3333333333333,4892.222222222223,144.90735555555554,2.713859444444444,0.002970447,-0.0271626074999999,-1.5672465000000002,55.515,0.00906607325,-0.0264323575,-1.57283125,0.4593226222222222,1.2582402333333331,7.251879777777778,11.77777777777778,-14.6,-16.666666666666668,14.11111111111111,-3.4444444444444446,240.66666666666663,-1057.0,-10.77777777777778,325.8888888888889,1013.6666666666666,-2.819444555555555,3635.222222222222,0.00906607325,0.002167311,-0.0264323575,-0.003920267,-1.57283125,0.00442427125,55510.0,26984.0,23040.0,0.5,16.0,-12.0,1,27_xgyro_avg_constant_-14.6
2022-12-25 08:58:41,341.0135,0.104000000000002,64.0,1258.0,22362.5,4898.0,97.0,1248.5,345.0,4898.7,144.9456,2.72931,0.0062485284,-0.028035242,-1.5714396,55.526,0.0122661754,-0.028090964,-1.5771694,0.45068362,1.4484027200000005,8.953869700000002,8.85,-14.6,-15.3,21.65,8.75,247.25,-1054.5,2.8,326.85,1013.6356500000002,-2.8506367500000005,3636.0,0.0122661754,0.0134042333999999,-0.028090964,0.01849156172,-1.5771694,0.0025512912,55535.0,26960.0,23065.0,6.5,2.0,-12.0,1,27_xgyro_avg_constant_-14.6
2022-12-25 08:58:42,342.0195,0.1021000000000014,64.0,1199.0,22373.0,4890.0,97.0,1207.8,348.5,4895.9,145.00860999999998,2.7384539,0.0101775492,-0.028053316,-1.5682996,55.57399999999999,0.0155281439999999,-0.027002524,-1.5741192000000002,0.4701980499999999,1.45666387,9.6346479,7.7,-14.6,-15.5,12.9,2.9,250.2,-1042.3,4.8,328.2,1013.6339,-2.8522188,3636.0,0.0155281439999999,0.00277031,-0.027002524,0.0103807768,-1.5741192000000002,0.0023751009999999,55575.0,26996.0,23105.0,10.0,-6.5,-14.5,1,27_xgyro_avg_constant_-14.6
2022-12-25 08:58:43,343.0394,0.1039999999999963,64.0,1203.0,22366.33333333333,4891.666666666667,97.0,1221.6,351.8,4891.8,145.09202,2.7436796,0.02026801,-0.034965182,-1.5578793999999998,55.562,0.024930442,-0.034375294,-1.5645421999999998,0.49204164,1.5043470400000003,9.4864429,7.7,-14.6,-13.6,22.9,-7.8,247.1,-1039.1,0.5,331.6,1013.6364,-2.8496560000000004,3636.7,0.024930442,-0.01882582,-0.034375294,-0.0172182,-1.5645421999999998,-0.01062078,55560.0,27039.5,23090.0,8.0,-7.5,-14.0,1,27_xgyro_avg_constant_-14.6
2022-12-25 08:58:44,344.04622222222224,0.1066666666666706,64.0,1092.0,22413.0,4890.0,97.0,1172.5555555555557,355.22222222222223,4891.777777777777,145.1740777777778,2.747454111111111,0.021029876,-0.034734904,-1.5685718,55.574,0.0254339638,-0.033427812,-1.5762798,0.5630310555555555,1.7483626666666665,11.877480444444444,10.555555555555555,9.444444444444445,-15.444444444444445,10.88888888888889,22.88888888888889,244.72222222222223,-1018.4444444444443,-15.61111111111111,329.8888888888889,1013.6315,-2.8544442777777776,3637.0,0.0254339638,0.019122708,-0.033427812,0.00845352,-1.5762798,-0.0058445786,55570.0,26967.0,23100.0,7.0,-6.0,-12.0,0,None
2022-12-25 08:58:45,345.0452,0.1058999999999968,64.0,1172.0,22369.0,4881.0,97.0,1182.2,358.5,4886.6,145.24537999999998,2.7512582,0.031976838,-0.03374642,-1.5730946,55.576,0.036586632,-0.03204441,-1.5806198,0.4023650499999999,2.0147427,11.0898907,9.9,29.9,-29.4,14.5,-0.1,244.0,-1042.0,6.3,328.9,1013.6182,-2.8679061,3637.1,0.036586632,-0.015830432,-0.03204441,0.044344942,-1.5806198,0.0050249655999999,55575.0,26947.5,23105.0,2.0,-3.0,-15.5,0,None
2022-12-25 08:58:46,346.0527777777777,0.1044444444444441,64.0,1256.0,22362.0,4895.0,97.0,1209.5555555555557,361.6666666666667,4894.333333333333,145.28134444444447,2.755668444444444,0.0493379699999999,-0.0031775387499999,-1.5730197499999998,55.5525,0.0534931899999999,-0.00198757,-1.5810655000000002,0.5555887555555556,1.7849302222222223,12.344775222222223,-6.333333333333333,-29.166666666666668,-26.22222222222222,25.72222222222222,40.61111111111112,257.6666666666667,-1049.611111111111,-3.888888888888889,321.6666666666667,1013.6945555555556,-2.791605611111111,3637.777777777778,0.0534931899999999,0.0478800125,-0.00198757,-0.0152422774999999,-1.5810655000000002,-0.0046878524999999,55565.0,26946.0,23095.0,7.5,14.0,-17.5,0,None
2022-12-25 08:58:47,347.0472999999999,0.1060000000000001,64.0,1246.0,22353.33333333333,4892.666666666667,97.0,1228.1,365.2,4892.8,145.25096,2.758247400000001,0.0010165374,-0.0550024459999999,-1.5858594,55.5,0.0053138765999999,-0.052657324,-1.5929474,0.47368286,1.644492,11.263387599999998,-5.0,2.2,-20.8,25.3,-58.3,238.0,-1043.6,-4.6,328.5,1013.622,-2.864117,3638.0,0.0053138765999999,-0.06170573,-0.052657324,-0.0059732601999999,-1.5929474,-0.0004434151999999,55495.0,26874.5,23025.0,18.0,44.0,-8.5,0,None
2022-12-25 08:58:48,348.0572222222222,0.1044444444444441,64.0,1241.0,22367.0,4896.0,97.0,1226.3333333333333,368.44444444444446,4898.555555555556,145.24393333333333,2.760752888888889,-0.015055604,-0.03448224,-1.5784968,55.576,-0.0106867711999999,-0.033031264,-1.585742,0.5059493111111111,1.5011584444444444,10.222477222222222,-9.0,18.5,-8.777777777777779,23.166666666666668,40.888888888888886,242.44444444444449,-1076.4444444444443,0.3888888888888889,328.1666666666667,1013.6052222222222,-2.8809157222222224,3638.055555555556,-0.0106867711999999,0.021023571,-0.033031264,0.0173419648,-1.585742,-0.0022383951999999,55570.0,26915.0,23100.0,6.0,18.0,-14.5,0,None
2022-12-25 08:58:49,349.0571,0.104000000000002,64.0,1243.5,22370.0,4890.0,97.0,1257.4,371.9,4892.5,145.29304000000002,2.7629882,-0.0033605249399999,-0.034317212,-1.5908278,55.586,-0.0008196316,-0.033014786,-1.599126,0.5196590999999999,1.6413620999999998,12.2518268,-12.2,-6.4,-18.4,18.3,-35.6,247.7,-1078.9,-33.3,329.2,1013.6125999999998,-2.8734764,3638.8,-0.0008196316,-0.0237889063999999,-0.033014786,-0.0101671506,-1.599126,-0.021066632,55585.0,26852.5,23115.0,9.0,11.5,-19.0,0,None
2022-12-25 08:58:50,350.0507777777778,0.1045555555555589,64.0,1207.0,22339.0,4888.0,97.0,1243.4444444444443,375.44444444444446,4898.222222222223,145.38194444444446,2.7637097777777786,-0.0379577875,-0.041933315,-1.5933025,55.585,-0.0346990225,-0.040991755,-1.601554,0.4578075,1.7193137777777774,13.00226,-15.0,-1.3888888888888888,-8.88888888888889,44.16666666666666,5.444444444444445,239.5555555555556,-1027.3333333333333,23.72222222222222,327.6111111111111,1013.613722222222,-2.8725563333333337,3639.0,-0.0346990225,-0.0024011,-0.040991755,-0.0073234132499999,-1.601554,0.01486818875,55585.0,26827.0,23115.0,6.5,-6.5,-18.5,0,None
2022-12-25 08:58:51,351.0413,0.1038999999999986,64.0,1228.0,22361.5,4891.5,97.0,1219.5,378.8,4895.4,145.53368,2.7647978,0.0034342294,-0.033398122,-1.5796446000000002,55.59400000000001,0.0059768565999999,-0.03272469,-1.5884152,0.4838190599999999,1.5206000999999998,11.543378999999998,-11.1,9.0,-21.1,8.5,60.8,239.4,-1033.4,-15.0,328.0,1013.63,-2.8560624,3639.6,0.0059768565999999,0.052412406,-0.03272469,0.0008831759999999,-1.5884152,0.011976606,55590.0,26892.0,23120.0,8.0,-27.0,-14.0,0,None
2022-12-25 08:58:52,352.071,0.1019999999999981,64.0,1256.5,22346.0,4882.5,97.0,1247.2,382.4,4889.6,145.68015999999997,2.765969,0.0239565902,-0.045390282,-1.5832866,55.58,0.0258604143999999,-0.04364868,-1.5922254,0.4756313,1.7164505,12.621014,-11.0,-19.6,-26.4,40.8,-36.6,239.4,-1059.5,0.7,322.5,1013.6252,-2.86075,3639.9,0.0258604143999999,-0.0054732462,-0.04364868,-0.0038388336,-1.5922254,0.0189016415999999,55580.0,26879.0,23110.0,13.0,-4.0,-19.5,0,None
2022-12-25 08:58:53,353.06822222222223,0.1066666666666643,64.0,1189.5,22357.5,4886.0,97.0,1200.6666666666667,385.77777777777777,4889.444444444444,145.82542222222222,2.767220111111111,0.0132965438,-0.041872216,-1.5799696,55.57000000000001,0.0167144308,-0.039620574,-1.5897717999999998,0.5178054222222221,1.7875042222222222,13.499932222222222,-12.333333333333334,15.333333333333334,-19.55555555555556,23.444444444444443,-13.61111111111111,238.8333333333333,-1049.0,-13.333333333333334,331.94444444444446,1013.6577777777778,-2.8282292222222223,3640.277777777778,0.0167144308,-0.00070265878,-0.039620574,0.0039141778,-1.5897717999999998,-0.0254314339999999,55570.0,26892.0,23100.0,6.0,9.5,-14.0,0,None
2022-12-25 08:58:54,354.0733,0.1061000000000035,64.0,1241.5,22343.5,4881.0,97.0,1226.3,389.2,4891.1,145.97647999999998,2.7694046,-0.0062431274,-0.040008244,-1.5842134,55.534000000000006,-0.0024720680879999,-0.037983974,-1.5940881999999998,0.48965967,1.7051246,12.5686133,-6.4,3.2,-17.7,26.0,13.1,245.7,-1064.7,12.2,333.0,1013.6632000000002,-2.8230235,3640.8,-0.0024720680879999,0.0129048587999999,-0.037983974,-0.0043535232799999,-1.5940881999999998,0.012015636,55535.0,26873.0,23065.0,5.5,7.5,-14.0,0,None
2022-12-25 08:58:55,355.0892,0.0998999999999966,64.0,1225.0,22334.5,4885.0,97.0,1230.9,392.5,4887.2,146.14092,2.7714134,0.0115144858,-0.035411386,-1.5708293999999998,55.532,0.0147289012,-0.03403948,-1.5814666,0.5223322699999999,1.6068066,12.456916,-11.4,8.8,-18.4,36.9,-0.3,246.1,-1064.8,2.2,331.2,1013.6168,-2.8693985000000004,3641.0,0.0147289012,-0.00432036,-0.03403948,0.001935548,-1.5814666,-8.352199999999838e-05,55535.0,26940.0,23065.0,6.0,11.0,-12.5,0,None
2022-12-25 08:58:56,356.0872,0.0999999999999999,64.0,1226.5,22353.0,4891.5,97.0,1235.0,395.8,4892.2,146.30204,2.7734474,0.0087142342,-0.034689666,-1.5832282000000002,55.584,0.0122068124,-0.0336828079999999,-1.5934676,0.50156047,1.6746689,12.1506899,-7.3,1.8,-23.7,19.5,16.1,242.5,-1019.4,-20.0,326.6,1013.6094,-2.8767655000000003,3641.5,0.0122068124,0.0038296464,-0.0336828079999999,-0.0132932804,-1.5934676,-0.0184236799999999,55585.0,26858.5,23115.0,10.0,20.0,-18.5,0,None
2022-12-25 08:58:57,357.091,0.1020000000000038,63.0,1242.0,22311.0,4894.5,97.0,1229.0,399.4,4892.1,146.44462,2.7753826000000004,-0.016347953,-0.03472874,-1.5927188,55.604000000000006,-0.0115296284,-0.03328508,-1.6028296000000002,0.47440216,1.9123338,14.822226,-8.2,10.3,-20.6,19.8,-33.7,245.5,-1050.6,2.9,329.8,1013.5966999999998,-2.8894374000000003,3642.1,-0.0115296284,-0.0266399119999999,-0.03328508,-0.017776418,-1.6028296000000002,0.0001323379999999,55605.0,26814.5,23135.0,6.0,16.0,-18.5,0,None
2022-12-25 08:58:58,358.0891,0.097999999999996,63.0,1168.5,22360.0,4891.5,97.0,1237.3,402.8,4894.9,146.60692,2.7760486,0.0018917433999999,-0.033751592,-1.581691,55.598,0.0069477574,-0.032661202,-1.5920742,0.4951099900000001,1.6957492000000003,12.33162,-6.7,-2.1,-19.6,5.7,33.6,236.3,-1053.4,16.2,325.7,1013.6279,-2.8583828,3642.3,0.0069477574,0.0472668689999999,-0.032661202,0.0032789674,-1.5920742,0.0118898134,55595.0,26890.0,23125.0,5.5,2.5,-16.0,0,None
2022-12-25 08:58:59,359.0438888888889,0.1044444444444441,63.0,1238.0,22319.5,4878.5,97.0,1234.5555555555557,406.1111111111111,4892.0,146.7780222222222,2.7754473333333336,-0.0094041258,-0.032712436,-1.5655008,55.566,-0.00504444198,-0.031729446,-1.5760896000000002,0.4675450444444444,1.447971811111111,11.432160444444444,-2.5,6.055555555555555,-13.5,29.444444444444443,-23.33333333333333,248.27777777777777,-1062.388888888889,15.38888888888889,326.6666666666667,1013.6291666666668,-2.857092,3643.0,-0.00504444198,0.0144036335999999,-0.031729446,0.0049905099999999,-1.5760896000000002,0.0141023226,55565.0,26980.0,23095.0,7.5,-2.5,-18.0,0,None
2022-12-25 08:59:00,360.08509999999995,0.1060000000000002,63.0,1207.0,22348.5,4893.0,97.0,1233.7,409.5,4889.4,146.96231999999998,2.7744526,0.019922524,-0.039686202,-1.5524108,55.56,0.023603916,-0.038490236,-1.5635016,0.4722371900000001,1.5198192700000002,10.9552218,-0.8,11.1,-16.2,24.4,13.5,239.5,-1069.0,8.3,332.8,1013.6356000000002,-2.8504766000000004,3643.0,0.023603916,0.017502208,-0.038490236,0.0096874694,-1.5635016,0.0112198418,55560.0,27040.5,23090.0,1.5,-2.5,-17.0,0,None
2022-12-25 08:59:01,361.071,0.1045555555555589,63.0,1263.5,22314.0,4888.5,97.0,1232.7777777777778,413.3333333333333,4899.333333333333,147.1404777777778,2.7740663333333333,0.01299818375,-0.0241936475,-1.55410175,55.555,0.017472445,-0.0230855075,-1.56570325,0.4269584888888889,1.500949733333333,10.168959,3.111111111111111,9.555555555555555,-13.77777777777778,9.5,-3.7777777777777777,243.11111111111111,-1043.7222222222222,-3.555555555555556,324.44444444444446,1013.6306666666666,-2.855477277777778,3643.444444444444,0.017472445,0.00757149875,-0.0230855075,0.0111237099999999,-1.56570325,0.010923453,55560.0,27030.0,23090.0,2.5,2.0,-16.5,0,None
2022-12-25 08:59:02,362.0473,0.1019999999999981,63.0,1258.0,22283.5,4887.0,97.0,1221.7,416.5,4883.9,147.27624,2.7732754,0.033942774,-0.019558814,-1.5550266,55.55400000000001,0.037055432,-0.019298374,-1.5670934,0.4474438999999999,1.5984209000000005,10.9914289,-6.5,3.9,-21.0,14.4,23.0,250.6,-1050.4,-8.1,323.4,1013.6508,-2.8352809,3643.9,0.037055432,0.0237950779999999,-0.019298374,0.0226745298,-1.5670934,-0.007016924,55545.0,27004.0,23075.0,6.0,20.5,-13.5,0,None
2022-12-25 08:59:03,363.049,0.0999000000000023,63.0,1248.5,22331.0,4891.5,97.0,1238.2,419.8,4891.7,147.35574,2.7720186,0.0012225576,-0.015815086,-1.5571024,55.528,0.0047940486,-0.014915476,-1.5692846,0.45596827,1.5229744,9.2831541,-0.1,5.7,-11.8,11.6,-40.4,245.4,-1058.8,12.9,321.7,1013.6428,-2.8433515,3644.2,0.0047940486,-0.056719332,-0.014915476,0.0043629225799999,-1.5692846,0.006567966,55525.0,27033.0,23055.0,13.5,24.0,-13.5,0,None
2022-12-25 08:59:04,364.0731,0.1039999999999963,63.0,1210.0,22344.0,4885.0,97.0,1226.7,423.3,4888.1,147.39578,2.7694114,-0.00524329718,-0.019882964,-1.5445083999999998,55.528,-0.0008899554,-0.019001066,-1.5567758,0.48576596,1.488535,9.4891744,1.4,6.9,-5.6,6.3,16.5,241.4,-1040.1,7.7,329.4,1013.6502,-2.8358983,3644.9,-0.0008899554,0.012276048,-0.019001066,0.0087531691999999,-1.5567758,0.0020911407999999,55530.0,27102.0,23060.0,16.5,3.5,-11.5,0,None
2022-12-25 08:59:05,365.0794444444444,0.1066666666666706,63.0,1221.0,22320.5,4889.0,97.0,1220.6666666666667,426.8888888888889,4889.0,147.44194444444443,2.764877222222222,0.0108588778,-0.026328288,-1.524239,55.532,0.0141436996,-0.026502434,-1.5363624000000002,0.5461872888888889,1.6237074444444444,12.312735555555555,6.0,-30.444444444444443,-7.277777777777778,0.2222222222222222,45.61111111111112,250.11111111111111,-1079.2222222222222,12.555555555555555,323.6111111111111,1013.6378333333332,-2.848302888888889,3645.222222222222,0.0141436996,0.088301016,-0.026502434,-0.0237838734,-1.5363624000000002,0.0122966899999999,55540.0,27221.0,23070.0,21.0,-9.0,-13.0,0,None
2022-12-25 08:59:06,366.077,0.1039999999999963,63.0,1168.5,22337.5,4892.0,97.0,1183.4,430.2,4891.0,147.48827999999995,2.7598514,0.0297030224,-0.038340722,-1.5292656,55.544,0.032311756,-0.0365437199999999,-1.5417784,0.5229255399999999,1.4419437,10.2020951,1.4,19.1,-11.8,34.3,-40.2,243.0,-1050.8,-26.6,329.9,1013.6316,-2.8544688,3645.7,0.032311756,-0.01176502,-0.0365437199999999,-0.0017103101999999,-1.5417784,-0.02574568,55540.0,27183.0,23070.0,9.5,5.5,-12.0,0,None
2022-12-25 08:59:07,367.0505555555556,0.1022222222222239,63.0,1244.0,22332.0,4896.0,97.0,1226.888888888889,433.44444444444446,4897.888888888889,147.53372222222225,2.756304444444445,0.0132303345,-0.015078465,-1.5336422499999998,55.545,0.01720136025,-0.0145022,-1.546009,0.5360144444444443,1.5031115555555556,10.672710222222223,2.055555555555556,3.555555555555556,-11.5,15.27777777777778,14.055555555555555,248.0,-1037.7777777777778,3.2222222222222223,329.6111111111111,1013.6359444444444,-2.850108388888889,3646.0,0.01720136025,0.0333797665,-0.0145022,0.009440775,-1.546009,-0.002535605,55545.0,27140.5,23075.0,3.5,8.0,-16.0,0,None
2022-12-25 08:59:08,368.0374000000001,0.104000000000002,63.0,1179.5,22313.5,4901.5,97.0,1216.3,436.8,4897.9,147.56836,2.7524606,0.0113651892,-0.0218569799999999,-1.5269478,55.55,0.0142978442,-0.020701718,-1.5382572,0.5374495499999999,1.5678192999999998,12.5023005,9.5,-7.3,-8.0,6.7,-21.0,248.1,-1035.4,5.8,324.2,1013.6381,-2.8480859,3646.2,0.0142978442,-0.0524112779999999,-0.020701718,-0.001302592,-1.5382572,0.00207607532136,55550.0,27187.0,23080.0,8.5,10.5,-15.5,0,None
