00000_Time_epoch,00000_Time_boot_sec,00000_Span_Time_boot_sec,1_battery_remaining_avg,1_current_battery_avg,1_voltage_battery_avg,125_Vcc_avg,147_battery_remaining_avg,147_current_battery_avg,147_current_consumed_avg,165_Vcc_avg,168_direction_avg,168_speed_avg,178_pitch_avg,178_roll_avg,178_yaw_avg,182_altitude_avg,182_pitch_avg,182_roll_avg,182_yaw_avg,241_vibration_x_avg,241_vibration_y_avg,241_vibration_z_avg,27_xacc_avg,27_xgyro_avg,27_xmag_avg,27_yacc_avg,27_ygyro_avg,27_ymag_avg,27_zacc_avg,27_zgyro_avg,27_zmag_avg,29_press_abs_avg,29_press_diff_avg,29_temperature_avg,30_pitch_avg,30_pitchspeed_avg,30_roll_avg,30_rollspeed_avg,30_yaw_avg,30_yawspeed_avg,33_alt_avg,33_hdg_avg,33_relative_alt_avg,33_vx_avg,33_vy_avg,33_vz_avg,label,diagnosis
2022-12-22 07:41:17,708.836,-0.1160000000000081,100.0,90.0,24819.0,4877.0,98.0,92.0,175.0,4886.6,17.561667999999997,0.81947086,0.01203459,0.0443077333333333,-1.5417093333333334,26.82333333333333,0.0199580633333333,0.0580496366666666,-1.593292,0.0239211525,0.0273766775,0.03440124,1.0,9.75,-9.5,-62.25,9.875,277.875,-1034.125,-2.25,314.5,1014.770625,-0.1609472624999999,3689.625,0.0199580633333333,0.0104192936666666,0.0580496366666666,0.0106396766666666,-1.593292,-0.0022568953333333,26840.0,26872.0,-40.0,18.0,9.0,-21.0,0,None
2022-12-22 07:41:18,709.606,0.1040000000000077,100.0,95.0,24835.0,4883.5,98.0,92.5,175.4,4888.3,17.974397,0.6494337799999998,0.0121439099999999,0.04483745,-1.5401062,26.764,0.019947582,0.0578347839999999,-1.5931066,0.02460116,0.026222604,0.035417708,1.3,9.6,-9.0,-62.0,10.1,277.6,-1034.5,-1.9,314.9,1014.7726,-0.15869529,3690.1,0.019947582,0.010814243,0.0578347839999999,0.0102948192,-1.5931066,-0.002237322,26785.0,26872.5,-95.0,18.0,9.5,-22.0,0,None
2022-12-22 07:41:19,710.642,0.1039999999999963,100.0,120.0,24836.5,4881.0,98.0,175.1,176.0,4883.6,18.017872,0.6970842600000001,0.01239766,0.044677366,-1.5383574,26.734,0.019917898,0.05772197,-1.5924156,0.1522494979999999,0.234839127,1.480904679,7.6,8.8,-13.0,-58.0,12.1,276.4,-1042.0,28.0,314.6,1014.7976999999998,-0.13357031,3691.4,0.019917898,0.0146782828,0.05772197,0.010780864,-1.5924156,0.032223376,26745.0,26869.5,-135.0,17.0,9.5,-22.5,0,None
2022-12-22 07:41:20,711.6391111111111,0.1023333333333387,100.0,1080.5,24443.5,4886.0,98.0,1147.888888888889,177.33333333333334,4884.444444444444,17.985162222222225,0.8294030444444445,0.0190747025,0.0406591299999999,-1.536342,26.7375,0.0263107549999999,0.0527524675,-1.5897622500000002,0.479724888888889,0.6522239999999999,3.2593634444444444,-3.6666666666666665,-32.333333333333336,-25.05555555555556,-38.16666666666666,28.11111111111111,273.72222222222223,-1141.7777777777778,-3.555555555555556,276.1111111111111,1015.0286111111112,0.0973524311111111,3692.8888888888887,0.0263107549999999,0.049602895,0.0527524675,-0.0107710449999999,-1.5897622500000002,0.0147521061,26755.0,26896.0,-125.0,24.0,11.5,0.5,0,None
2022-12-22 07:41:21,712.5989999999999,0.1019999999999981,100.0,1608.5,24204.5,4882.5,98.0,1692.3,181.5,4881.7,18.750132,0.9942389400000003,0.0095145880999999,-0.0083879024,-1.5407196,27.610000000000003,0.0168551752,0.0045143588,-1.5919062000000002,0.28859447,1.49327369,3.270853,-3.6,0.1,-27.2,-24.4,-15.6,247.0,-1212.5,-4.9,308.7,1014.7035,-0.227703112,3694.4,0.0168551752,-0.029827754,0.0045143588,-0.0297635635999999,-1.5919062000000002,-0.009404052,27805.0,26874.5,925.0,29.5,21.5,163.0,0,None
2022-12-22 07:41:22,713.6414000000001,0.1061000000000035,100.0,1525.5,24214.0,4881.0,98.0,1599.1,186.2,4881.0,20.632786,1.1035658000000002,-0.011593567,-0.0004702447,-1.536997333333333,30.69833333333333,-0.0047280103333333,0.0115709125,-1.6159818333333331,0.40121481,1.3805178699999998,2.3420403,-6.0,15.2,-20.3,-5.1,-10.2,246.2,-1107.4,10.6,305.6,1014.3563,-0.57481248,3695.5,-0.0047280103333333,0.0007992991666666,0.0115709125,0.0084911416666666,-1.6159818333333331,0.0120032506666666,30730.0,26791.5,3850.0,20.0,14.5,292.5,0,None
2022-12-22 07:41:23,714.6527777777778,0.1068888888888876,100.0,1244.0,24279.0,4866.5,98.0,1125.2222222222222,190.22222222222223,4892.333333333333,21.84495555555556,1.141154888888889,-0.01713585375,-0.0291611374999999,-1.538219,34.0525,-0.01002983675,-0.016814825,-1.6294895,0.638039011111111,0.9680604444444446,3.884461888888888,-0.4444444444444444,-26.05555555555556,-10.555555555555555,0.5,35.72222222222222,244.72222222222223,-884.4444444444445,0.0,327.5,1013.9629444444444,-0.968224788888889,3697.222222222222,-0.0103762925,0.0294555275,-0.016672355,-0.0115147167499999,-1.6295242499999998,-0.0019484199999999,34055.0,26662.5,7175.0,27.0,-8.0,263.5,0,None
2022-12-22 07:41:24,715.6398888888887,0.1088888888888782,100.0,1052.0,24326.0,4880.0,98.0,1054.0,192.88888888888889,4890.666666666667,22.50093222222222,1.1423146666666666,0.0102984462,-0.050335934,-1.5429914,35.766,0.0169154334,-0.03740743,-1.6331627999999998,0.6598924111111111,0.9348119444444444,4.048420111111111,-4.166666666666667,4.222222222222222,-17.11111111111111,9.333333333333334,36.44444444444444,241.22222222222223,-884.6111111111111,-5.777777777777778,335.3333333333333,1013.724,-1.2072527222222222,3698.555555555556,0.0169154334,0.036418214,-0.03740743,0.0002146071999999,-1.6331627999999998,-0.0014795546,35885.0,26636.5,9005.0,13.5,-13.5,79.0,0,None
2022-12-22 07:41:25,716.6242000000001,0.1021000000000071,100.0,1152.5,24295.0,4889.0,98.0,1172.8,196.2,4896.6,23.95551,1.1042907999999998,0.025967082,-0.034424606,-1.5349406,36.346,0.033179258,-0.021224866,-1.6239038,0.4440846100000001,0.99065629,4.6265478,-6.3,30.9,-23.5,4.0,-0.2,243.6,-1005.6,16.1,330.2,1013.6527000000002,-1.2786483,3700.2,0.033179258,0.0045519983999999,-0.021224866,0.040756226,-1.6239038,0.01594336384,36385.0,26712.5,9505.0,-2.0,7.0,10.0,0,None
2022-12-22 07:41:26,717.6559,0.1021999999999934,100.0,1185.5,24281.5,4897.5,98.0,1197.6,199.5,4894.4,26.65550200000001,1.0487692,0.0085298834,-0.0141230508,-1.538701,36.602,0.0146797914,-0.003896783,-1.6263706,0.42691366,0.93117321,4.571634099999999,-0.3,24.4,-16.8,-7.3,5.3,243.6,-1011.5,-24.7,313.4,1013.6114,-1.3198200999999998,3701.4,0.0146797914,-0.0027741763999999,-0.003896783,0.0137168297999999,-1.6263706,-0.027056131,36620.0,26667.0,9740.0,-5.0,12.0,-12.5,0,None
2022-12-22 07:41:27,718.6376666666666,0.1070000000000087,100.0,1179.0,24244.0,4893.5,98.0,1195.4444444444443,202.77777777777777,4893.111111111111,29.82997111111111,0.9889724222222224,0.0126251894,-0.0091710148,-1.5497848,36.676,0.0178370279999999,-0.00032537344,-1.6362982,0.5345093555555556,0.9494259666666668,5.643166111111111,-5.166666666666667,4.611111111111111,-20.55555555555556,17.5,11.0,253.44444444444449,-1039.8333333333333,-8.722222222222221,316.77777777777777,1013.6132777777776,-1.3177907777777778,3703.1666666666665,0.0178370279999999,-0.0003718699999999,-0.00032537344,0.0023404362,-1.6362982,-0.0039058478,36675.0,26624.5,9795.0,2.0,15.0,-18.5,0,None
2022-12-22 07:41:28,719.6087777777778,0.1112222222222195,100.0,1192.0,24253.0,4890.0,98.0,1189.6666666666667,205.88888888888889,4893.111111111111,33.39411888888889,0.9323609111111112,0.0082882152,-0.008621852,-1.5536249999999998,36.718,0.013734644,0.000203182,-1.6385942,0.4776588555555556,0.9611879111111112,5.558580999999999,-0.8888888888888888,16.88888888888889,-20.27777777777778,-3.5,10.166666666666666,254.5555555555556,-1033.3333333333333,5.555555555555555,326.44444444444446,1013.604611111111,-1.3265885555555554,3704.444444444444,0.013734644,0.0092409782,0.000203182,0.0066847977999999,-1.6385942,0.0113523575999999,36720.0,26609.5,9840.0,10.0,15.5,-22.0,0,None
2022-12-22 07:41:29,720.6343999999999,0.1042000000000029,100.0,1196.5,24228.0,4895.5,98.0,1189.9,209.2,4892.0,37.49373,0.8787039999999999,0.00345768272,-0.012705982,-1.5505974,36.736,0.0088572102,-0.0037156379999999,-1.6340903999999998,0.48668992,0.9465532600000002,5.8910695,-3.2,7.8,-17.7,-2.4,1.7,249.4,-1040.8,2.8,321.7,1013.6141,-1.3170860000000002,3706.1,0.0088572102,0.0057853242,-0.0037156379999999,0.0009721447999999,-1.6340903999999998,0.0063743858,36735.0,26638.5,9855.0,15.5,12.5,-21.0,0,None
2022-12-22 07:41:30,721.6602,0.1004000000000018,100.0,1128.0,24243.0,4891.5,98.0,1158.5,212.5,4887.5,41.72821,0.8300689800000001,0.008896984,-0.015056604,-1.5487981999999998,36.742,0.0142159856,-0.0060704658,-1.6313038000000002,0.51122998,1.08938347,4.980611699999999,-0.6,3.2,-17.0,4.4,23.6,250.4,-1042.7,5.9,319.4,1013.5973,-1.333836,3707.5,0.0142159856,0.017422412,-0.0060704658,0.013284351,-1.6313038000000002,-0.0097134222,36745.0,26652.5,9865.0,16.5,10.0,-21.0,0,None
2022-12-22 07:41:31,722.6218888888889,0.1022222222222176,100.0,1188.5,24219.5,4892.5,98.0,1170.2222222222222,215.66666666666663,4891.0,45.94867000000001,0.7881009666666666,0.0049251022425,-0.01107555,-1.5556852500000002,36.75,0.01060059825,-0.0021281195,-1.63721725,0.5673590333333334,0.9981086666666668,5.601388444444444,-13.88888888888889,9.666666666666666,-19.11111111111111,0.1111111111111111,-2.333333333333333,253.5555555555556,-1031.4444444444443,-5.888888888888889,317.0,1013.6,-1.3312064444444445,3709.0,0.01060059825,-0.000996573125,-0.0021281195,0.01833793625,-1.63721725,-0.009570283,36750.0,26618.0,9870.0,18.0,13.0,-22.0,0,None
2022-12-22 07:41:32,723.607,0.1019999999999981,100.0,1152.0,24255.5,4886.5,98.0,1155.0,219.0,4890.1,50.725604,0.7502488200000001,-0.0002709803399999,-0.011551397,-1.5558778,36.766000000000005,0.0061261206,-0.00249891222,-1.6369154,0.4230414299999999,0.92526451,5.5127934,0.4,3.3,-13.65,-5.05,20.4,256.45,-1039.75,-5.55,318.25,1013.59635,-1.33492185,3710.5,0.0061261206,0.0227273284,-0.00249891222,0.0050072421999999,-1.6369154,-0.00219296966,36765.0,26623.5,9885.0,20.5,8.0,-23.0,0,None
2022-12-22 07:41:33,724.607,0.0999999999999999,100.0,1185.0,24219.0,4881.5,98.0,1168.9,222.2,4890.2,55.15228,0.72006636,0.016174996,-0.0179902679999999,-1.5622812,36.77,0.022211536,-0.0082738732,-1.6426202,0.5787891000000001,1.0030786699999998,5.784993600000001,-7.5,7.8,-23.8,6.9,12.9,254.2,-1038.7,-11.4,330.9,1013.5917000000002,-1.3395234,3712.0,0.022211536,0.02146525,-0.0082738732,0.007204597,-1.6426202,-0.0011612224,36770.0,26596.0,9890.0,24.5,4.0,-24.5,0,None
2022-12-22 07:41:34,725.607,0.0999999999999999,100.0,1185.0,24196.5,4891.0,98.0,1169.9,225.5,4891.1,59.900722,0.6965551400000001,0.0108908312,-0.0256142839999999,-1.5604391999999998,36.77,0.0168450559999999,-0.015921248,-1.6396156000000002,0.5473670111111111,0.912659122222222,5.730890444444444,-3.2,0.4,-20.7,10.5,8.1,243.6,-1043.2,16.5,322.0,1013.5807,-1.3506797,3713.6,0.0168450559999999,0.003243333,-0.015921248,0.0012178814,-1.6396156000000002,0.0068200762,36770.0,26592.0,9890.0,25.5,10.5,-25.0,0,None
2022-12-22 07:41:35,726.607,0.0999999999999999,100.0,1148.5,24224.0,4890.5,98.0,1164.0,228.8,4887.9,65.168994,0.6796193200000001,0.0075416793999999,-0.02483807,-1.5522595999999995,36.778000000000006,0.013018436,-0.0147555859999999,-1.6300530000000002,0.44206351,0.91886405,5.2728246,-3.3,16.2,-14.5,12.3,5.8,247.3,-1038.5,-1.5,326.0,1013.5772,-1.3540078000000002,3715.2,0.013018436,0.0076953104,-0.0147555859999999,0.0199526796,-1.6300530000000002,-0.002627431,36780.0,26659.5,9900.0,18.5,10.5,-26.0,0,None
2022-12-22 07:41:36,727.607,0.0999999999999999,100.0,1159.0,24194.0,4894.0,98.0,1163.8,232.0,4898.2,70.74741399999999,0.6682859600000001,0.0139798294,-0.019073586,-1.5588834000000005,36.74,0.019560978,-0.0096264354,-1.6359454,0.4533802999999999,0.93955472,5.324602700000001,-4.7,11.8,-17.9,0.3,28.0,246.8,-1035.0,-1.6,322.7,1013.578,-1.3533671,3716.6,0.019560978,0.0244947894,-0.0096264354,0.0125873669999999,-1.6359454,-0.0012225821999999,36750.0,26631.5,9870.0,15.5,7.0,-26.5,0,None
2022-12-22 07:41:37,728.6229999999999,0.1019999999999981,100.0,1176.5,24186.5,4893.0,98.0,1175.5,235.2,4894.5,76.26162400000001,0.66457954,0.0140219269999999,-0.015974526,-1.5622166,36.68599999999999,0.019596294,-0.0074889548,-1.6384814,0.54049622,0.98082692,5.598557,-6.2,8.3,-22.2,3.8,1.0,248.9,-1039.5,-0.3,323.4,1013.5857,-1.3454843,3718.2,0.019596294,-0.0090670138,-0.0074889548,0.0156633074,-1.6384814,-0.0115856638,36695.0,26618.0,9815.0,13.0,12.0,-27.5,0,None
2022-12-22 07:41:38,729.6229999999999,0.0999999999999999,100.0,1198.0,24191.5,4893.0,98.0,1178.0,238.5,4897.2,81.421204,0.6695123599999999,0.0025260042,-0.017579062,-1.5635504,36.646,0.007903735,-0.00907234,-1.6388348,0.5060867099999999,0.97213278,5.2837692,-1.9,6.6,-16.2,1.6,2.7,249.0,-1037.0,8.5,321.2,1013.5840000000002,-1.3472499,3719.4,0.007903735,0.0028870803999999,-0.00907234,0.00912985,-1.6388348,-0.0007406639999999,36655.0,26607.5,9775.0,16.0,13.5,-26.0,0,None
2022-12-22 07:41:39,730.6063333333334,0.111111111111111,100.0,1189.5,24183.5,4890.5,98.0,1183.0,241.72222222222223,4889.777777777777,85.98026666666667,0.6775594,0.0110827108,-0.018876376,-1.5609091999999998,36.632,0.0168520608,-0.0094925258,-1.6348300000000002,0.6195723111111112,1.0954277555555556,5.038626611111111,4.555555555555555,19.77777777777778,-17.055555555555557,6.333333333333333,24.166666666666668,248.5,-1034.888888888889,1.0555555555555556,328.5,1013.5977777777777,-1.3334852222222222,3721.055555555556,0.0168520608,0.034352032,-0.0094925258,0.023096018,-1.6348300000000002,-0.0028076484,36635.0,26635.0,9755.0,16.0,5.5,-26.5,0,None
2022-12-22 07:41:40,731.6229999999999,0.0999999999999999,100.0,1166.0,24177.0,4893.0,98.0,1193.8,245.2,4895.5,90.232972,0.6887340999999999,-0.0895301058,-0.017818136,-1.561124,36.622,-0.0830844504,-0.008709584,-1.6343896,0.43087575,0.92971966,5.5223478,-2.7,3.3,15.1,4.1,-219.1,253.4,-1036.5,0.4,317.5,1013.597,-1.3340859,3722.4,-0.0830844504,-0.212947311,-0.008709584,0.0082695802,-1.6343896,-0.0053693516,36620.0,26638.0,9740.0,17.0,-1.5,-22.0,0,None
2022-12-22 07:41:41,732.6229999999999,0.0999999999999999,100.0,1224.5,24147.0,4894.0,98.0,1212.0,248.5,4896.2,94.00690799999998,0.70695398,-0.0334036099999999,-0.03362949,-1.5643345000000002,36.622,0.0073498619999999,-0.027604382,-1.6359164,0.52437615,1.10417343,6.256270599999999,-14.8,-87.3,-15.3,1.2,340.9,237.9,-1049.4,7.5,317.5,1013.5952,-1.3361796,3723.7,0.0073498619999999,0.34386446,-0.027604382,-0.05090820876,-1.6359164,0.0052095464,36625.0,26629.0,9745.0,11.0,-125.0,-25.0,0,None
2022-12-22 07:41:42,733.6229999999999,0.0999999999999999,100.0,1192.5,24155.0,4891.5,98.0,1190.4,251.8,4885.8,97.930784,0.7218816000000001,0.0434098986,-0.162288308,-1.5687358,36.632,0.046757628,-0.1483196219999999,-1.6382962,0.5689864800000001,0.95371169,6.653947699999999,-21.3,179.9,-24.6,36.5,-97.5,201.2,-1063.9,-31.7,359.4,1013.5666,-1.3646876000000003,3725.3,0.046757628,-0.0953249539999999,-0.1483196219999999,0.107517868,-1.6382962,-0.0259700684,36620.0,26619.0,9740.0,-40.0,-60.0,-26.5,0,None
2022-12-22 07:41:43,734.6229999999999,0.0999999999999999,100.0,1223.5,24159.5,4886.5,98.0,1214.5,255.2,4890.3,101.73692,0.74393538,0.015949632,0.2045450599999999,-1.5695169999999998,36.682,0.02192583,0.210322166,-1.6415510000000002,0.49483444,0.9582676,6.6018524,-2.2,159.5,-21.6,0.0,16.8,306.4,-1081.0,-1.8,245.6,1013.5686,-1.3625312,3726.6,0.02192583,0.021152461,0.210322166,0.235715464,-1.6415510000000002,-0.0172261859999999,36680.0,26603.0,9800.0,-63.0,-39.0,-30.0,0,None
2022-12-22 07:41:44,735.6229999999999,0.0999999999999999,100.0,1230.5,24125.0,4892.5,98.0,1234.9,258.5,4895.3,105.41276,0.76617146,0.013572444,-0.022743962,-1.5737944,36.654,0.0156195839999999,-0.0123987459999999,-1.6418376,0.45491988,1.1731098000000002,5.016654,0.5,-303.8,-18.2,-9.2,-154.3,241.9,-1072.8,6.8,313.0,1013.634,-1.2972420999999998,3728.4,0.0156195839999999,-0.1303730619999999,-0.0123987459999999,-0.3288908039999999,-1.6418376,0.0030969985399999,36670.0,26570.0,9790.0,141.5,-39.0,-31.0,0,None
2022-12-22 07:41:45,736.6229999999999,0.0999999999999999,100.0,1188.5,24123.5,4895.5,98.0,1210.0,261.8,4891.5,108.54214,0.7891451999999999,-0.0923364979999999,-0.0473904639999999,-1.5670872,36.592,-0.083333718,-0.0338885854,-1.6330388,0.4709867399999999,1.0089752600000002,4.3603113,-24.9,104.0,17.1,-4.0,-856.4833333333333,242.0,-1045.8,-34.7,325.0,1013.6222,-1.3092186,3729.7,-0.083333718,0.219793758,-0.0338885854,0.11795457,-1.6330388,-0.030234896,36595.0,26658.0,9715.0,76.0,-77.5,-20.0,1,27_ygyro_avg_abrupt_-1113.9833333333333
2022-12-22 07:41:46,737.6229999999999,0.0999999999999999,100.0,1248.5,24124.0,4891.5,98.0,1227.5,265.4,4895.7,111.70144,0.8125566799999999,0.15219352,-0.028628114,-1.5797688,36.578,0.15558156,-0.0179767726,-1.644015,0.5129320399999999,1.082477,5.687617299999999,0.5,-4.1,-62.8,-13.0,-1040.9833333333333,254.6,-1032.7,-6.7,333.0,1013.613,-1.3181875,3731.0,0.15558156,0.077990492,-0.0179767726,-0.0033764604,-1.644015,-0.0117218686,36580.0,26590.0,9700.0,56.0,-70.5,-22.0,1,27_ygyro_avg_abrupt_-1113.9833333333333
2022-12-22 07:41:47,738.6229999999999,0.0999999999999999,100.0,1188.0,24115.0,4898.0,98.0,1183.1,268.8,4905.4,114.25339999999998,0.83773962,0.090503456,-0.018627944,-1.5778485999999998,36.6,0.096471628,-0.0065216223862,-1.639697,0.51661713,1.06862163,4.6249652,16.0,36.3,-42.4,7.2,-1361.1833333333334,249.7,-1038.0,20.9,317.9,1013.6051,-1.3260468,3732.6,0.096471628,-0.24894876,-0.0065216223862,0.0370523659999999,-1.639697,0.0202771091999999,36595.0,26590.5,9715.0,49.0,86.0,-19.5,1,27_ygyro_avg_abrupt_-1113.9833333333333
2022-12-22 07:41:48,739.6229999999999,0.0999999999999999,100.0,1222.5,24137.5,4895.5,98.0,1200.7,271.9,4897.0,116.2386,0.86749338,-0.090905358,-0.0100025356,-1.5719808,36.624,-0.07963633,-0.001041133,-1.6313082,0.4919014,0.93764581,4.595930200000001,3.6,2.4,15.9,-1.0,-1122.6833333333334,244.7,-1029.2,-15.4,311.2,1013.5974,-1.3337031,3734.0,-0.07963633,-0.017355482,-0.001041133,-0.0029960628,-1.6313082,-0.0058452974,36620.0,26658.5,9740.0,44.0,76.5,-22.5,1,27_ygyro_avg_abrupt_-1113.9833333333333
2022-12-22 07:41:49,740.633,0.1019999999999981,100.0,1253.0,24073.0,4885.5,98.0,1223.7,275.5,4901.1,117.79442000000002,0.8912620199999999,-0.1163646399999999,-0.020460282,-1.5801762,36.620000000000005,-0.10718652,-0.0137814822,-1.6374154,0.4748132799999999,1.09765604,5.625120900000001,-2.9,-5.7,21.1,8.1,-1086.3833333333334,246.1,-1038.6,18.5,319.2,1013.6066,-1.3246874000000002,3735.1,-0.10718652,0.019731174,-0.0137814822,-0.0054179888,-1.6374154,0.018984644,36625.0,26616.0,9745.0,33.5,-38.0,-24.5,1,27_ygyro_avg_abrupt_-1113.9833333333333
2022-12-22 07:41:50,741.6935555555555,0.1156666666666725,100.0,1226.0,24096.0,4893.0,98.0,1227.3333333333333,279.0,4892.555555555556,119.4238888888889,0.9196451666666666,-0.10749028,-0.036309374,-1.5841644,36.604,-0.101732946,-0.0298428519999999,-1.6409531999999998,0.5249343111111111,1.0466455555555554,5.309673111111112,-24.83333333333333,-1.7222222222222223,21.444444444444443,-4.944444444444445,-1120.4277777777777,250.11111111111111,-1041.888888888889,-10.833333333333334,332.6111111111111,1013.608,-1.323146777777778,3736.722222222222,-0.101732946,-0.0057888384,-0.0298428519999999,-0.0052751826,-1.6409531999999998,-0.0044503673999999,36605.0,26608.0,9725.0,17.0,-156.5,-22.5,1,27_ygyro_avg_abrupt_-1113.9833333333333
2022-12-22 07:41:51,742.6513749999999,0.1124999999999971,100.0,1316.0,24069.5,4889.5,98.0,1291.375,282.25,4895.875,120.8329125,0.9476613125,-0.113944175,-0.0457896949999999,-1.59068575,36.6825,-0.1080277425,-0.03767422,-1.64703425,0.515356075,1.0308434625,6.07279975,-32.75,-4.5,18.8125,5.0625,-1079.7958333333333,231.8125,-1071.5,3.75,324.5625,1013.5681875,-1.363071125,3737.9375,-0.1080277425,0.0297666122499999,-0.03767422,-0.00851980175,-1.64703425,0.0004416187499999,36665.0,26563.5,9785.0,-3.5,-261.5,-5.0,1,27_ygyro_avg_abrupt_-1113.9833333333333
2022-12-22 07:41:52,743.6091111111111,0.111111111111111,100.0,1280.5,24074.0,4895.5,98.0,1259.5555555555557,285.6666666666667,4893.444444444444,122.23033333333336,0.9724433111111112,-0.03611494166,-0.046669194,-1.5831786,37.078,-0.0323652031999999,-0.036979744,-1.6387348,0.5242605555555556,1.128508222222222,6.718805333333332,-45.27777777777778,20.166666666666668,1.0555555555555556,1.4444444444444444,-900.4277777777777,235.77777777777777,-1066.888888888889,7.944444444444445,321.55555555555554,1013.523111111111,-1.4081859444444444,3739.1111111111113,-0.0323652031999999,0.1995542092,-0.036979744,0.0237144082,-1.6387348,0.010945766,37090.0,26614.0,10210.0,-26.5,-336.5,20.5,1,27_ygyro_avg_abrupt_-1113.9833333333333
2022-12-22 07:41:53,744.6113333333334,0.1133333333333312,100.0,1264.0,24058.0,4899.5,98.0,1294.4444444444443,289.3333333333333,4890.888888888889,123.87804444444448,0.9942001888888892,0.08601602,-0.029472274,-1.5881542,37.974,0.087481716,-0.0155169682,-1.642822,0.4990272555555555,1.050372688888889,6.018667444444445,-27.38888888888889,41.11111111111112,-44.77777777777778,1.5555555555555556,-1234.5944444444444,236.5,-1076.0555555555557,-7.833333333333333,325.1666666666667,1013.4205,-1.5107985,3740.5,0.087505316,-0.1679391378,-0.0155123942,0.0333796882,-1.6428572000000004,-0.0019067182,37990.0,26588.5,11110.0,-27.5,-235.0,78.5,1,27_ygyro_avg_abrupt_-1113.9833333333333
2022-12-22 07:41:54,745.6398,0.1059000000000082,100.0,1242.0,24060.5,4885.0,98.0,1244.6,292.8,4887.6,125.27946,1.0101646000000002,-0.1238377639999999,0.0588121992,-1.5894464,39.132,-0.11605156,0.070020602,-1.6436236000000002,0.5194230500000001,1.1174923799999998,5.799666200000001,-32.6,159.0,21.0,10.3,-1125.8833333333334,264.6,-1050.2,-6.7,298.5,1013.326,-1.6050936999999998,3742.0,-0.11605156,0.0103616959999999,0.070020602,0.167512574,-1.6436236000000002,-0.0043296996,39140.0,26579.5,12260.0,-7.5,-253.0,83.0,1,27_ygyro_avg_abrupt_-1113.9833333333333
2022-12-22 07:41:55,746.6048888888888,0.1023333333333261,100.0,1254.5,24057.5,4888.0,98.0,1243.3333333333333,296.0,4891.222222222223,126.35675555555557,1.0223188888888888,-0.0316813775,0.17253505,-1.5868529999999998,40.1075,-0.02796375,0.17992035,-1.63921375,0.5173638888888887,1.0622843444444443,5.336943111111112,-36.0,16.333333333333332,-2.6666666666666665,-12.0,-1061.65,301.44444444444446,-1050.6666666666667,-17.333333333333332,263.3333333333333,1013.2222222222222,-1.7090884444444443,3743.444444444444,-0.0276870424999999,0.058041535,0.18029225,0.00930118,-1.6390805000000002,-0.02250444025,40220.0,26605.5,13340.0,133.0,-318.5,90.0,1,27_ygyro_avg_abrupt_-1113.9833333333333
2022-12-22 07:41:56,747.6114444444444,0.1133333333333312,100.0,1247.0,24052.5,4891.5,98.0,1231.6666666666667,299.55555555555554,4894.666666666667,127.54502222222222,1.031718,-0.0064409979999999,0.010807418,-1.593606,41.134,-0.0038123039999999,0.0228929952,-1.6421898,0.496487611111111,1.2412193333333332,3.949582555555556,-37.388888888888886,-214.72222222222223,-6.333333333333333,-26.444444444444443,-992.3166666666666,249.88888888888889,-1043.2777777777778,-2.5,315.05555555555554,1013.0999444444444,-1.8311847777777777,3744.6666666666665,-0.0038123039999999,0.1123620059999999,0.0228929952,-0.2002197016,-1.6421898,-0.0060868335999999,41360.0,26598.0,14480.0,212.0,-309.0,92.5,1,27_ygyro_avg_abrupt_-1113.9833333333333
2022-12-22 07:41:57,748.6001111111111,0.1110000000000025,100.0,1179.5,24061.0,4902.0,98.0,1215.0,303.0,4896.333333333333,128.57565555555553,1.0363145555555553,0.086083774,-0.0599884479999999,-1.5943657999999998,42.288,0.090712024,-0.044624714,-1.6385682,0.537627688888889,1.1029213333333334,4.491659111111111,-29.0,68.22222222222223,-39.11111111111112,-13.22222222222222,-1091.538888888889,228.77777777777777,-1033.3333333333333,-5.888888888888889,326.55555555555554,1012.969111111111,-1.962057222222222,3746.0,0.090712024,0.0224936112,-0.044624714,0.077337956,-1.6385682,0.0007756315999999,42500.0,26610.0,15620.0,142.5,-203.0,90.0,1,27_ygyro_avg_abrupt_-1113.9833333333333
2022-12-22 07:41:58,749.6378000000001,0.1061000000000035,100.0,1030.5,24118.5,4903.5,98.0,1030.7,306.0,4897.3,129.48876,1.0381256,0.101453814,-0.045748118,-1.5995908,43.148,0.1098654719999999,-0.0330367519999999,-1.640745,0.67545659,1.0215046,3.5370487000000006,-20.05,-3.8,-45.0,-12.85,-1069.0333333333333,235.65,-931.0,-10.8,325.8,1012.868,-2.0632890500000003,3747.6,0.1098654719999999,0.056590288,-0.0330367519999999,0.0068566885999999,-1.640745,-0.0107793711999999,43210.0,26598.5,16330.0,95.5,-97.0,9.0,1,27_ygyro_avg_abrupt_-1113.9833333333333
2022-12-22 07:41:59,750.6581111111111,0.106666666666658,100.0,1158.0,24078.5,4905.5,98.0,1174.0,309.22222222222223,4899.555555555556,130.17845555555556,1.0390701111111111,0.074315354,-0.0195902428,-1.6011694000000003,43.234,0.0832583,-0.008398297,-1.6388934,0.4946139555555555,0.9591231666666666,5.112148222222223,-14.72222222222222,63.5,-40.5,11.944444444444445,-85.94444444444444,253.94444444444449,-1036.0,-7.388888888888889,325.3333333333333,1012.827888888889,-2.103428833333334,3748.5,0.08362626,-0.084678814,-0.008659773,0.079149132,-1.6389878,-0.0036537652,43240.0,26618.5,16360.0,57.0,0.5,-20.0,0,None
2022-12-22 07:42:00,751.6378888888889,0.1132222222222227,100.0,1172.5,24087.0,4894.0,98.0,1145.7777777777778,312.44444444444446,4894.888888888889,130.63958888888888,1.0415645555555555,-0.0741634584,0.0059798121999999,-1.5994502,43.29600000000001,-0.062585138,0.01330286,-1.6330506,0.5069463,0.9918407777777778,4.609438555555556,-11.944444444444445,-0.0555555555555555,1.8888888888888888,-11.833333333333334,-186.5555555555556,257.55555555555554,-1054.3333333333333,-9.72222222222222,315.22222222222223,1012.8225555555556,-2.1087888888888893,3749.6666666666665,-0.06163539,-0.165184152,0.013277768,0.0133533708,-1.6331538,-0.0144202366,43305.0,26638.5,16425.0,49.5,-23.5,-22.0,0,None
2022-12-22 07:42:01,752.6046666666666,0.1044444444444504,100.0,1145.5,24088.0,4903.5,98.0,1147.25,315.375,4895.222222222223,131.00368888888886,1.048523222222222,-0.1570257,-0.0204973892499999,-1.6154805,43.330000000000005,-0.14561695,-0.0165631295,-1.6472320000000005,0.5596162,0.9874582777777776,5.399061555555556,-24.77777777777778,-38.0,27.444444444444443,-16.88888888888889,56.66666666666666,243.77777777777777,-1043.7777777777778,-25.33333333333333,309.22222222222223,1012.8251111111113,-2.1061110000000003,3751.0,-0.14561695,0.0386510424999999,-0.0165631295,-0.0398161524999999,-1.6472320000000005,-0.025363595,43330.0,26555.0,16450.0,39.0,-143.0,-26.0,0,None
2022-12-22 07:42:02,753.5736666666667,0.1089999999999993,100.0,1070.0,24094.0,4898.5,98.0,1103.3333333333333,318.6666666666667,4889.888888888889,131.5563888888889,1.0565888888888888,-0.0196453179999999,-0.0398238259999999,-1.6263712,43.332,-0.0138539959999999,-0.034670332,-1.6576431999999997,0.6588421333333333,1.257633155555555,7.051069333333334,-31.77777777777778,13.27777777777778,-16.5,-8.055555555555555,250.11111111111111,239.77777777777777,-1038.888888888889,-2.6666666666666665,329.1666666666667,1012.7938888888888,-2.137282888888889,3752.0,-0.0138539959999999,0.24565678,-0.034670332,0.01510010276,-1.6576431999999997,-0.017160496,43330.0,26507.0,16450.0,13.0,-229.0,-23.0,0,None
2022-12-22 07:42:03,754.6375,0.1119000000000027,100.0,1306.0,24028.0,4894.0,98.0,1299.1,322.1,4890.8,132.42952999999997,1.061732,-0.0224476,-0.031122826,-1.6271486000000004,43.39800000000001,-0.0200420179999999,-0.023644984,-1.6602456,0.60731474,1.1299429900000002,5.796680199999999,-21.85,12.1,-15.9,12.45,-198.2,239.1,-1099.1,11.3,320.25,1012.78655,-2.14488285,3753.4,-0.0200420179999999,-0.23488665,-0.023644984,0.0186339754,-1.6602456,0.022366766,43365.0,26474.5,16485.0,-1.5,-181.0,-14.0,0,None
2022-12-22 07:42:04,755.6472222222222,0.1067777777777791,100.0,1137.0,24073.0,4895.5,97.22222222222224,1170.111111111111,325.55555555555554,4890.888888888889,133.21113333333335,1.067266,-0.089734218,-0.03489149,-1.6096584,43.954,-0.08388141,-0.026285364,-1.6444800000000002,0.5911279777777777,1.1434036,6.467560000000001,-33.666666666666664,16.11111111111111,8.722222222222221,3.2777777777777777,68.83333333333333,244.16666666666663,-1028.8333333333333,4.055555555555555,329.0,1012.7339444444444,-2.1972352777777777,3754.777777777778,-0.08388141,0.0713099619999999,-0.026285364,0.01076649982,-1.6444800000000002,0.0017235533999999,43860.0,26577.5,16980.0,-18.5,-245.0,39.0,0,None
2022-12-22 07:42:05,756.6492222222223,0.1109999999999899,100.0,1199.5,24038.5,4895.0,97.0,1189.6666666666667,328.77777777777777,4893.333333333333,134.04315555555556,1.072594111111111,-0.054958742,-0.0234809,-1.6087566,44.604,-0.05189809,-0.0142264877999999,-1.6456118,0.6093097222222222,1.1574044444444445,6.861389222222222,-40.5,21.55555555555556,-0.3888888888888889,7.444444444444445,17.27777777777778,247.94444444444449,-1037.3333333333333,-1.9444444444444444,326.22222222222223,1012.654222222222,-2.277248333333333,3755.8888888888887,-0.05189809,0.0086159978,-0.0142264877999999,0.0143072958,-1.6456118,0.006296594,44520.0,26570.5,17640.0,-29.0,-293.0,35.0,0,None
2022-12-22 07:42:06,757.6495000000001,0.1020000000000095,100.0,1256.5,24027.0,4898.0,97.0,1240.6,332.2,4895.1,134.93130000000002,1.0765089999999995,-0.0657260259999999,-0.01714087,-1.6006556,45.242,-0.062869696,-0.0068342566,-1.6401524000000005,0.59734316,1.1601464999999995,6.542773200000001,-52.0,17.9,2.4,1.4,-12.2,253.0,-1035.8,6.3,323.3,1012.599,-2.3321093,3757.0,-0.062869696,-0.0133508922,-0.0068342566,0.0183053886,-1.6401524000000005,0.0077071782,45155.0,26593.0,18275.0,-24.0,-316.5,38.5,0,None
2022-12-22 07:42:07,758.6245555555556,0.1022222222222176,100.0,1068.5,24087.0,4899.5,97.0,1120.5555555555557,335.3333333333333,4893.555555555556,135.8048888888889,1.0784653333333334,-0.079474115,0.1035207,-1.60190275,45.81999999999999,-0.076003915,0.11319913,-1.6436305000000002,0.6433015111111112,1.3088523333333333,6.731235777777777,-62.333333333333336,199.88888888888889,8.88888888888889,-1.3333333333333333,-10.444444444444445,281.44444444444446,-1024.4444444444443,-8.11111111111111,287.0,1012.5677777777778,-2.3635154444444444,3758.0,-0.076003915,-0.0097735774999999,0.11319913,0.220157325,-1.6436305000000002,-0.0121702875,45785.0,26592.5,18905.0,17.0,-347.0,46.0,0,None
2022-12-22 07:42:08,759.6493,0.1100999999999998,100.0,993.5,24125.0,4887.0,97.0,992.1,338.3,4874.8,136.77803,1.0786302999999997,-0.0616826966666666,0.0899432933333333,-1.5953963333333332,46.09666666666666,-0.05916011,0.0999131583333333,-1.637144,0.8705969000000001,1.5862119,6.4486645,-77.15,-185.2,10.45,-33.8,137.1,286.7,-1029.9,0.65,292.4,1012.59775,-2.33347655,3759.4,-0.0600752133333333,0.13765716,0.1010432949999999,-0.1660831616666666,-1.6370965000000002,-0.0030635375,46110.0,26616.0,19230.0,163.0,-392.5,-5.0,0,None
2022-12-22 07:42:09,760.6915555555556,0.1088888888888908,100.0,1086.0,24094.5,4908.0,97.0,1116.4444444444443,341.3333333333333,4896.888888888889,137.82567777777777,1.0741008888888883,-0.020732338,-0.04438621,-1.5821645,46.01,-0.01925868875,-0.0268578927499999,-1.62125175,0.7963105444444445,1.2391985555555554,6.131637333333334,-70.16666666666667,42.11111111111112,-4.388888888888889,-28.444444444444443,-91.27777777777776,245.38888888888889,-1025.2777777777778,-16.88888888888889,339.22222222222223,1012.5616111111112,-2.369661333333333,3760.3333333333335,-0.01847248875,-0.1340988175,-0.0274671577499999,0.06835645,-1.621114,-0.0197623525,46015.0,26704.5,19135.0,174.5,-355.0,-9.5,0,None
2022-12-22 07:42:10,761.6295555555556,0.1044444444444378,100.0,1134.5,24093.5,4906.0,97.0,1138.2222222222222,344.3333333333333,4898.777777777777,138.5939888888889,1.0702605555555555,0.0125848259999999,-0.0110957206,-1.5990776,46.038,0.018204532,0.0031973925999999,-1.6360468,0.6113902222222223,1.2837415555555554,4.087742444444444,-55.77777777777778,-19.666666666666668,-16.944444444444443,-12.0,196.22222222222223,250.38888888888889,-1030.388888888889,-15.555555555555555,324.5,1012.5148333333332,-2.416475777777778,3761.1666666666665,0.018204532,0.186743458,0.0031973925999999,-0.0040581759999999,-1.6360468,-0.0229859839999999,46045.0,26624.5,19165.0,146.0,-323.5,-9.5,0,None
2022-12-22 07:42:11,762.6220000000001,0.1040000000000077,100.0,1303.0,24014.0,4906.0,97.0,1226.7,347.5,4898.7,139.33506000000003,1.0653396000000002,0.11337792,-0.059643332,-1.6075662000000002,46.13,0.11864074,-0.04514021,-1.641722,0.6194117,1.2460160999999998,4.867838299999999,-36.5,-0.5,-58.0,-13.3,18.4,228.6,-1052.1,-5.7,331.1,1012.4459000000004,-2.4853827,3762.3,0.11864074,0.016119989,-0.04514021,0.0023292718,-1.641722,-0.0027979390799999,46135.0,26592.5,19255.0,112.0,-193.5,-16.5,0,None
2022-12-22 07:42:12,763.658,0.1019999999999981,99.5,1417.0,23974.0,4902.0,97.0,1460.9,351.5,4898.9,140.02064,1.0583898000000005,0.089348256,-0.037004992,-1.6087962,46.614,0.0965730059999999,-0.02449044,-1.6381476,0.4613536499999999,0.9404218,3.5367968,-21.2,48.4,-53.8,-7.6,-59.9,236.0,-1113.9,-4.1,316.1,1012.3929,-2.5384530000000005,3763.4,0.0965730059999999,-0.0618484498,-0.02449044,0.0473185479999999,-1.6381476,-0.0081256366,46630.0,26615.0,19750.0,59.5,-52.0,52.5,0,None
2022-12-22 07:42:13,764.6296666666667,0.1045555555555463,99.0,1294.0,24001.0,4903.5,97.0,1297.5555555555557,355.1111111111111,4889.555555555556,140.66328888888887,1.051355,0.0304849875,-0.001994967425,-1.6132775,47.595,0.0400915275,0.0074931377749999,-1.63844475,0.5023959222222222,1.0357913777777776,4.034589111111111,-16.833333333333332,35.666666666666664,-33.05555555555556,0.2222222222222222,10.5,251.61111111111111,-1025.5555555555557,-6.611111111111111,317.1666666666667,1012.3037777777776,-2.627434833333333,3764.444444444444,0.0400915275,0.0044102944999999,0.0074931377749999,0.0307941929999999,-1.63844475,-0.00550731225,47730.0,26614.5,20850.0,37.5,2.0,72.5,0,None
2022-12-22 07:42:14,765.6107,0.1019000000000005,99.0,1266.0,24022.5,4897.5,97.0,1316.1,359.0,4892.8,141.25388,1.0443762,0.0507165,-0.0053675914,-1.614976,48.524,0.0578399459999999,0.0009568939999999,-1.6383268000000002,0.48436856,1.03923841,4.074422199999999,-12.3,2.1,-40.0,-9.3,-3.9,247.7,-1019.5,-5.2,310.6,1012.1885999999998,-2.7424922,3765.8,0.0578399459999999,0.003166858,0.0009568939999999,-0.00806057006,-1.6383268000000002,-0.00965543684,48750.0,26605.5,21870.0,33.5,37.5,72.0,0,None
2022-12-22 07:42:15,766.6443,0.1041000000000053,99.0,1097.0,24066.5,4892.5,97.0,1099.1,362.2,4876.4,141.56052,1.0401026000000002,0.0114690401666666,1.745334333333329e-05,-1.6125043333333335,49.333333333333336,0.0172645095,0.0048930676666666,-1.6370238333333331,0.61209865,0.93250191,2.6801403,-12.8,17.1,-24.6,-1.2,-17.1,255.1,-959.2,1.0,314.5,1012.0983,-2.8328906,3766.7,0.0172645095,-0.0219893074166666,0.0048930676666666,0.0171537376666666,-1.6370238333333331,0.0044132721666666,49380.0,26624.0,22500.0,25.5,53.5,-4.0,0,None
2022-12-22 07:42:16,767.6504444444445,0.1066666666666706,99.0,1348.0,23992.0,4898.5,97.0,1327.4444444444443,365.55555555555554,4900.111111111111,141.64512222222226,1.0386187777777778,0.00376005925,0.00432296675,-1.60764475,49.400000000000006,0.008100945,0.00914869875,-1.6341985,0.5469729555555555,0.9443752555555556,3.7127623333333335,-7.777777777777778,2.5,-20.444444444444443,3.333333333333333,9.833333333333334,254.0555555555556,-1091.6666666666667,4.333333333333333,307.5,1012.0821111111112,-2.849092722222222,3767.6666666666665,0.008100945,0.0198391087499999,0.00914869875,0.0114939605,-1.6341985,0.0145100045,49425.0,26642.0,22545.0,29.5,46.5,-12.5,0,None
2022-12-22 07:42:17,768.6288999999999,0.1019999999999981,99.0,1238.5,24047.0,4898.5,97.0,1362.7,369.6,4893.6,141.97226,1.0359270000000005,-0.0069600218399999,-0.0109338452,-1.6047587999999997,49.864,-0.0029258554,-0.0055234962,-1.6334062,0.44736694,1.0117574100000002,3.526092,-11.0,-2.1,-17.4,-10.2,-12.1,249.9,-1076.3,-19.0,308.2,1012.0379,-2.8933046,3768.4,-0.0029258554,-0.0083117628,-0.0055234962,0.0031092568,-1.6334062,-0.01466481764,50060.0,26621.5,23180.0,26.0,37.0,58.0,0,None
2022-12-22 07:42:18,769.6628,0.1039999999999963,99.0,1214.5,24028.5,4908.0,97.0,1142.0,372.6666666666667,4895.6,142.40300000000002,1.0314744,-0.0169639438,-0.013055091,-1.614016,50.486,-0.0127617808199999,-0.008252338,-1.6455523999999997,0.6167724499999999,0.96225753,2.8373058,-8.5,5.1,-18.7,-16.6,31.4,246.1,-954.1,-4.6,321.9,1011.9779,-2.9532422000000005,3769.6,-0.0127617808199999,0.0306111393999999,-0.008252338,0.0118047428,-1.6455523999999997,0.00127003972,50500.0,26574.5,23620.0,17.5,14.5,-20.0,0,None
2022-12-22 07:42:19,770.6372222222222,0.1022222222222176,99.0,1456.0,23959.0,4910.5,97.0,1388.5555555555557,376.1111111111111,4902.0,142.8354,1.0265156666666668,0.0008821931399999,-0.0161933579999999,-1.6117292,50.504,0.0048019546,-0.0100928173999999,-1.6445626,0.4390413222222222,1.0353517444444444,4.155096222222222,-16.38888888888889,10.555555555555555,-25.5,-11.555555555555555,16.5,245.88888888888889,-1095.388888888889,-15.61111111111111,311.3333333333333,1011.9727777777777,-2.958528388888889,3770.6666666666665,0.0048019546,0.0040640464,-0.0100928173999999,0.0083868834,-1.6445626,0.0014868703999999,50460.0,26578.0,23580.0,12.0,8.0,-10.0,0,None
2022-12-22 07:42:20,771.625,0.1040000000000077,99.0,1112.0,24046.0,4907.0,97.0,1093.6,379.6,4894.5,143.29818,1.0215279999999998,-0.0093326288,-0.013344016,-1.6066096,50.85,-0.004981925,-0.0066362682,-1.6418692,0.5347902,0.91059617,3.6922265,-10.0,10.6,-17.8,-11.8,9.4,243.2,-973.3,6.2,323.0,1011.9182,-3.0131328,3771.7,-0.004981925,0.0205638872,-0.0066362682,0.009193277,-1.6418692,0.013614758,50780.0,26580.5,23900.0,8.0,5.0,10.5,0,None
2022-12-22 07:42:21,772.663,0.1039999999999963,99.0,1182.5,24038.5,4900.0,97.0,1189.6,382.8,4899.2,143.78918000000002,1.0172788,-0.0002959885599999,-0.0119374734,-1.6087826000000005,50.874,0.004424782,-0.004126766,-1.6461388,0.52580408,1.01424585,5.125513200000001,-17.2,7.6,-18.4,-12.8,7.8,250.6,-1033.8,-28.6,318.6,1011.9152,-3.0160936,3772.7,0.004424782,-2.7968800000000016e-05,-0.004126766,0.0056363048,-1.6461388,-0.0029310475999999,50870.0,26591.5,23990.0,7.0,-1.0,-22.5,0,None
2022-12-22 07:42:22,773.675,0.1044444444444504,99.0,1159.0,24025.5,4908.0,97.0,1168.2222222222222,386.3333333333333,4900.666666666667,144.3453888888889,1.0130876666666666,-0.003528696,-0.0195264675,-1.6208885,50.88,0.0018599875,-0.010660168,-1.66030975,0.5514855333333333,0.995887988888889,4.368491,-13.555555555555555,8.61111111111111,-22.27777777777778,-7.666666666666667,5.944444444444445,248.5,-1035.6666666666667,-17.555555555555557,320.44444444444446,1011.9147222222224,-3.0165538888888888,3773.777777777778,0.0018599875,-0.0005786162499999,-0.010660168,0.0091012143,-1.66030975,-0.015658457,50880.0,26501.0,24000.0,5.5,-0.5,-24.0,0,None
2022-12-22 07:42:23,774.673,0.1059999999999945,99.0,1389.5,23959.5,4894.0,97.0,1374.9,389.7,4901.0,144.93541999999997,1.0100118000000002,0.0006564366,-0.0112699194,-1.6223624,50.948,0.0061848159,-0.0019136008,-1.6630132,0.5068561500000001,0.8027036900000001,3.7519663000000008,-11.6,20.2,-28.2,-6.1,19.5,249.6,-1094.7,13.9,321.9,1011.8984,-3.032937200000001,3774.6,0.0061848159,0.026612838,-0.0019136008,0.025391416,-1.6630132,0.0080776894,50920.0,26464.0,24040.0,-1.0,-0.5,-8.0,0,None
2022-12-22 07:42:24,775.6527777777777,0.1044444444444504,99.0,1135.0,24014.0,4891.0,97.0,1072.5555555555557,393.1111111111111,4900.444444444444,145.60681111111114,1.0073250000000002,-0.0033946902,-0.0044381413,-1.6034501999999995,51.31,0.00141920816,0.00499281018,-1.6452300000000002,0.5883225888888888,0.9973796444444444,4.032567777777778,-17.0,20.0,-19.666666666666668,-4.055555555555555,6.388888888888889,252.88888888888889,-970.9444444444443,-0.2222222222222222,318.6666666666667,1011.870611111111,-3.0607073888888885,3775.6666666666665,0.00141920816,0.0102842302,0.00499281018,0.019815204,-1.6452300000000002,0.0078622264,51300.0,26571.0,24420.0,-1.0,0.5,-0.5,0,None
2022-12-22 07:42:25,776.629,0.1019999999999981,99.0,1241.0,23987.5,4902.0,97.0,1246.0,396.5,4894.0,146.24402000000003,1.0040787999999998,0.0006424028,0.0073486583999999,-1.5993254,51.252,0.0054361896,0.0167070559999999,-1.6418731999999998,0.48843816,1.0087991,4.7957883,-9.0,19.2,-21.0,-6.6,19.7,253.2,-1040.6,-2.9,312.5,1011.8612,-3.0699765,3776.6,0.0054361896,0.024657566,0.0167070559999999,0.0257352159999999,-1.6418731999999998,-0.0004056742,51255.0,26593.0,24375.0,6.0,-2.0,-24.5,0,None
2022-12-22 07:42:26,777.6450000000001,0.0999999999999999,98.5,1232.5,23990.0,4898.0,97.0,1237.9,399.8,4897.8,146.76510000000002,0.9994305400000002,0.0036356472999999,0.00745711726,-1.5979616,51.214,0.0086350054,0.0169465356,-1.6411422000000002,0.4992026999999999,0.97121597,4.3702827,-5.6,-3.7,-21.8,-5.3,6.0,253.8,-1034.0,2.9,310.1,1011.8613,-3.0698671,3777.5,0.0086350054,0.0062426659999999,0.0169465356,0.006737307,-1.6411422000000002,-0.0011120582,51210.0,26595.5,24330.0,20.0,0.0,-24.0,0,None
2022-12-22 07:42:27,778.6490000000001,0.1019999999999981,98.0,1209.0,24002.0,4903.0,97.0,1207.6,403.2,4898.8,147.15632,0.99354258,0.002049676018,-0.00307271556,-1.5857934,51.184,0.0075051258,0.007128466,-1.6297875999999998,0.5077259199999999,0.97208357,4.3755917,-0.5,18.8,-17.5,-27.1,13.5,848.725,-1040.4,11.6,311.7,1011.8825,-3.0486795,3778.5,0.0075051258,0.0237798352,0.007128466,0.02466974,-1.6297875999999998,0.0134138958,51185.0,26660.0,24305.0,24.0,1.0,-24.5,1,27_ymag_avg_abrupt_591.825
2022-12-22 07:42:28,779.665,0.0999999999999999,98.0,1186.5,24019.0,4891.5,97.0,1207.0,406.5,4898.4,147.51362,0.98742872,0.0036793139199999,-8.900488000000008e-05,-1.5892254,51.11,0.00891275304,0.0095787754,-1.6342442,0.5158377300000001,0.95042295,4.229927999999999,-10.2,5.9,-20.0,-2.9,-4.2,842.4250000000001,-1031.3,-22.6,315.6,1011.8765,-3.0547109,3779.5,0.00891275304,-0.002500337,0.0095787754,0.0145068996,-1.6342442,-0.0194879071999999,51115.0,26646.0,24235.0,27.5,6.0,-22.5,1,27_ymag_avg_abrupt_591.825
2022-12-22 07:42:29,780.669,0.1019999999999981,98.0,1187.5,24049.0,4894.0,97.0,1187.3,409.8,4899.8,147.84049999999996,0.98138692,-0.0038563587999999,-0.0043324919999999,-1.6032568,51.05,0.00217974786,0.00519663612,-1.648483,0.49137139,1.12106506,5.126976099999999,-6.9,2.5,-20.9,-20.6,14.5,841.225,-1024.8,-6.5,323.7,1011.8654,-3.0658202,3780.6,0.00217974786,0.0173887553759999,0.00519663612,0.0062243208,-1.648483,-0.00505899176,51050.0,26558.0,24170.0,30.0,5.5,-21.5,1,27_ymag_avg_abrupt_591.825
2022-12-22 07:42:30,781.6372222222222,0.1022222222222176,98.0,1174.5,24028.5,4906.0,97.0,1181.2222222222222,413.0,4897.333333333333,148.16299999999998,0.9755541888888888,-0.00309800068,-0.012012386,-1.6073960000000005,51.002,0.0029724538,-0.00290256312,-1.6533266000000002,0.5198376444444445,1.1233909444444443,5.639881555555555,-10.666666666666666,6.833333333333333,-22.38888888888889,1.7777777777777777,11.61111111111111,846.9916666666667,-1043.5555555555557,5.5,331.72222222222223,1011.8693333333334,-3.0620313333333327,3781.444444444444,0.0029724538,0.0180500639999999,-0.00290256312,0.0079202288,-1.6533266000000002,-0.0027030349999999,51010.0,26523.0,24130.0,26.5,5.0,-23.5,1,27_ymag_avg_abrupt_591.825
2022-12-22 07:42:31,782.6189999999999,0.1020000000000095,98.0,1186.0,24004.0,4912.5,97.0,1176.8,416.5,4900.8,148.53539999999998,0.96958366,0.00236315064,-0.0156336939999999,-1.5982442,50.948,0.0088376528,-0.007268645,-1.6438306,0.50216219,1.03697702,5.0366787,-11.9,10.4,-24.3,-7.2,10.6,822.5250000000001,-1029.9,-1.3,310.8,1011.8542,-3.0770546000000003,3782.4,0.0088376528,0.0189727876,-0.007268645,0.01105224828,-1.6438306,0.0188978778,50960.0,26576.0,24080.0,18.5,7.5,-23.5,1,27_ymag_avg_abrupt_591.825
2022-12-22 07:42:32,783.6289999999999,0.0999999999999999,98.0,1157.5,24018.0,4895.5,97.0,1169.7,419.8,4903.5,148.90454,0.96491858,-0.00234770938,-0.010278777,-1.5947122,50.91,0.0035259956,-0.00174371766,-1.640927,0.55381331,0.93851643,5.012081200000001,-10.7,13.6,-21.2,-22.2,-2.0,836.625,-1049.6,-6.0,313.4,1011.8751999999998,-3.0560623,3783.7,0.0035259956,0.0113696872,-0.00174371766,0.0041158646,-1.640927,-0.004124142,50920.0,26601.5,24040.0,9.5,10.0,-24.0,1,27_ymag_avg_abrupt_591.825
2022-12-22 07:42:33,784.6429999999999,0.1039999999999963,98.0,1177.5,24037.0,4890.5,97.0,1167.2,423.1,4901.5,149.31344,0.9610270799999998,-0.0021668516,-0.0095226262,-1.5974457999999998,50.852,0.0031123019419999,-0.000846507108,-1.6446822,0.47943281,1.06072637,5.8767436,-9.6,13.6,-18.9,-4.2,13.7,845.125,-1039.8,1.8,317.5,1011.8705,-3.0607109,3784.3,0.0031123019419999,0.01103185,-0.000846507108,0.007593039348,-1.6446822,0.008823976,50855.0,26571.5,23975.0,5.0,9.0,-23.0,1,27_ymag_avg_abrupt_591.825
2022-12-22 07:42:34,785.6809999999999,0.1019999999999981,98.0,1216.0,24021.0,4911.0,97.0,1198.9,426.3,4901.3,149.76642999999996,0.95724257,-0.0099388738,0.0012070324,-1.5800086,50.788,-0.0043655754,0.0096660708,-1.6275958,0.51436807,0.96437483,5.0097611,-13.7,23.7,-13.8,-0.6,4.5,847.125,-1029.4,10.0,320.4,1011.8848,-3.0465547,3785.4,-0.0043655754,-0.0030567019999999,0.0096660708,0.0157243181999999,-1.6275958,-0.0011069941999999,50795.0,26671.5,23915.0,7.0,5.0,-23.5,1,27_ymag_avg_abrupt_591.825
2022-12-22 07:42:35,786.6505555555555,0.1022222222222176,98.0,1198.5,24002.0,4906.0,97.0,1203.3333333333333,429.55555555555554,4900.888888888889,150.21006666666668,0.9528934111111113,-0.000687187675,-0.0047214697,-1.575573,50.7175,0.0041039875,0.00403699925,-1.62356925,0.4847020888888889,0.9855587666666666,4.177118111111111,-7.666666666666667,-1.6666666666666667,-13.833333333333334,-21.83333333333333,20.88888888888889,841.2694444444445,-1032.8333333333333,0.6111111111111112,320.6666666666667,1011.8865,-3.0447177222222224,3786.3333333333335,0.0041039875,0.0224429004999999,0.00403699925,-0.009323191,-1.62356925,0.0030014645,50720.0,26695.5,23840.0,15.5,-1.0,-20.0,1,27_ymag_avg_abrupt_591.825
2022-12-22 07:42:36,787.6209999999999,0.1020000000000095,98.0,1193.5,24019.0,4903.0,97.0,1196.9,432.8,4895.4,150.64986,0.94804314,-0.00028921086,-0.00132763166,-1.5724192,50.68,0.004777881,0.0079025258,-1.6209694,0.40103484,0.8898381200000001,4.340750099999999,-10.7,21.6,-15.7,-25.7,16.3,847.9250000000001,-1024.9,0.0,315.1,1011.8774,-3.0538828,3787.2,0.004777881,0.0105212294,0.0079025258,0.02680363,-1.6209694,0.0075300424,50675.0,26716.5,23795.0,16.5,-2.0,-20.5,1,27_ymag_avg_abrupt_591.825
2022-12-22 07:42:37,788.6289999999999,0.0999999999999999,98.0,1163.5,24025.5,4892.5,97.0,1165.7,436.2,4895.8,151.0862,0.94295136,0.0115680148,-0.00602982274,-1.5662466,50.64,0.0159979854,0.0030336416,-1.6145615999999996,0.30742149,0.98271389,4.829648800000001,-3.8,-11.2,-17.2,-4.8,19.2,843.4250000000001,-1032.3,2.0,324.2,1011.8933,-3.0380703,3788.5,0.0159979854,0.0236575526,0.0030336416,-0.0153249652,-1.6145615999999996,-0.0018359924,50640.0,26750.5,23760.0,21.0,-1.5,-19.5,1,27_ymag_avg_abrupt_591.825
2022-12-22 07:42:38,789.6772222222221,0.111111111111111,98.0,1169.5,24021.0,4904.0,97.0,1168.3333333333333,439.6666666666667,4898.888888888889,151.46703333333332,0.9380029111111112,0.00789979425,-0.0154910225,-1.56251225,50.62,0.0128257675,-0.0057920132499999,-1.6107505,0.4167277555555555,0.8352123555555555,3.137586333333333,-9.25,30.375,-15.375,-19.125,5.125,842.2,-1040.5,-16.375,315.875,1011.874,-3.0572568888888885,3789.222222222222,0.0128257675,0.004781817,-0.0057920132499999,0.0153128215999999,-1.6107505,0.011487130425,50620.0,26769.0,23740.0,11.5,4.5,-21.0,1,27_ymag_avg_abrupt_591.825
2022-12-22 07:42:39,790.627,0.0999999999999999,98.0,1124.0,24032.0,4906.0,97.0,1136.6,442.7,4904.3,151.78826,0.93491134,0.0100513167999999,-0.0029581192,-1.5665901999999998,50.634,0.01498382,0.0062953713999999,-1.614585,0.5278909199999999,0.93287456,3.350644,-5.5,11.5,-17.0,-16.3,10.8,837.225,-1023.1,-2.1,317.4,1011.8874,-3.0438045,3790.1,0.01498382,0.0137446486,0.0062953713999999,0.0109185816921999,-1.614585,-0.0059505918,50635.0,26743.0,23755.0,8.5,7.0,-21.0,1,27_ymag_avg_abrupt_591.825
2022-12-22 07:42:40,791.625,0.0999999999999999,98.0,1140.5,24029.0,4904.5,97.0,1133.9,445.8,4901.9,152.06623999999996,0.9322845999999998,0.0110161912,0.0055194503,-1.5748802000000002,50.636,0.015942604,0.0140732944,-1.6229976000000002,0.58790426,0.92128168,3.4845752000000005,-3.6,16.3,-19.6,-6.4,7.0,847.125,-1041.1,-15.4,310.9,1011.8736,-3.0575780000000004,3791.3,0.015942604,0.00408837654,0.0140732944,0.0218478179999999,-1.6229976000000002,-0.0222285286,50635.0,26694.0,23755.0,12.0,10.5,-22.0,1,27_ymag_avg_abrupt_591.825
2022-12-22 07:42:41,792.625,0.0999999999999999,98.0,1108.5,24035.0,4902.0,97.0,1112.2,449.0,4904.5,152.22863999999998,0.9294665,0.009065288,0.0011047288999999,-1.5780324,50.648,0.014117344,0.00965861,-1.6262415999999995,0.54414221,0.96123692,3.3853146,1.2,0.2,-19.3,-10.0,14.2,253.2,-1024.7,10.3,319.2,1011.8677,-3.0633826,3792.0,0.014117344,0.0079174248,0.00965861,-0.0053239633,-1.6262415999999995,-0.0005766131399999,50650.0,26689.5,23770.0,21.5,11.5,-23.0,0,None
2022-12-22 07:42:42,793.6289999999999,0.0999999999999999,98.0,1116.0,24029.0,4908.5,97.0,1129.9,452.2,4902.8,152.30908000000005,0.92648688,0.0079060378,-0.0072462664,-1.5794646,50.66,0.0133009439999999,0.00114157902,-1.6274358,0.53048441,0.84053959,3.7187846,-5.2,13.7,-16.9,-6.4,1.3,252.4,-1029.9,-29.7,316.7,1011.8623,-3.0689140000000004,3792.9,0.0133009439999999,0.0122626879999999,0.00114157902,0.010070652,-1.6274358,-0.0093113672,50660.0,26670.5,23780.0,20.0,12.0,-25.0,0,None
2022-12-22 07:42:43,794.627,0.0999999999999999,98.0,1124.5,24044.0,4911.5,97.0,1125.2,455.2,4899.7,152.33707999999996,0.9238815,0.0073969882,0.0010383414,-1.5790696,50.66,0.012430067,0.0094338728,-1.627524,0.54175006,0.93565986,4.2253477,-7.4,9.9,-17.3,-23.8,28.4,254.9,-1013.9,5.5,320.0,1011.8651999999998,-3.0661561,3793.9,0.012430067,0.0064713866,0.0094338728,0.00987202,-1.627524,0.019437334,50660.0,26679.5,23780.0,21.5,8.5,-24.0,0,None
2022-12-22 07:42:44,795.625,0.0999999999999999,98.0,1127.5,24040.5,4908.0,97.0,1118.6,458.4,4897.0,152.33527999999995,0.92158036,0.0117979505999999,-0.0109958054,-1.5790772,50.664,0.0164419558,-0.002461774,-1.6273626,0.498297,1.02466501,4.9090592,1.2,4.8,-18.2,-3.1,-10.0,248.9,-1028.8,-2.9,324.2,1011.8737,-3.0576484,3794.9,0.0164419558,0.0031298579999999,-0.002461774,0.0064753653999999,-1.6273626,-0.0229219999999999,50660.0,26672.5,23780.0,22.5,12.5,-25.5,0,None
2022-12-22 07:42:45,796.631,0.1019999999999981,98.0,1123.0,24012.5,4902.0,97.0,1132.1,461.5,4900.0,152.26992,0.91985942,0.00393454696,-0.0089281546,-1.5821384,50.64399999999999,0.0089461024,9.007776000000008e-05,-1.6304298,0.51809289,0.88634438,4.4768343,-1.6,11.6,-20.9,-7.6,14.0,252.1,-1030.1,-7.3,321.7,1011.8703,-3.0608045000000006,3796.0,0.0089461024,0.02772835,9.007776000000008e-05,0.01965316,-1.6304298,-0.0005750248,50640.0,26655.5,23760.0,18.5,8.0,-23.0,0,None
2022-12-22 07:42:46,797.6450000000001,0.0999999999999999,98.0,1151.5,24016.0,4893.0,97.0,1142.3,464.6,4905.0,152.18536,0.91862124,0.0045425166,-0.0086733932,-1.5968247999999998,50.636,0.0091309536,5.056526000000008e-05,-1.6447358,0.6438244500000001,0.94977903,5.579752600000001,-4.3,9.5,-23.2,0.4,7.2,247.7,-1038.0,-12.9,322.3,1011.8821,-3.0490468,3796.9,0.0091309536,0.01080448808,5.056526000000008e-05,0.0050517014,-1.6447358,-0.0158639868,50635.0,26570.0,23755.0,18.0,6.0,-23.0,0,None
2022-12-22 07:42:47,798.6450000000001,0.0999999999999999,98.0,1143.5,24024.0,4907.0,97.0,1128.4,467.8,4902.7,152.09566,0.91770194,0.0061053863799999,-0.012655924,-1.6002334,50.634,0.0113862034,-0.0037573471999999,-1.6482026,0.5647717999999999,0.74017557,4.0879904,-8.7,4.4,-21.9,7.6,24.5,255.1,-1033.6,-15.3,322.0,1011.8807,-3.0502733,3797.7,0.0113862034,0.029474685,-0.0037573471999999,-0.0055539902,-1.6482026,-0.0114490124,50635.0,26555.0,23755.0,15.5,3.5,-23.0,0,None
2022-12-22 07:42:48,799.663,0.1039999999999963,98.0,1153.0,24014.0,4908.0,97.0,1155.8,470.9,4898.5,152.00636,0.91725792,0.0105504002,-0.0102262484,-1.6207378,50.634,0.015937942,-0.0009502778,-1.6687856,0.5017987899999999,1.08804189,5.085842100000001,-3.8,16.4,-31.8,0.7,0.7,253.9,-1025.4,-2.7,322.4,1011.8694,-3.0618438,3798.6,0.015937942,-0.0092757484,-0.0009502778,0.0198254295999999,-1.6687856,-0.0071138326,50635.0,26436.0,23755.0,13.0,10.5,-23.0,0,None
2022-12-22 07:42:49,800.6850000000001,0.0999999999999999,98.0,1129.0,24027.0,4893.5,97.0,1136.5,474.2,4901.2,151.88636,0.91747294,0.00117344836,-0.0092006097999999,-1.6162794000000005,50.644000000000005,0.00621687976,0.0001242408599999,-1.6639672,0.52888871,0.89450982,6.5803765,-17.0,13.3,-27.3,6.1,-8.2,247.1,-1057.6,-15.4,313.4,1011.8711,-3.0599296,3799.5,0.00621687976,-0.0073790048,0.0001242408599999,0.01715909168,-1.6639672,-0.0143580748,50645.0,26468.5,23765.0,13.5,14.0,-22.5,0,None
2022-12-22 07:42:50,801.658,0.1045555555555589,98.0,1132.0,24032.5,4916.5,97.0,1137.6666666666667,477.3333333333333,4908.0,151.7583222222222,0.917804777777778,-0.0056590276,-0.0035111065999999,-1.617323,50.65,-0.0003373694799999,0.0061721156,-1.6644998000000002,0.5269529222222222,1.025483411111111,6.660634777777777,-13.5,9.88888888888889,-26.05555555555556,24.22222222222222,9.5,249.77777777777777,-1025.6666666666667,-11.555555555555555,318.27777777777777,1011.8602222222222,-3.0709983333333337,3800.3333333333335,-0.0003373694799999,0.0187761124,0.0061721156,0.01511642,-1.6644998000000002,-0.01527423,50650.0,26465.0,23770.0,16.0,5.0,-24.5,0,None
2022-12-22 07:42:51,802.6279000000001,0.1019999999999981,98.0,1124.5,24047.5,4917.0,97.0,1119.2,480.5,4907.2,151.68154,0.9176582,0.0056883557999999,-0.0107788576,-1.6166572,50.652,0.0105645604,-0.0017096663799999,-1.6642844,0.5402128,1.0053870799999998,6.875029100000001,-5.2,-0.5,-24.8,11.9,27.8,255.7,-1000.0,15.7,319.7,1011.8737,-3.0576172,3801.1,0.0105645604,0.027233838,-0.0017096663799999,-0.0163041843999999,-1.6642844,-0.0063048787999999,50655.0,26467.5,23775.0,18.0,3.0,-25.5,0,None
2022-12-22 07:42:52,803.6458,0.0999999999999999,98.0,1117.5,24038.5,4906.5,97.0,1128.0,483.5,4908.7,151.61844000000002,0.91743548,0.00097005572,-0.0110079782,-1.5980404,50.64,0.0053286388,-0.0014058287999999,-1.6459082000000005,0.56682157,0.98496506,6.004365099999999,-6.6,18.4,-16.9,-2.9,8.5,250.2,-1039.3,16.5,326.6,1011.8812,-3.050078,3802.3,0.0053286388,0.0137094882,-0.0014058287999999,0.029607042,-1.6459082000000005,0.0155129303999999,50640.0,26580.5,23760.0,15.5,3.0,-21.5,0,None
2022-12-22 07:42:53,804.6519999999999,0.1019999999999981,98.0,1138.5,24052.0,4898.5,96.6,1123.7,486.7,4905.5,151.57028,0.9174985,0.0050130025999999,-0.0122973595999999,-1.5827866,50.628,0.0091445909999999,-0.00292453666,-1.6302306000000002,0.44115867,0.90272148,5.1144251,-9.4,2.1,-18.2,-5.5,16.3,250.8,-1027.8,25.0,323.8,1011.8844,-3.046828,3802.9,0.0091445909999999,0.0115905396,-0.00292453666,0.006024613,-1.6302306000000002,0.0171312263999999,50625.0,26672.0,23745.0,13.0,0.0,-21.5,0,None
2022-12-22 07:42:54,805.6659,0.0999999999999999,98.0,1137.5,24032.0,4908.5,96.0,1120.0,489.8,4904.6,151.53634,0.91778634,0.011022547,0.0034528886,-1.5757748,50.618,0.0146211319999999,0.0128303868,-1.622419,0.55093518,0.90831359,4.0291975,0.4444444444444444,37.77777777777778,-20.22222222222222,-11.666666666666666,13.333333333333334,258.77777777777777,-1035.888888888889,-9.666666666666666,323.77777777777777,1011.8955,-3.0356797,3804.0,0.0146211319999999,0.0153008101999999,0.0128303868,0.0443727972,-1.622419,-0.0151429478,50615.0,26698.5,23735.0,8.5,1.0,-20.0,0,None
2022-12-22 07:42:55,806.6700000000001,0.1019999999999981,98.0,1157.5,24032.5,4899.5,96.0,1148.1,492.9,4903.0,151.46994,0.91813796,0.0141773157999999,0.0081046988,-1.5845468,50.59400000000001,0.018136956,0.017332722,-1.630192,0.55340621,0.9058538,4.0861191,-3.2,-2.9,-25.2,-7.4,5.4,256.3,-1039.9,4.6,316.2,1011.8909,-3.0404843,3804.9,0.018136956,-6.543360000000054e-05,0.017332722,-0.01030487,-1.630192,-0.00365723,50595.0,26663.5,23715.0,25.5,8.0,-19.0,0,None
2022-12-22 07:42:56,807.6515555555557,0.1044444444444504,98.0,1134.0,24028.0,4903.0,96.0,1136.7777777777778,496.22222222222223,4907.111111111111,151.3466333333333,0.9181153888888888,0.00782257825,-0.00939233075,-1.57117075,50.6,0.0124176325,0.0004487239999999,-1.61603425,0.5248921000000001,0.9978189777777776,3.1307455555555554,-8.222222222222221,2.7222222222222223,-14.944444444444445,-12.61111111111111,5.5,247.22222222222223,-1041.3333333333333,-11.166666666666666,313.72222222222223,1011.8912777777776,-3.039934888888889,3805.8888888888887,0.0124176325,-0.0029791655,0.0004487239999999,-0.003072985,-1.61603425,-0.0010681522499999,50600.0,26753.0,23720.0,28.0,13.5,-18.0,0,None
2022-12-22 07:42:57,808.628,0.1019999999999981,98.0,1143.5,24046.5,4906.5,96.0,1130.3,499.2,4900.4,151.2183,0.91819306,0.00205045728,-0.0055504774,-1.5716527999999998,50.608,0.0072819986,0.00359666168,-1.6165402,0.56540859,0.90628504,3.252362,-10.2,21.9,-13.4,-21.2,4.3,257.0,-1038.6,-25.9,319.9,1011.8919,-3.0393592,3806.7,0.0072819986,-0.0019654973999999,0.00359666168,0.0224198216,-1.6165402,-0.0012546146,50610.0,26732.5,23730.0,23.5,12.0,-18.5,0,None
2022-12-22 07:42:58,809.65,0.1019999999999981,98.0,1127.5,24003.0,4906.5,96.0,1123.7,502.5,4902.1,151.08454,0.91827242,0.0049641462,-0.0048055635,-1.5705906,50.61,0.0099934764,0.0046575764,-1.6149662,0.5710136299999999,0.9161746899999996,3.855821099999999,-10.9,4.3,-15.0,-18.9,14.8,247.8,-1011.6,-2.8,321.5,1011.8777,-3.053633,3807.7,0.0099934764,0.0175408632,0.0046575764,0.0064910665999999,-1.6149662,-0.00315978442,50615.0,26744.5,23735.0,25.5,9.5,-20.0,0,None
2022-12-22 07:42:59,810.6800000000001,0.1019999999999981,98.0,1156.0,24034.0,4890.5,96.0,1138.4,505.5,4900.6,150.96424000000002,0.91819842,0.00013431996,-0.014432096,-1.5796912,50.632,0.0057251598,-0.0051531000799999,-1.6236842,0.52357795,0.9507964,3.852247100000001,-6.5,13.1,-16.1,-9.4,9.0,248.9,-1000.8,-1.7,322.1,1011.8607,-3.0705156,3808.6,0.0057251598,0.0253758234,-0.0051531000799999,0.02059371888,-1.6236842,-0.0090304854,50645.0,26689.0,23765.0,17.0,3.5,-22.5,0,None
2022-12-22 07:43:00,811.6879000000001,0.0999999999999999,98.0,1126.5,24035.0,4914.0,96.0,1127.3,508.7,4903.4,150.86344,0.91829348,0.0065121931999999,-0.0079531016,-1.576062,50.654,0.0118262981999999,0.0012526857,-1.6197461999999998,0.56000627,0.98128911,3.79637,-4.0,13.9,-16.7,-23.0,16.3,251.3,-999.8,16.6,318.6,1011.8579,-3.0733204,3809.5,0.0118262981999999,0.0128727134,0.0012526857,0.014565932196,-1.6197461999999998,0.0166043022,50645.0,26743.5,23765.0,13.5,0.0,-23.5,0,None
2022-12-22 07:43:01,812.6859000000001,0.0999999999999999,98.0,1140.0,24035.0,4914.5,96.0,1134.6,511.9,4903.0,150.77272,0.9185596399999998,0.0143474219999999,0.0007037872999999,-1.5712882,50.614,0.0190692,0.0094662486,-1.6148760000000002,0.5545999333333334,0.976361511111111,3.4412396666666667,-3.7,24.1,-16.7,-17.8,9.8,258.1,-1031.6,-27.5,319.6,1011.8752,-3.0561015,3810.4,0.0190692,0.0207701159999999,0.0094662486,0.025493506,-1.6148760000000002,-0.026314946,50595.0,26735.5,23715.0,13.5,2.5,-24.0,0,None
2022-12-22 07:43:02,813.6493333333334,0.1022222222222302,98.0,1137.5,24029.5,4898.0,96.0,1136.7777777777778,515.0,4901.333333333333,150.6263888888889,0.9188794555555556,0.013497738,-0.0044654548,-1.5779352,50.566,0.018219976,0.0046705418,-1.6213112000000005,0.4738763111111111,0.9272607666666668,3.4005007777777783,-1.0555555555555556,-0.3888888888888889,-18.55555555555556,-5.055555555555555,-1.6111111111111112,251.44444444444449,-1019.1111111111112,-21.77777777777778,318.0,1011.8660555555556,-3.065195277777778,3811.222222222222,0.018219976,-0.0047061166,0.0046705418,-0.0046501873999999,-1.6213112000000005,-0.0253068644,50560.0,26712.0,23680.0,16.0,6.0,-24.0,0,None
2022-12-22 07:43:03,814.606,0.0999999999999999,98.0,1177.5,24011.0,4912.0,96.0,1175.9,518.2,4910.1,150.42974,0.91928256,0.0076710162,-0.0059050047999999,-1.584957,50.55,0.0127901459999999,0.00371883666,-1.628054,0.57155663,0.99310474,3.3265709,-1.3,19.2,-19.9,-8.1,15.2,253.0,-1029.6,-4.4,317.9,1011.8783,-3.0530233000000004,3812.0,0.0127901459999999,0.0156031441999999,0.00371883666,0.027464983,-1.628054,-0.0126379803999999,50555.0,26678.5,23675.0,13.0,5.0,-23.0,0,None
2022-12-22 07:43:04,815.6200000000001,0.1039999999999963,98.0,1168.0,24014.0,4908.5,96.0,1157.0,521.5,4899.4,150.22156,0.9199116000000002,0.015764528,0.0010847592,-1.591313,50.548,0.020646618,0.01128449,-1.6343063999999998,0.5640590999999999,1.0924563800000002,4.1219116,1.0,10.0,-26.7,-18.2,16.1,251.2,-1040.3,-12.8,315.6,1011.8793,-3.0520234,3812.9,0.020646618,0.0311325544,0.01128449,0.0195732558,-1.6343063999999998,-0.0073802465999999,50545.0,26646.5,23665.0,12.0,2.5,-21.5,0,None
