00000_Time_epoch,00000_Time_boot_sec,00000_Span_Time_boot_sec,1_battery_remaining_avg,1_current_battery_avg,1_voltage_battery_avg,125_Vcc_avg,147_battery_remaining_avg,147_current_battery_avg,147_current_consumed_avg,165_Vcc_avg,168_direction_avg,168_speed_avg,178_pitch_avg,178_roll_avg,178_yaw_avg,182_altitude_avg,182_pitch_avg,182_roll_avg,182_yaw_avg,241_vibration_x_avg,241_vibration_y_avg,241_vibration_z_avg,27_xacc_avg,27_xgyro_avg,27_xmag_avg,27_yacc_avg,27_ygyro_avg,27_ymag_avg,27_zacc_avg,27_zgyro_avg,27_zmag_avg,29_press_abs_avg,29_press_diff_avg,29_temperature_avg,30_pitch_avg,30_pitchspeed_avg,30_roll_avg,30_rollspeed_avg,30_yaw_avg,30_yawspeed_avg,33_alt_avg,33_hdg_avg,33_relative_alt_avg,33_vx_avg,33_vy_avg,33_vz_avg,label,diagnosis
2023-01-03 11:58:53,70.69800000000001,-0.2299999999999968,100.0,81.0,24958.5,4880.5,99.0,79.0,11.0,4872.0,73.59940499999999,0.041613515,0.00976514075,0.062888475,-1.19969425,62.3775,0.0103168474999999,0.06817755,-1.19912075,0.02650796,0.02655804,0.03978044,-1.0,0.5,79.0,-80.0,0.0,279.5,-1040.5,0.0,306.5,1018.0115,-0.0071875,3989.5,0.0103168474999999,0.0006661637749999,0.06817755,-0.0002662721499999,-1.19912075,-0.0002569080399999,62365.0,29130.0,-95.0,0.0,0.5,-5.0,0,None
2023-01-03 11:58:54,71.768,0.5300000000000011,100.0,77.0,24942.5,4890.0,99.0,72.5,11.0,4884.5,33.03568,0.2906377,0.01029971625,0.0629383908333333,-1.199965333333333,62.23833333333333,0.01029646,0.0679015616666666,-1.199293333333333,0.02529567,0.0257494949999999,0.039189475,-1.5,0.0,80.0,-82.0,0.5,280.5,-1040.0,0.0,305.5,1018.0205,0.0019140625,3991.5,0.01029646,0.0009069716999999,0.0679015616666666,0.0009178067333333,-1.199293333333333,-0.0002259743216666,62210.0,29128.5,-250.0,-1.0,0.5,-4.5,0,None
2023-01-03 11:58:55,72.828,0.529999999999994,100.0,187.5,24893.0,4893.5,99.0,129.5,11.0,4879.5,31.816925,0.5689229,0.0100091524166666,0.0626577016666666,-1.199917,62.00666666666667,0.0102449641666666,0.0674501783333333,-1.1988320833333337,0.179887325,0.18549074,0.68812881,29.5,1.0,74.0,-77.5,8.5,280.5,-981.0,79.0,310.5,1018.046,0.02761719,3992.5,0.0102449641666666,-0.0017053615,0.0674501783333333,-0.0050491622833333,-1.1988320833333337,0.0224566251666666,61980.0,29133.0,-480.0,-4.0,0.0,-7.0,0,None
2023-01-03 11:58:56,73.8885,0.5305000000000035,100.0,123.5,24898.5,4892.0,99.0,121.5,12.0,4879.0,31.353525,0.88045745,0.0101665529999999,0.0633115916666666,-1.2016441666666666,61.78333333333333,0.0104012499999999,0.0676096016666666,-1.2001033333333333,0.130859265,0.24237975,1.2818235,-8.0,3.5,77.0,-68.5,3.0,276.5,-1118.5,-1.0,302.5,1018.0525,0.03394531,3995.0,0.0104012499999999,0.0038199096666665,0.0676096016666666,0.0055999474999999,-1.2001033333333333,0.0011862675166667,61770.0,29123.0,-690.0,-5.0,0.0,-8.0,0,None
2023-01-03 11:58:57,74.949,0.5300000000000011,100.0,1073.5,24591.5,4886.5,99.0,1057.5,13.0,4897.5,31.29898,1.1498805,0.0200718724999999,0.0621790658333333,-1.1931291666666666,61.72749999999999,0.019830745,0.0663432825,-1.19047625,0.2254278599999999,0.99421555,3.9123559,1.5,-28.0,63.5,-26.0,-9.0,264.0,-1190.0,2.0,263.0,1018.2615,0.243281225,3996.0,0.019830745,0.0402228083333333,0.0663432825,-0.0158739566666666,-1.19047625,0.0224112669166666,61760.0,29189.0,-700.0,16.0,13.5,50.0,0,None
2023-01-03 11:58:58,75.75,0.5409999999999968,100.0,1721.0,24422.0,4883.0,99.0,1686.0,16.0,4896.0,31.50043,1.32419,0.00215910355,0.0093579275,-1.1787135,62.575,0.001260554,0.015491075,-1.174387,0.4223353,1.473602,3.925761,-2.0,-124.0,56.0,-17.0,-49.0,212.0,-1258.0,12.0,257.0,1018.016,-0.00265625,3997.0,0.001260554,-0.0232757615,0.015491075,-0.027512555,-1.174387,0.02735382,62750.0,29287.0,290.0,42.0,27.0,202.0,0,None
2023-01-03 11:58:59,76.5395,0.5300000000000011,100.0,1759.5,24388.5,4895.0,99.0,1876.5,20.0,4891.5,31.90501,1.4259460000000002,0.0031670809166667,-0.0243317515,-1.184148,64.6425,0.0023675016666666,-0.0184639341666666,-1.2327156666666663,0.32578205,1.15553455,3.5486625000000003,-15.5,-26.0,65.0,-2.5,-7.5,239.5,-1197.5,-20.5,285.0,1017.748,-0.27035155,3999.0,0.0023675016666666,0.0001463377499999,-0.0184639341666666,-0.0629107074999999,-1.2327156666666663,-0.0241701791666665,64960.0,28924.0,2500.0,29.5,27.5,299.5,0,None
2023-01-03 11:59:00,77.6,0.5300000000000011,100.0,1542.0,24448.0,4882.0,99.0,1542.0,25.0,4885.5,32.511745000000005,1.4927715,-0.0340477516666666,-0.0071020463474999,-1.1957578333333334,68.1025,-0.0330254108333332,-0.0027356064166666,-1.2935215,0.32100495,1.587157,3.212048,-13.5,46.5,86.5,-49.0,-39.0,256.5,-1030.0,-7.0,325.0,1017.394,-0.6244140499999999,4000.5,-0.0330254108333332,-0.0313626758333333,-0.0027356064166666,0.0740025883333333,-1.2935215,-0.0027066624166667,68420.0,28584.5,5960.0,-4.5,0.0,306.5,0,None
2023-01-03 11:59:01,78.662,0.5210000000000008,100.0,1015.5,24546.5,4886.0,99.0,1033.0,28.5,4885.0,33.201890000000006,1.4981685,-0.0011322527499999,0.0186068133333333,-1.2134878333333332,70.66416666666666,-0.0007323831666666,0.0213802008333333,-1.3075336666666666,0.3277086,1.0438517,5.198471,22.0,-35.75,63.0,-15.5,70.5,242.25,-882.5,19.0,308.75,1016.99475,-1.023652525,4003.25,-0.0007323831666666,0.0524495566666666,0.0213802008333333,-0.0140657243333333,-1.3075336666666666,-0.0156534649166666,70820.0,28497.5,8360.0,15.5,-40.0,134.0,0,None
2023-01-03 11:59:02,79.672,0.509999999999998,100.0,1190.5,24486.0,4886.5,99.0,1155.5,31.5,4892.0,34.510965,1.4949965,0.0585114791666666,-0.0201311234999999,-1.2027260833333333,71.446665,0.0565239041666666,-0.014886155,-1.29181175,0.5183173999999999,0.70275325,3.2872510000000004,19.0,-29.0,49.0,-44.5,-14.5,234.5,-999.5,21.0,323.5,1016.8765,-1.1423044999999998,4005.5,0.0565239041666666,0.0002915181666666,-0.014886155,-0.0132132683333332,-1.29181175,0.0285510783333333,71485.0,28617.0,9025.0,12.0,-26.0,24.5,0,None
2023-01-03 11:59:03,80.69200000000001,0.509999999999998,100.0,1321.0,24497.0,4881.5,99.0,1237.5,35.0,4891.5,36.73427,1.485824,0.0563825266666666,0.0196821898333332,-1.2036703333333334,71.72333333333333,0.0557588283333333,0.0252512533333333,-1.2897595,0.35840665,1.1918885,8.165778,31.5,-89.0,49.5,-23.5,10.5,255.5,-1148.0,16.5,322.5,1016.82,-1.1985545,4007.5,0.0557588283333333,-0.0258309449999999,0.0252512533333333,0.0033210216666666,-1.2897595,0.0009455449999999,71735.0,28594.0,9275.0,-15.5,-8.0,-2.0,0,None
2023-01-03 11:59:04,81.702,0.5,100.0,1102.0,24534.0,4896.0,99.0,1028.0,38.5,4889.0,39.887635,1.4935095,0.0414719974999999,0.0416979733333333,-1.2030522500000005,71.91333166666666,0.0413445016666666,0.04609021,-1.285365833333333,0.4861279,1.199278,6.465465,14.5,11.0,53.0,-32.5,11.5,261.5,-956.0,-31.0,303.0,1016.7985,-1.220039,4009.0,0.0413445016666666,0.0041514341666666,0.04609021,-0.0083228837,-1.285365833333333,-0.00322874425,71915.0,28637.5,9455.0,-6.0,13.5,-13.0,0,None
2023-01-03 11:59:05,82.7125,0.5105000000000004,100.0,1044.0,24521.0,4889.0,99.0,1148.5,41.5,4892.0,43.16394,1.5324755,0.04314456,0.0365227074999999,-1.2320625,71.93083083333335,0.0432090808333333,0.0412851291666666,-1.312023,0.3957327499999999,1.1168175,7.229498,34.5,8.0,55.5,-46.5,-30.0,262.0,-1074.5,-3.5,311.5,1016.7925,-1.2261325,4010.5,0.0432090808333333,-0.0078671141666666,0.0412851291666666,-0.0253188433333332,-1.312023,-0.0122694016666667,71935.0,28489.0,9475.0,11.5,23.5,-17.0,0,None
2023-01-03 11:59:06,83.7825,0.5395000000000039,100.0,1049.0,24537.5,4886.0,99.0,1244.5,45.0,4889.0,46.257275,1.589333,0.0310761066666666,0.0320524375,-1.2475278333333333,71.93999333333333,0.0323609525,0.0357889774999999,-1.324480916666667,0.44241375,1.474495,6.3799385,42.0,83.5,59.5,-46.0,50.0,256.0,-983.5,-24.0,316.0,1016.794,-1.224414,4012.5,0.0318569875,-0.0677481124999999,0.0354726174999999,-0.0066076016666667,-1.3244504166666666,-0.0244770966666666,71940.0,28424.0,9480.0,14.0,16.5,-19.0,0,None
2023-01-03 11:59:07,84.85249999999999,0.5304999999999964,100.0,1158.0,24445.0,4889.0,99.0,997.5,48.0,4895.5,48.821470000000005,1.6505895,-0.0863864575,0.0271236124999999,-1.25596275,72.08916500000001,-0.0837609041666666,0.0307982824999999,-1.3299161666666666,0.4741894,1.6471595,7.9005545,47.0,-8.5,86.5,-75.0,-1.0,282.5,-1123.0,20.5,294.0,1016.7595,-1.259375,4014.5,-0.0837609041666666,-0.0366285733333333,0.0307982824999999,0.0202064588333333,-1.3299161666666666,0.0344216766666666,72075.0,28371.5,9615.0,23.5,-57.5,5.5,0,None
2023-01-03 11:59:08,85.9025,0.5300000000000011,100.0,1178.0,24454.0,4888.5,99.0,1116.0,51.5,4894.0,51.65617,1.7346745,-0.0597847574999999,0.0492160341666666,-1.22669725,72.69416666666666,-0.05894129,0.0521407908333333,-1.2966794166666666,0.4392414,1.554701,13.29856,-0.5,-10.5,81.0,-44.0,-28.5,261.0,-998.0,9.0,283.5,1016.6985,-1.3199605,4016.0,-0.05911719,0.0128523275833333,0.0521202891666666,0.0422655241666667,-1.2967454166666663,0.0104759896666666,72690.0,28576.0,10230.0,45.0,-175.5,28.5,0,None
2023-01-03 11:59:09,86.693,0.519999999999996,100.0,1359.0,24408.0,4883.0,99.0,1205.0,54.0,4898.0,53.35492,1.807974,-0.09843604,0.04815086,-1.237021,73.15,-0.098509735,0.051119995,-1.3020095,0.5232724,0.8871459,10.51266,13.0,-15.0,86.0,-96.0,-21.0,254.0,-966.0,-18.0,282.0,1016.69,-1.328047,4018.0,-0.098509735,-0.071767075,0.051119995,-0.065441315,-1.3020095,-0.024745935,73150.0,28539.0,10690.0,72.0,-245.0,37.0,0,None
2023-01-03 11:59:10,87.503,0.5399999999999991,100.0,1479.5,24370.5,4886.0,99.0,1431.0,57.0,4876.0,54.76884,1.8889445,-0.0973589966666666,0.0294840166666666,-1.239246,74.01166666666666,-0.0979845999999999,0.0342548083333333,-1.2999858333333334,0.30103345,2.1781875,9.7557395,-17.5,-17.0,107.0,-66.0,12.5,262.5,-1143.5,-11.0,281.5,1016.617,-1.4014065,4018.5,-0.0979845999999999,0.0041141266666666,0.0342548083333333,-0.0192513883333332,-1.2999858333333334,0.0050499691666666,73910.0,28550.5,11450.0,101.5,-330.5,118.5,0,None
2023-01-03 11:59:11,88.57300000000001,0.5300000000000011,100.0,1377.5,24427.0,4888.0,99.0,1424.0,61.5,4891.5,56.417025,1.994833,-0.1087626833333333,0.0148700848333333,-1.2521738333333334,75.8741625,-0.1099658649999999,0.02189735,-1.308764,0.347157,2.1823585000000003,8.3329275,-28.0,-9.0,99.0,-89.5,-26.0,242.0,-1023.0,-9.5,276.5,1016.4885,-1.529687,4020.5,-0.1099658649999999,0.0368886425,0.02189735,-0.0050480509999999,-1.308764,-0.0327013,75690.0,28506.5,13230.0,130.0,-437.0,175.5,0,None
2023-01-03 11:59:12,89.6225,0.5200000000000031,100.0,1435.5,24376.0,4893.0,99.0,1435.5,66.0,4898.0,57.753995,2.079397,-0.0723215991666666,-0.0010554444833333,-1.2429313333333332,77.75,-0.074287335,0.007617169,-1.2954435000000002,0.44459305,1.176921,6.7633295,-23.0,-40.0,95.5,-79.0,8.0,231.0,-1029.0,15.5,290.5,1016.2785,-1.7402345,4022.5,-0.074287335,0.0199825006666666,0.007617169,0.0177814124999999,-1.2954435000000002,0.0115284792324999,77560.0,28569.5,15100.0,138.5,-526.0,180.5,0,None
2023-01-03 11:59:13,90.6635,0.5204999999999984,100.0,1398.5,24363.75,4893.0,99.0,1422.5,70.0,4885.0,59.01851,2.1519195,-0.0627244608333333,0.00778579325,-1.2406230000000005,79.59166666666667,-0.0642887441666666,0.0167779883333333,-1.2908200833333332,0.45745835,1.5658635,7.030520000000001,-25.5,92.75,89.25,-2.5,23.5,245.0,-1124.75,12.25,311.0,1016.004,-2.01437475,4024.75,-0.0642887441666666,0.0084836008333333,0.0167779883333333,0.0195943936583333,-1.2908200833333332,0.0277498618333333,79400.0,28593.0,16940.0,135.5,-576.5,183.0,0,None
2023-01-03 11:59:14,91.674,0.509999999999998,100.0,1295.5,24343.5,4894.0,99.0,1334.0,74.0,4881.0,60.1796,2.220772,-0.0512357308333333,0.0353724791666666,-1.2426275,81.67916666666667,-0.0526969841666666,0.0444447674999999,-1.29212275,0.4176454,1.974522,8.4507955,-35.0,47.0,78.0,-42.5,-22.5,240.0,-1024.5,-22.5,282.0,1015.768,-2.250508,4027.0,-0.0526969841666666,0.0043576166666667,0.0444447674999999,0.0204624004166667,-1.29212275,-0.0330970868333332,81295.0,28634.5,18835.0,143.0,-621.5,183.0,0,None
2023-01-03 11:59:15,92.704,0.509999999999998,100.0,1334.0,24350.5,4891.5,99.0,1364.0,78.0,4896.0,61.29105,2.3001345,-0.0486961666666666,0.0185303410833333,-1.2596974166666666,83.60666666666667,-0.049729015,0.02794954,-1.307770833333333,0.32449695,1.03635295,4.915528,-28.5,-53.0,85.0,-64.0,56.5,251.5,-1049.0,4.0,309.5,1015.533,-2.4854295,4028.5,-0.049729015,0.0135382360833333,0.02794954,-0.0296484926666666,-1.307770833333333,-0.0008615579166666,83225.0,28501.0,20765.0,168.0,-651.0,183.5,0,None
2023-01-03 11:59:16,93.704,0.5,100.0,1346.0,24330.0,4893.0,99.0,1292.0,81.5,4901.0,62.264405,2.376899,-0.03530667,0.0264899949999998,-1.2615364166666667,85.54083166666666,-0.0367536616666666,0.0369101066666665,-1.3082001666666665,0.3568465,1.40197,5.3966445,-27.5,60.0,74.5,-57.0,43.5,245.5,-980.5,1.0,283.0,1015.2955,-2.723008,4030.5,-0.0367536616666666,0.0309097981666666,0.0369101066666665,0.0821443125,-1.3082001666666665,0.0129115864166666,85155.0,28500.5,22695.0,166.5,-679.5,182.5,0,None
2023-01-03 11:59:17,94.714,0.5100000000000051,100.0,1400.0,24282.0,4887.5,99.0,1421.5,85.0,4898.0,63.22039,2.460437,-0.0308457325,0.0474932,-1.2664851666666668,87.45083333333332,-0.0314207175,0.056304535,-1.31080275,0.3659651,1.4587665,6.261322,-26.5,-57.0,69.5,-37.5,90.0,256.0,-1044.0,-24.5,270.5,1015.0925,-2.9257425,4032.5,-0.0314207175,0.0269481205833333,0.056304535,-0.0277027849999999,-1.31080275,-0.0188026405,87070.0,28508.5,24610.0,177.0,-695.5,176.5,0,None
2023-01-03 11:59:18,95.724,0.5,100.0,1400.0,24295.5,4895.5,99.0,1478.5,89.0,4896.0,64.13389,2.552248,-0.0371883516666666,0.0310676866666666,-1.2766830833333334,89.36833333333334,-0.0373767,0.0398238374999999,-1.3196059166666667,0.33777825,1.4116745000000002,5.561467,-29.0,-8.5,78.0,-7.0,48.0,233.5,-1086.5,39.0,275.5,1014.888,-3.1301560000000004,4034.0,-0.0373767,0.0184544541666666,0.0398238374999999,0.0018503483333333,-1.3196059166666667,0.0116114130833333,88995.0,28427.5,26535.0,200.5,-705.0,177.0,0,None
2023-01-03 11:59:19,96.744,0.509999999999998,100.0,1189.5,24349.5,4891.5,99.0,1386.0,93.0,4894.0,65.059605,2.6476005,0.0007458328333333,0.019565195,-1.2595229166666666,91.2725,-0.0005211593833333,0.0278694116666666,-1.3002104166666666,0.3874748,1.3662565,5.349026,-48.5,14.5,66.5,-56.5,62.0,254.0,-1061.0,-42.0,304.0,1014.6965,-3.321992,4035.5,-0.0005211593833333,0.0345400983333332,0.0278694116666666,0.0260395228333333,-1.3002104166666666,-0.0072355386666666,90885.0,28545.5,28425.0,205.0,-720.0,179.5,0,None
2023-01-03 11:59:20,97.764,0.509999999999998,100.0,1152.5,24353.5,4893.0,99.0,1106.0,96.0,4885.0,66.074515,2.745498,-0.0097396279999999,0.0223047071666666,-1.27502975,93.17999583333332,-0.0107587446666666,0.0298931591666666,-1.3127806666666666,0.463059,1.092254,7.8902485,-55.5,-14.5,69.5,-69.0,-22.5,250.5,-978.5,-2.0,293.5,1014.4555,-3.5630075,4037.5,-0.0107544064999999,-0.0145315641666666,0.0299545658333332,0.0315431316666666,-1.3127403333333332,-0.0049866323333333,92800.0,28477.5,30340.0,189.0,-689.5,179.5,0,None
2023-01-03 11:59:21,98.764,0.5,100.0,717.5,24461.5,4895.5,99.0,852.5,99.5,4890.0,67.04506,2.8410925,0.0958518683333333,0.0396759775,-1.2713611666666669,94.89916666666666,0.0936228083333333,0.0442682666666666,-1.30587075,0.47278445,1.2898055,10.0907005,0.0,2.0,37.0,-19.5,41.0,268.5,-879.0,2.0,323.0,1014.2435,-3.7747265,4039.5,0.0936228083333333,0.1608289816666666,0.0442682666666666,0.0243691379166666,-1.30587075,-0.0023437631166666,94615.0,28509.0,32155.0,177.0,-650.0,146.0,1,27_xacc_avg_constant_0
2023-01-03 11:59:22,99.764,0.5,100.0,1004.0,24387.0,4900.5,99.0,942.0,101.5,4900.0,67.848805,2.929584,0.1519674999999999,0.0192634933333332,-1.25928125,95.4475,0.149290075,0.0249382941666666,-1.2882046666666669,0.59749905,1.18012155,10.9312265,0.0,30.0,13.5,11.5,-201.5,216.5,-1084.5,14.5,275.0,1014.2365,-3.781953,4041.0,0.149290075,-0.0564082224999999,0.0249382941666666,0.0074084943333333,-1.2882046666666669,0.0036182039833332,95465.0,28617.0,33005.0,151.0,-529.5,9.5,1,27_xacc_avg_constant_0
2023-01-03 11:59:23,100.794,0.5200000000000031,100.0,1180.5,24359.0,4886.0,99.0,1014.0,104.5,4894.0,68.69973,3.0224615000000004,0.133923675,0.0650785316666666,-1.244908,95.019165,0.132992175,0.0693735416666666,-1.2671656666666666,0.6371432,1.793151,11.973072,0.0,-78.0,30.0,-36.0,59.5,252.5,-994.0,-20.0,274.0,1014.1665,-3.851758,4042.5,0.132992175,-0.0318377481666666,0.0693735416666666,-0.0044694066666667,-1.2671656666666666,0.0083599571666666,95145.0,28700.5,32685.0,125.0,-401.0,-73.0,1,27_xacc_avg_constant_0
2023-01-03 11:59:24,101.844,0.519999999999996,100.0,1098.0,24343.5,4900.0,99.0,1088.0,108.0,4895.5,69.376755,3.102826,0.13206705,0.0227654787666666,-1.2602938333333331,94.30333083333336,0.1317575166666666,0.0283645229166666,-1.2766915,0.5209261000000001,1.5999195,13.7160985,0.0,-29.5,20.5,-46.5,2.5,272.5,-1088.0,-28.5,308.5,1014.2465,-3.7723435,4044.0,0.1317575166666666,-0.0403653216666667,0.0283645229166666,-0.0491470635,-1.2766915,-0.02884569,94460.0,28731.5,32000.0,112.5,-253.0,-111.0,1,27_xacc_avg_constant_0
2023-01-03 11:59:25,102.96733333333331,0.3733333333333348,100.0,1032.5,24397.5,4902.5,99.0,1054.6666666666667,111.33333333333331,4901.333333333333,70.08386333333333,3.186252333333333,0.1602586688888888,0.02688583,-1.3372509444444445,93.33111,0.1621863222222222,0.0314519499999999,-1.3440637777777775,0.5028294666666666,1.5822203333333331,15.31253,0.0,-0.3333333333333333,0.5555555555555571,-50.66666666666666,91.55555555555556,255.3333333333333,-1118.3333333333333,-78.22222222222223,307.22222222222223,1014.4525555555556,-3.5660504444444445,4046.0,0.1621863222222222,0.0922688322222222,0.0314519499999999,0.0104321733333333,-1.3440637777777775,-0.0578274255555555,93443.33333333331,28352.666666666668,30983.33333333333,55.0,-120.33333333333331,-85.0,1,27_xacc_avg_constant_0
2023-01-03 11:59:26,103.766,0.0999999999999999,100.0,1014.0,24365.0,4888.0,99.0,1001.3,115.0,4896.9,70.55855199999999,3.2428644,0.1662193999999999,0.021948826,-1.3662990000000002,92.943994,0.16754716,0.02574924,-1.3676676,0.5378344,1.3360326000000002,10.4096906,0.0,-2.2,-18.0,-64.4,-98.4,269.1,-1068.0,24.1,312.8,1014.5167,-3.5018828,4047.4,0.16754716,-0.094529676,0.02574924,0.0031489289999999,-1.3676676,0.04082191044,92935.0,28184.0,30475.0,19.5,35.0,-9.5,1,27_xacc_avg_constant_0
2023-01-03 11:59:27,104.72288888888887,0.1044444444444441,100.0,905.5,24417.0,4902.0,99.0,894.0,117.22222222222224,4903.666666666667,71.17950333333334,3.315755111111111,0.085480174,0.0222318,-1.3519637999999998,92.907998,0.0886471339999999,0.0263383419999999,-1.3487226,0.7258151625,1.171306,10.06591775,0.0,7.333333333333333,10.444444444444445,-49.0,-28.444444444444443,260.44444444444446,-992.2222222222222,4.444444444444445,324.55555555555554,1014.543,-3.475503555555556,4049.0,0.0886471339999999,-0.075086438,0.0263383419999999,-0.0061151580799999,-1.3487226,-0.0013234328,92895.0,28277.0,30435.0,4.0,67.5,-8.5,1,27_xacc_avg_constant_0
2023-01-03 11:59:28,105.68800000000002,0.0999999999999999,100.0,1048.5,24372.0,4902.0,99.0,1006.3,119.9,4898.3,71.819212,3.385365,0.07085612,0.018404324,-1.345408,92.829998,0.073359704,0.020955972,-1.3422612,0.6699490200000001,1.356796,10.9273083,0.0,7.1,20.2,-54.8,-8.2,260.9,-1064.4,15.0,323.2,1014.5137,-3.5048672,4050.3,0.073359704,-0.0082260846,0.020955972,0.0068219838,-1.3422612,0.0069026252,92830.0,28319.5,30370.0,-3.5,56.5,-11.5,1,27_xacc_avg_constant_0
2023-01-03 11:59:29,106.68800000000002,0.0999999999999999,100.0,797.5,24456.5,4901.5,99.0,927.5,122.5,4901.7,72.33022600000001,3.4445992,0.06526675,0.0182687979999999,-1.3398800000000002,92.88,0.0669868919999999,0.020022594,-1.3360995999999998,0.69885045,1.04137315,7.9779376,0.0,-7.9,24.8,-38.8,5.2,259.4,-1030.1,-12.6,307.8,1014.5216,-3.4967735000000006,4052.0,0.0669868919999999,-0.0011128609999999,0.020022594,0.003370604,-1.3360995999999998,0.0002386991999999,92880.0,28337.5,30420.0,-5.5,37.5,-6.0,1,27_xacc_avg_constant_0
2023-01-03 11:59:30,107.722,0.1040000000000006,100.0,975.0,24404.0,4899.0,99.0,937.0,125.0,4901.8,72.78303000000002,3.4971972,0.05245832,0.00791081,-1.3394914,92.85,0.05319989,0.01047333298,-1.332966,0.6825748899999999,1.2076547,9.0351154,0.0,-14.3,26.25,-28.8,-16.4,258.4,-1068.5,17.2,318.6,1014.53495,-3.48332025,4053.4,0.052440398,0.0093279345999999,0.0107956834,-0.020344108,-1.3330266,0.0137770041999999,92845.0,28374.5,30385.0,-2.0,24.0,-8.0,1,27_xacc_avg_constant_0
2023-01-03 11:59:31,108.75,0.1019999999999995,100.0,1067.0,24371.5,4897.0,99.0,990.7,127.8,4897.0,73.216014,3.541063,0.05780857,0.0021781206,-1.3394302000000002,92.8,0.058170396,0.0057485834,-1.3325694,0.6256367500000001,1.1698218699999998,9.0450276,0.0,21.1,24.9,-25.4,-5.2,248.7,-1070.6,-3.6,308.6,1014.5160000000002,-3.5023827000000005,4055.2,0.058170396,0.038651446,0.0057485834,0.003607764,-1.3325694,-0.002878352,92790.0,28363.5,30330.0,-13.0,10.0,-4.5,1,27_xacc_avg_constant_0
2023-01-03 11:59:32,109.714,0.1000000000000006,100.0,893.0,24420.5,4899.5,99.0,928.2222222222222,130.66666666666666,4895.111111111111,73.6415711111111,3.5736888888888885,0.06208399,0.0196371025,-1.3271625,92.83,0.0621295449999999,0.022375815,-1.32044025,0.6321061555555556,1.2003710333333333,8.41098011111111,0.0,14.666666666666666,27.444444444444443,-49.888888888888886,-2.7777777777777777,256.3333333333333,-1064.7777777777778,-9.0,321.44444444444446,1014.4773333333334,-3.541006777777778,4056.444444444444,0.0621295449999999,-0.0682770775,0.022375815,-0.0176935825,-1.32044025,0.01590168125,92830.0,28454.0,30370.0,-21.0,-1.0,-6.0,1,27_xacc_avg_constant_0
2023-01-03 11:59:33,110.684,0.1019999999999995,100.0,930.0,24399.5,4893.0,99.0,1020.9,133.2,4891.6,74.07578600000001,3.6043668,0.08019947,0.049620626,-1.3298422,92.896,0.0810289759999999,0.052245252,-1.322404,0.71451225,1.21960409,9.5468264,0.0,26.6,22.8,-43.4,41.3,266.4,-1060.5,13.0,303.4,1014.4438,-3.574664,4058.1,0.0810289759999999,0.073411996,0.052245252,0.0158308559999999,-1.322404,0.0149588383999999,92890.0,28411.0,30430.0,-22.5,-17.0,-8.0,1,27_xacc_avg_constant_0
2023-01-03 11:59:34,111.684,0.0999999999999999,100.0,965.0,24401.5,4901.0,99.0,840.1,135.9,4898.8,74.395546,3.636133,0.11129322,0.05890322,-1.33616,93.007998,0.11204512,0.062327526,-1.3267894,0.8132556799999999,1.1300469,8.5209307,0.0,-15.5,14.7,-65.3,31.9,275.4,-995.4,-12.3,306.7,1014.4377000000002,-3.5807343999999994,4059.6,0.11204512,0.0366031939999999,0.062327526,0.0013865879999999,-1.3267894,-0.025121862,92990.0,28410.0,30530.0,-10.5,-28.0,-16.0,1,27_xacc_avg_constant_0
2023-01-03 11:59:35,112.684,0.0999999999999999,100.0,873.0,24414.0,4889.5,99.0,828.7,138.2,4902.8,74.63508999999999,3.6803786,0.0864597499999999,0.047030734,-1.3331024,92.991998,0.08727321,0.051490678,-1.3215888,0.8140056000000001,1.1193342999999998,8.104703400000002,64.3,17.1,17.6,-59.2,-56.3,274.3,-1054.4,1.8,314.6,1014.4768,-3.5414997999999995,4060.7,0.08727321,-0.060957506,0.051490678,-0.004989694,-1.3215888,0.0071564257999999,93005.0,28424.0,30545.0,-1.5,9.5,-19.0,0,None
2023-01-03 11:59:36,113.69,0.1019999999999995,100.0,798.5,24442.0,4906.0,99.0,798.9,140.3,4902.4,74.795138,3.7312554000000007,0.0622346019999999,0.055863904,-1.3349166,92.94199799999998,0.0650735979999999,0.0601095399999999,-1.3218956,0.93793745,1.18842049,10.3787971,59.7,-24.7,23.9,-75.7,26.3,276.2,-1052.3,2.0,321.8,1014.4866,-3.5318046,4062.1,0.0650735979999999,-0.042806684,0.0601095399999999,-0.0111168296,-1.3218956,0.00072603522,92955.0,28418.5,30495.0,9.5,10.0,-14.5,0,None
2023-01-03 11:59:37,114.704,0.0999999999999999,100.0,1062.0,24383.0,4904.5,99.0,874.0,142.8,4906.2,74.83755799999999,3.7811888,0.08150188,0.0410784399999999,-1.332768,92.8825,0.0838519925,0.045945415,-1.31876775,0.8140982400000001,1.0826724,7.564145299999998,93.88888888888889,19.33333333333333,20.55555555555556,-82.55555555555556,22.0,260.77777777777777,-1016.1111111111112,-11.11111111111111,312.8888888888889,1014.442111111111,-3.5762585555555555,4063.6666666666665,0.0838519925,-0.0344089425,0.045945415,0.0208843462499999,-1.31876775,-0.021579435,92890.0,28449.0,30430.0,10.0,-4.5,-16.0,0,None
2023-01-03 11:59:38,115.704,0.0999999999999999,100.0,1046.0,24371.5,4901.0,99.0,1074.1,145.3,4903.3,74.83608799999999,3.8303274,0.10840114,0.06387186,-1.332954,92.892,0.11162166,0.067032448,-1.3186064,0.6099553199999999,1.25128817,9.8601411,81.0,-4.8,10.3,-66.5,5.5,272.5,-1056.1,17.0,297.8,1014.4758,-3.5426484,4065.0,0.11162166,0.010488222,0.067032448,-0.0230813452,-1.3186064,0.0058134418,92890.0,28429.0,30430.0,5.0,-14.5,-17.0,0,None
2023-01-03 11:59:39,116.71,0.102000000000001,100.0,989.0,24359.5,4902.0,99.0,1119.3,148.5,4904.1,74.80686399999999,3.884604,0.10910848,0.055091918,-1.319368,92.89,0.11269362,0.058700198,-1.3042982,0.6409851,1.3615931,8.925467999999999,93.8,4.7,13.6,-60.1,16.9,270.6,-1020.6,2.3,300.4,1014.4496,-3.5688983,4066.2,0.11269362,0.0006575079999999,0.058700198,0.04527202,-1.3042982,-0.0034868482,92880.0,28527.0,30420.0,16.5,0.0,-9.0,0,None
2023-01-03 11:59:40,117.71177777777775,0.1044444444444441,100.0,1218.5,24306.5,4902.5,99.0,1139.0,151.77777777777777,4901.777777777777,74.77382666666666,3.942755333333333,0.10899302,0.0439592959999999,-1.3118112000000002,92.939998,0.1128096,0.048807194,-1.2961702,0.5733387555555556,1.4201299999999997,8.691552222222223,86.61111111111111,-13.5,9.166666666666666,-63.16666666666666,-7.444444444444445,257.72222222222223,-1030.0555555555557,16.0,298.5,1014.4632222222222,-3.5551518888888887,4067.6666666666665,0.1128096,0.028830578,0.048807194,-0.0259566899999999,-1.2961702,0.0205298226,92930.0,28564.5,30470.0,12.5,5.0,-16.5,0,None
2023-01-03 11:59:41,118.70600000000002,0.1060000000000002,100.0,1100.5,24343.5,4898.5,99.0,1171.5,154.8,4896.7,74.774154,4.0104706,0.09379983,0.041879168,-1.3138114,92.921998,0.097584458,0.047069226,-1.2987122,0.55502345,1.3372793,9.4504918,80.7,3.5,16.9,-49.9,-32.0,265.0,-1071.3,-15.2,302.5,1014.498,-3.5203826,4068.8,0.097584458,-0.04986594,0.047069226,-0.004356066,-1.2987122,-0.0162220808,92930.0,28568.5,30470.0,7.5,17.0,-12.0,0,None
2023-01-03 11:59:42,119.73877777777778,0.1111111111111111,100.0,977.5,24387.5,4896.5,99.0,1031.111111111111,158.0,4898.0,74.79712555555554,4.073582111111112,0.094599816,0.033457974,-1.3131944,92.884,0.0991977979999999,0.03780113,-1.2988852000000002,0.8014978444444444,1.332762977777778,9.042899,104.94444444444444,-18.05555555555556,22.944444444444443,-59.22222222222222,38.44444444444444,262.77777777777777,-1028.2222222222222,-3.055555555555556,314.27777777777777,1014.5081111111108,-3.510225722222222,4069.8333333333335,0.0991977979999999,-0.01705592,0.03780113,-0.0499691107999999,-1.2988852000000002,0.0196394348,92890.0,28547.5,30430.0,13.5,6.0,-5.5,0,None
2023-01-03 11:59:43,120.76089999999996,0.1040999999999996,100.0,1494.0,24217.0,4892.0,98.6,1360.5,161.6,4889.3,74.853056,4.1327454,0.1393905,0.023450053,-1.315653,92.865,0.141563875,0.0245633175,-1.29973475,0.61632324,1.5724297600000003,14.4011796,108.2,-13.85,0.65,-26.2,14.0,252.15,-953.75,9.6,296.55,1014.465,-3.5533162000000003,4071.1,0.14269636,0.04401634,0.027958892,-0.0151941699999999,-1.3004440000000002,-0.0123692208,92865.0,28555.0,30405.0,14.0,-2.5,-14.0,0,None
2023-01-03 11:59:44,121.76899999999998,0.0999999999999999,100.0,1275.5,24269.0,4895.5,98.0,1369.4,165.5,4894.6,75.01335,4.1930728,0.12066326,0.0048774712,-1.3087878,92.906,0.1243815,0.0103109172,-1.29484,0.55132298,1.5818118,14.98748,119.3,-27.2,7.9,-8.7,20.2,245.1,-1014.3,8.8,297.8,1014.4468,-3.5716718,4072.3,0.1243815,0.03758022,0.0103109172,-0.02754339,-1.29484,0.0113500544355999,92900.0,28579.0,30440.0,17.0,10.5,-13.5,0,None
2023-01-03 11:59:45,122.79722222222222,0.1111111111111111,100.0,1520.0,24238.0,4896.5,98.0,1579.0,169.55555555555554,4898.0,75.3483288888889,4.252793444444445,0.14821126,-0.027798538,-1.2886648,92.92599599999998,0.15226136,-0.0222376332,-1.2754660000000002,0.5606024333333334,1.357743333333333,12.140568111111111,111.11111111111111,4.111111111111111,1.8888888888888888,-30.22222222222222,-7.777777777777778,247.22222222222223,-1011.4444444444443,8.777777777777779,320.6666666666667,1014.4521666666664,-3.5661891111111115,4073.722222222222,0.15226136,-0.029277148,-0.0222376332,-0.022488188,-1.2754660000000002,0.0082125476,92930.0,28682.0,30470.0,12.5,3.5,-20.0,0,None
2023-01-03 11:59:46,123.76899999999998,0.0999999999999999,100.0,1296.5,24258.5,4898.0,98.0,1346.7,173.7,4899.0,75.8408,4.308023199999999,0.1171382139999999,0.0055306598,-1.308472,92.942,0.1223673199999999,0.0095799734,-1.2967628,0.6314221000000002,1.4439132999999995,10.7231318,118.2,26.9,6.6,-17.4,12.7,251.2,-1021.5,-20.1,307.2,1014.4640999999998,-3.5543202000000007,4074.4,0.1223673199999999,-0.0157803154,0.0095799734,0.052251558,-1.2967628,-0.0239171519999999,92930.0,28591.0,30470.0,-15.5,9.5,-6.5,0,None
2023-01-03 11:59:47,124.735,0.1022222222222224,100.0,1391.5,24274.5,4895.5,98.0,1146.4444444444443,177.0,4899.333333333333,76.44628222222222,4.366037333333334,0.1244022199999999,-0.0281940694,-1.3059198,92.957998,0.12896578,-0.0235961002,-1.294838,0.5954217444444444,1.6191483333333332,10.058267888888889,99.11111111111111,-67.22222222222223,13.666666666666666,-4.444444444444445,-31.11111111111111,245.5555555555556,-1028.4444444444443,12.444444444444445,328.22222222222223,1014.5398888888888,-3.4784722222222224,4075.3333333333335,0.12896578,-0.0327231156,-0.0235961002,-0.0525776647999999,-1.294838,0.0188080832,92970.0,28569.0,30510.0,3.5,15.0,-14.5,0,None
2023-01-03 11:59:48,125.68500000000002,0.0999999999999999,100.0,793.5,24413.5,4898.0,98.0,1006.1,179.7,4899.0,77.03654600000002,4.415382599999999,0.080951372,-0.013996291,-1.3016796,92.851998,0.086336436,-0.0095932004,-1.2910252,0.98179268,1.4412441,10.7350812,70.8,54.0,22.6,-32.4,-52.6,242.3,-1051.8,-10.9,324.1,1014.6072,-3.4112108999999995,4076.5,0.086336436,0.0046890279999999,-0.0095932004,0.0750964,-1.2910252,-0.0020013638,92875.0,28620.0,30415.0,-20.0,21.0,0.5,0,None
2023-01-03 11:59:49,126.693,0.1019999999999995,100.0,829.0,24398.0,4883.5,98.0,853.4,182.2,4903.1,77.64335799999999,4.4581692,0.07891605,0.0192035338,-1.3177178,92.735998,0.08437021,0.021548566,-1.3087988000000002,1.21995394,1.3141876,12.8011574,80.8,17.1,29.0,-16.8,25.8,256.2,-1026.1,-12.1,322.5,1014.5987,-3.4197108,4077.4,0.08437021,0.071536742,0.021548566,0.0073028666,-1.3087988000000002,-0.0045592497,92745.0,28513.5,30285.0,-25.0,6.5,2.0,0,None
2023-01-03 11:59:50,127.725,0.1039999999999991,100.0,701.0,24444.0,4904.5,98.0,858.7,184.6,4904.4,78.13140200000001,4.493884,0.101247394,0.037655178,-1.3237096,92.773998,0.1058157059999999,0.039239086,-1.3145262,1.09804999,1.3437687,14.536313399999996,81.25,28.15,16.75,-51.65,2.5,261.05,-1014.75,-8.6,309.6,1014.52445,-3.4940782,4078.2,0.1058157059999999,0.0483276552,0.039239086,-0.0215439986,-1.3145262,0.0031483159999999,92760.0,28468.5,30300.0,-16.5,1.5,4.5,0,None
2023-01-03 11:59:51,128.7216666666667,0.1044444444444441,100.0,947.0,24365.5,4902.0,98.0,848.2222222222222,187.11111111111111,4900.111111111111,78.53673888888889,4.528431,0.0815884774999999,0.04607534,-1.33173975,92.8274975,0.0853137775,0.0471282799999999,-1.32183375,0.9077654333333334,1.220764,11.253497888888887,77.33333333333333,-22.33333333333333,18.22222222222222,-46.22222222222222,-51.77777777777778,261.77777777777777,-1065.7777777777778,-7.333333333333333,304.0,1014.5066666666668,-3.511701333333333,4079.222222222222,0.0840905733333333,0.1321307966666666,0.0469477,-0.0447379533333333,-1.3218406666666669,0.0226920383333333,92825.0,28426.5,30365.0,0.0,14.0,-3.0,0,None
2023-01-03 11:59:52,129.705,0.104000000000002,100.0,854.0,24399.5,4893.5,98.0,816.6,189.3,4899.3,78.846664,4.5627038,0.0744438883333333,0.033894255,-1.3323083333333334,92.885,0.0790674616666666,0.0361809633333333,-1.322152,0.9563737200000002,1.21707572,12.0319388,70.7,-0.8,21.5,-47.1,18.8,260.0,-1025.4,-1.3,309.9,1014.4885,-3.5298514,4080.2,0.0796802016666666,-0.0067372399999999,0.03631624,-0.0005238283333333,-1.3220433333333332,-0.0069562557,92880.0,28422.5,30420.0,16.0,8.5,-8.0,0,None
2023-01-03 11:59:53,130.75099999999998,0.1039999999999991,100.0,1269.0,24275.5,4891.5,98.0,1005.6666666666666,191.77777777777777,4891.3,79.059076,4.593021800000001,0.078908498,0.0157626472,-1.3258610000000002,92.908,0.082728324,0.019106246,-1.314576,0.94219405,1.17699013,10.7357909,71.85,-8.65,15.85,-42.25,-3.1,250.65,-1036.15,9.25,307.25,1014.50115,-3.5172888000000007,4081.25,0.082728324,-0.0331339929999999,0.019106246,-0.014377866,-1.314576,0.0127474572,92910.0,28446.5,30450.0,26.0,5.0,-17.0,0,None
2023-01-03 11:59:54,131.7483333333333,0.1066666666666675,100.0,991.0,24357.0,4899.5,98.0,939.3333333333334,194.66666666666663,4901.444444444444,79.26977777777776,4.618838222222221,0.0825080149999999,-0.00014483935,-1.316858,92.9025,0.0859655749999999,0.00353357575,-1.306153,0.9131478444444446,1.3097131111111109,9.002054666666668,62.0,-12.88888888888889,24.666666666666668,-42.44444444444444,3.2222222222222223,250.5555555555556,-1030.5555555555557,-28.77777777777778,320.22222222222223,1014.5002222222224,-3.5181162222222224,4082.444444444444,0.0859655749999999,0.01037125425,0.00353357575,-0.0204125575,-1.306153,-0.01600835375,92900.0,28522.5,30440.0,26.0,1.5,-11.5,0,None
2023-01-03 11:59:55,132.727,0.0999999999999999,100.0,770.0,24424.5,4903.0,98.0,854.2,196.9,4905.5,79.51087200000002,4.641301800000001,0.0778146919999999,0.00343619396,-1.3295942,92.894,0.081326734,0.0070602658,-1.3186104,1.1319425200000002,1.3159807,14.28014,59.3,8.5,25.8,-30.4,-24.1,258.1,-1088.6,-9.8,332.2,1014.5029,-3.5155544999999995,4083.2,0.081326734,-0.071070726,0.0070602658,-0.0161908094,-1.3186104,-0.024512252,92895.0,28445.0,30435.0,7.5,0.5,-12.5,0,None
2023-01-03 11:59:56,133.74499999999998,0.1039999999999991,100.0,664.5,24472.0,4908.0,98.0,857.1,199.2,4902.3,79.768872,4.6615754,0.0778998239999999,0.0170411869999999,-1.3260055999999998,92.914,0.0821988139999999,0.018654476,-1.3143224,1.1122732,1.5235492,14.747006599999995,58.4,-4.25,23.95,-4.8,-32.5,258.4,-989.85,5.7,331.4,1014.5079,-3.5104060000000006,4084.4,0.0821988139999999,-0.038834981,0.018654476,-0.0056962299999999,-1.3143224,-0.0050564067999999,92915.0,28485.5,30455.0,-0.5,2.0,-14.5,0,None
2023-01-03 11:59:57,134.75055555555556,0.1044444444444441,100.0,653.5,24464.5,4902.0,98.0,858.1111111111111,201.5555555555556,4902.0,80.01697777777778,4.680146,0.067149716,0.018408388,-1.330162,92.884,0.07158126,0.02175598,-1.3175152,1.177963,1.450987777777778,14.195714444444445,56.77777777777778,-2.2222222222222223,26.0,-37.0,-6.111111111111111,268.8888888888889,-1074.7777777777778,-10.555555555555555,323.44444444444446,1014.4945555555556,-3.523697777777778,4085.1111111111113,0.07158126,0.0265821499999999,0.02175598,-0.0205122062,-1.3175152,0.0064321901599999,92885.0,28447.0,30425.0,1.5,3.0,-13.5,0,None
2023-01-03 11:59:58,135.727,0.102000000000001,100.0,887.5,24386.0,4901.0,98.0,868.3,203.9,4907.4,80.22876,4.695284200000001,0.07789842,0.0075332761199999,-1.3264142,92.878,0.081304248,0.0103848404,-1.31352,1.0167287,1.3380332999999998,12.7467036,67.1,-7.4,19.9,-38.7,2.4,253.4,-1035.0,-2.5,320.3,1014.504,-3.5141874,4086.1,0.081304248,0.0172993134,0.0103848404,-0.0245337525999999,-1.31352,0.0033484692,92880.0,28473.0,30420.0,6.5,0.0,-10.0,0,None
2023-01-03 11:59:59,136.727,0.0999999999999999,100.0,921.0,24392.0,4903.5,98.0,856.8,206.2,4908.6,80.436072,4.709038999999999,0.086942096,0.0115400854,-1.3275738,92.894,0.090326322,0.0148757934,-1.31466,1.07537066,1.22317807,13.3083242,72.8,16.1,20.6,-42.7,-4.6,253.6,-1052.2,-2.6,323.2,1014.4656,-3.5527421,4087.0,0.090326322,-0.00820894,0.0148757934,0.0309719512,-1.31466,-0.00739519784,92895.0,28474.0,30435.0,-5.0,4.5,-13.5,0,None
2023-01-03 12:00:00,137.75499999999997,0.1039999999999991,100.0,864.5,24403.0,4899.5,98.0,927.6,209.0,4900.2,80.65573599999998,4.722780800000001,0.076126888,0.02568898,-1.328327,92.93799599999998,0.079764964,0.027813682,-1.3148,0.92419881,1.15851361,10.7825221,76.35,-6.6,22.3,-37.7,16.7,263.9,-1018.25,7.35,315.3,1014.4691,-3.5491482500000004,4088.2,0.079764964,-0.00587646,0.027813682,0.0004931779999999,-1.3148,0.0070995478,92945.0,28461.5,30485.0,-2.5,2.0,-16.0,0,None
2023-01-03 12:00:01,138.765,0.0999999999999999,100.0,886.5,24380.0,4897.5,98.0,891.7,211.4,4900.6,80.854096,4.736817800000001,0.09614342,0.0173293829999999,-1.3232718,92.941996,0.099829564,0.0196214919999999,-1.3090826000000002,1.01458942,1.16744563,12.5324109,86.4,-7.5,17.4,-38.8,34.4,255.8,-1031.4,5.8,318.0,1014.4519,-3.566617,4089.0,0.099829564,0.069986352,0.0196214919999999,-0.026313792,-1.3090826000000002,0.0092366699999999,92945.0,28505.0,30485.0,2.0,-3.0,-19.5,0,None
2023-01-03 12:00:02,139.73055555555555,0.1022222222222208,100.0,918.5,24366.5,4898.0,98.0,923.4444444444443,213.88888888888889,4903.111111111111,81.04431444444444,4.752368000000001,0.103530992,0.0316270159999999,-1.3237834,92.984,0.1069061019999999,0.033311608,-1.3095431999999998,0.9524471444444444,1.1575320777777778,10.057549000000002,90.44444444444444,24.0,14.11111111111111,-40.77777777777778,-10.77777777777778,261.6666666666667,-1019.2222222222222,-11.11111111111111,315.0,1014.419,-3.5994964444444446,4089.8888888888887,0.1069061019999999,0.0184429499999999,0.033311608,0.040490334,-1.3095431999999998,-0.0054792018,92985.0,28488.5,30525.0,0.5,-4.0,-18.0,0,None
2023-01-03 12:00:03,140.701,0.104000000000002,100.0,870.0,24404.5,4890.5,98.0,902.1,216.2,4888.9,81.21486599999999,4.7706936,0.10952694,0.0165506999999999,-1.3216224,93.00999,0.1125409,0.01907739,-1.3064167999999998,0.92379759,1.09970197,11.9653309,88.8,-8.7,9.5,-34.3,16.1,255.9,-1009.0,5.6,311.7,1014.4524,-3.5661640999999995,4090.9,0.1125409,0.019872115,0.01907739,-0.0124076359999999,-1.3064167999999998,-0.0004982946,93010.0,28513.5,30550.0,5.0,2.5,-18.0,1,27_xgyro_avg_constant_-8.7
2023-01-03 12:00:04,141.74899999999997,0.1039999999999991,100.0,918.0,24430.0,4896.5,98.0,865.6,218.7,4898.3,81.39355900000001,4.7931362,0.0973957459999999,0.02080499,-1.3237862,92.988,0.102146482,0.022745174,-1.3087003999999998,0.98606956,1.18837243,12.4751015,72.15,-8.7,16.7,-39.5,-30.6,259.0,-1064.05,-10.2,324.1,1014.4573,-3.561050850000001,4091.7,0.102146482,0.0357087079999999,0.022745174,0.04643785,-1.3087003999999998,-0.0093618362,92990.0,28500.5,30530.0,-7.0,14.0,-17.0,1,27_xgyro_avg_constant_-8.7
2023-01-03 12:00:05,142.71944444444446,0.1022222222222208,100.0,986.0,24334.0,4901.5,98.0,963.6666666666666,221.22222222222223,4901.555555555556,81.56956222222222,4.814375333333334,0.076351208,0.03644061,-1.3255924,92.93200000000002,0.082112494,0.03808029,-1.3093884,0.8062020444444444,1.114151077777778,8.953231777777779,90.55555555555556,-8.7,21.33333333333333,-35.333333333333336,17.444444444444443,266.3333333333333,-1040.888888888889,21.33333333333333,311.1111111111111,1014.4818888888888,-3.536467,4092.6666666666665,0.082112494,0.031265018,0.03808029,-0.047574932,-1.3093884,0.0100287706,92930.0,28499.5,30470.0,3.0,13.5,-19.0,1,27_xgyro_avg_constant_-8.7
2023-01-03 12:00:06,143.68900000000002,0.102000000000001,100.0,1123.5,24306.5,4927.0,98.0,1063.5,223.9,4906.1,81.729366,4.837064000000001,0.0977821599999999,0.0154264132,-1.3153289999999995,92.916,0.103127936,0.0170780936,-1.2986738,0.7116115599999999,1.20236438,6.224772199999999,92.3,-8.7,19.2,-9.4,23.0,253.0,-1039.6,2.2,304.2,1014.4670999999998,-3.5514529,4093.8,0.103127936,-0.00430657,0.0170780936,-0.0151552,-1.2986738,-0.0200213984,92915.0,28562.5,30455.0,19.0,3.0,-13.5,1,27_xgyro_avg_constant_-8.7
2023-01-03 12:00:07,144.705,0.0999999999999999,100.0,848.0,24392.0,4905.5,98.0,1100.9,227.1,4908.2,81.87469999999999,4.8578600000000005,0.098204888,-0.0003210819999999,-1.3096206,92.916,0.10262445,0.0016636765199999,-1.2926217999999998,0.6249339899999999,1.315731,8.2706528,84.6,-8.7,18.4,-6.6,-26.2,251.0,-1051.7,8.9,316.5,1014.4754,-3.5430469,4094.6,0.10262445,-0.039427228,0.0016636765199999,-0.0379888132,-1.2926217999999998,-0.0074107996,92915.0,28600.5,30455.0,19.5,10.0,-11.0,1,27_xgyro_avg_constant_-8.7
2023-01-03 12:00:08,145.705,0.0999999999999999,100.0,1177.0,24282.5,4894.0,98.0,1162.9,230.2,4906.2,82.056372,4.878144000000001,0.0874015299999999,-0.0151136641999999,-1.3145012,92.91,0.091894116,-0.0120569685999999,-1.2973718,0.66097042,1.2985022000000002,8.6575606,74.9,-8.7,19.2,-22.4,2.9,249.5,-1055.7,4.2,321.5,1014.5014,-3.5170702,4095.3,0.091894116,0.019506694,-0.0120569685999999,0.0014245118,-1.2973718,-0.0016490898,92905.0,28571.0,30445.0,4.5,9.0,-15.0,1,27_xgyro_avg_constant_-8.7
2023-01-03 12:00:09,146.719,0.102000000000001,100.0,1371.5,24228.5,4889.0,98.0,1209.9,233.5,4911.4,82.269002,4.8965486,0.080999406,4.632220000000001e-05,-1.3103028,92.868,0.0860968,0.001804109144,-1.2936214,0.6202385499999999,1.2697774,8.9297911,82.2,-8.7,20.8,-20.7,-1.9,239.2,-1040.9,1.2,310.2,1014.4891999999998,-3.5292108,4096.1,0.0860968,-0.0067699329999999,0.001804109144,0.007449206,-1.2936214,0.0073295254,92870.0,28587.0,30410.0,-9.0,3.5,-11.5,1,27_xgyro_avg_constant_-8.7
2023-01-03 12:00:10,147.71277777777777,0.1066666666666643,100.0,1248.0,24269.0,4903.0,98.0,1196.5555555555557,236.88888888888889,4898.666666666667,82.49095555555556,4.911648222222222,0.0823296775,0.0165137115,-1.311124,92.9075,0.0868884875,0.0172446674999999,-1.2949465,0.5541657333333334,1.452751,8.862919777777778,83.44444444444444,-8.7,23.0,-26.166666666666668,21.166666666666668,250.22222222222223,-1012.8888888888888,-5.166666666666667,313.6111111111111,1014.4488888888887,-3.569422666666666,4097.0,0.0868884875,-0.032643835,0.0172446674999999,0.014414965,-1.2949465,-0.001058384,92920.0,28574.5,30460.0,-12.5,-5.5,-13.0,1,27_xgyro_avg_constant_-8.7
2023-01-03 12:00:11,148.70499999999998,0.102000000000001,100.0,1063.5,24328.0,4906.0,98.0,1108.5,240.0,4902.5,82.732406,4.9264858,0.09570128,0.0252222259999999,-1.3133898,92.962,0.100065936,0.025959074,-1.2972292,0.73342641,1.4295950999999998,9.132179500000005,91.4,-8.7,19.1,-20.3,24.2,259.0,-1053.6,-3.1,312.8,1014.5017,-3.5167264999999994,4097.9,0.1007383919999999,0.041142078,0.0260154859999999,0.0030035339999999,-1.2969848000000002,-0.0067901825999999,92955.0,28562.0,30495.0,1.0,-7.5,-13.5,1,27_xgyro_avg_constant_-8.7
2023-01-03 12:00:12,149.741,0.1060000000000002,100.0,1159.5,24300.5,4904.5,98.0,1164.5555555555557,243.44444444444449,4901.3,82.936822,4.9416506,0.10794158,0.0075207787799999,-1.3122968,92.894,0.1117683599999999,0.0090737732,-1.2948764,0.5353043699999999,1.4316364,8.525825399999999,82.65,-8.7,11.55,-20.95,0.95,253.25,-1053.4,-0.25,314.15,1014.4873,-3.5311795000000004,4098.45,0.1117683599999999,-0.014244874,0.0090737732,-0.0229109537999999,-1.2948764,0.0019970912,92880.0,28574.0,30420.0,9.5,10.5,-10.5,1,27_xgyro_avg_constant_-8.7
2023-01-03 12:00:13,150.75055555555554,0.1088888888888877,100.0,1016.5,24300.5,4897.0,98.0,1223.3333333333333,246.66666666666663,4896.111111111111,83.14178555555554,4.959158777777777,0.089431655,0.010128739,-1.30621675,92.91,0.093887665,0.01137441725,-1.2894375,0.5782669333333333,1.5081865555555558,10.932056333333335,89.0,-8.7,21.0,-14.375,1.0,249.5625,-1007.0,31.8125,314.4375,1014.4464375,-3.5719725625,4099.25,0.093887665,-0.04370651975,0.01137441725,-0.0199832525,-1.2894375,0.023663006,92920.0,28609.5,30460.0,13.0,11.5,-15.0,1,27_xgyro_avg_constant_-8.7
2023-01-03 12:00:14,151.71055555555552,0.1044444444444441,100.0,1046.0,24332.0,4901.0,98.0,1092.4444444444443,249.77777777777777,4899.444444444444,83.3375011111111,4.975292333333334,0.091047558,-0.0058750239999999,-1.3102344,92.988,0.0956294199999999,-0.0034059966,-1.2933078,0.6046951333333335,1.4454276666666666,8.223645666666664,84.77777777777777,-8.7,20.11111111111111,-14.333333333333334,26.11111111111111,250.88888888888889,-989.1111111111112,-13.666666666666666,311.55555555555554,1014.471,-3.5473262222222224,4100.0,0.0956294199999999,0.0266292598,-0.0034059966,0.0021847307999999,-1.2933078,-0.0113581295999999,92990.0,28575.0,30530.0,11.5,5.0,-16.5,1,27_xgyro_avg_constant_-8.7
2023-01-03 12:00:15,152.699,0.104000000000002,100.0,955.0,24347.0,4900.5,98.0,970.4444444444443,252.77777777777777,4902.9,83.565134,4.9921554,0.090261288,-0.0150504062,-1.3149799999999998,92.955998,0.094510612,-0.0130876674,-1.2985398,0.8751498099999999,1.3982168999999998,10.6400688,75.4,-8.7,21.4,-11.1,5.3,242.3,-1021.1,-6.5,320.4,1014.4848,-3.5336563000000005,4100.7,0.094510612,0.0263771724,-0.0130876674,-0.004011694,-1.2985398,-0.007201417,92950.0,28562.0,30490.0,3.0,4.5,-14.5,1,27_xgyro_avg_constant_-8.7
2023-01-03 12:00:16,153.72899999999998,0.1039999999999991,100.0,1090.0,24309.5,4897.5,98.0,1010.0,255.4,4902.4,83.79932,5.0067942,0.090551338,-0.0053219612,-1.324738,92.916,0.095104628,-0.0034596464,-1.3083822,0.85253409,1.2544939999999998,9.4331504,70.6,-8.7,18.55,-8.65,9.05,243.15,-1018.1,-26.35,321.5,1014.49385,-3.5243828,4101.05,0.095104628,-0.023064182,-0.0034596464,0.041782385,-1.3083822,-0.0116239552,92915.0,28493.0,30455.0,-13.0,4.5,-10.0,1,27_xgyro_avg_constant_-8.7
2023-01-03 12:00:17,154.75099999999998,0.0999999999999999,100.0,744.5,24439.5,4902.0,98.0,1035.2,258.1,4903.8,84.05092599999999,5.019849800000001,0.089421352,0.012518065,-1.3370038,92.918,0.094706194,0.0137532808,-1.3208369999999998,0.92213749,1.1959386,10.8194348,78.0,12.6,17.8,-50.9,21.6,251.8,-1011.6,1.9,320.0,1014.4787,-3.5396640000000006,4102.0,0.094706194,0.04149296,0.0137532808,0.036982678,-1.3208369999999998,-0.0067115984,92920.0,28437.0,30460.0,-22.0,2.0,-10.0,0,None
2023-01-03 12:00:18,155.76099999999997,0.0999999999999999,100.0,1018.0,24337.0,4903.5,98.0,907.0,260.9,4904.4,84.29665799999998,5.0319704000000005,0.083557188,0.045247248,-1.3385168,92.919998,0.088919194,0.045567084,-1.321984,0.76716896,1.2390608999999997,10.5543577,70.2,22.9,15.4,-35.6,-30.2,259.6,-1068.5,-9.7,308.4,1014.5153,-3.5031327,4102.7,0.088919194,-0.0295824414,0.045567084,0.0300466959999999,-1.321984,-0.0179126846,92910.0,28423.0,30450.0,-11.5,10.5,-15.0,0,None
2023-01-03 12:00:19,156.765,0.0999999999999999,100.0,985.0,24347.5,4902.5,98.0,935.0,263.5,4899.9,84.49663600000001,5.044359200000001,0.072605914,0.02743051,-1.3407513999999998,92.876,0.07796454,0.029112244,-1.3236119999999998,0.7845045900000001,1.1815178000000002,9.5149193,68.4,-1.7,19.7,-38.2,-13.2,261.4,-1046.2,2.0,314.6,1014.51,-3.5082655000000003,4103.1,0.07796454,0.0157825567999999,0.029112244,0.014409974,-1.3236119999999998,0.00233876162,92875.0,28427.5,30415.0,2.0,12.5,-8.0,0,None
2023-01-03 12:00:20,157.71944444444446,0.1022222222222208,100.0,935.0,24346.5,4902.0,98.0,904.0,266.0,4903.888888888889,84.63153111111112,5.055772222222223,0.0798748625,0.037228535,-1.3369812499999998,92.885,0.0853240899999999,0.03945256,-1.3191425,0.7358083111111112,1.0962855777777778,8.371453666666667,92.11111111111111,14.77777777777778,13.555555555555555,-54.77777777777778,0.3333333333333333,261.22222222222223,-1050.4444444444443,5.777777777777778,304.55555555555554,1014.4833333333332,-3.5353992222222224,4103.555555555556,0.0853240899999999,-0.0304970199999999,0.03945256,0.0543811825,-1.3191425,0.0007329032499999,92880.0,28444.0,30420.0,2.0,0.0,-14.0,0,None
2023-01-03 12:00:21,158.697,0.102000000000001,100.0,729.0,24385.0,4901.0,98.0,838.3,268.5,4908.4,84.734932,5.067631799999999,0.086588978,0.038945692,-1.3419546,92.916,0.090947054,0.04014491,-1.3251466,1.01258566,1.2001723,13.248711600000002,59.1,-24.6,18.2,-37.9,17.5,266.1,-959.9,0.6,317.0,1014.5131,-3.5052577,4104.3,0.090947054,0.057120262,0.04014491,-0.0066763099999999,-1.3251466,-0.0051534959999999,92915.0,28414.5,30455.0,13.0,-2.0,-13.0,0,None
2023-01-03 12:00:22,159.717,0.102000000000001,100.0,832.5,24387.0,4906.0,98.0,843.1,270.8,4910.3,84.809774,5.079259799999999,0.07761666,0.0083462278,-1.3345314,92.878,0.082092422,0.0101323152,-1.3164812,1.0530033,1.4059433,11.2197626,63.8,-17.5,20.9,-36.3,12.8,256.5,-1051.9,0.4,323.2,1014.5475,-3.4709766,4104.9,0.082092422,-0.0380232356,0.0101323152,-0.007173948,-1.3164812,0.00507889,92885.0,28462.0,30425.0,24.5,5.0,-11.0,0,None
2023-01-03 12:00:23,160.741,0.1039999999999991,100.0,942.0,24344.5,4898.0,98.0,955.2,273.4,4902.7,84.884396,5.0901932,0.07990404,0.0010261018,-1.3276848,92.809998,0.084255304,0.00369640046,-1.3089404,1.1011727800000002,1.19944494,12.6097237,62.95,-6.85,22.3,-7.65,3.1,252.95,-1008.65,11.55,324.1,1014.5393,-3.4791678,4105.55,0.084255304,0.01161784154,0.00369640046,-0.0099160018123999,-1.3089404,0.00463321322,92815.0,28496.0,30355.0,20.0,13.5,-5.5,0,None
2023-01-03 12:00:24,161.72833333333335,0.1022222222222208,100.0,968.0,24340.5,4892.0,98.0,1003.7777777777778,276.1111111111111,4905.555555555556,84.98750333333334,5.099673444444444,0.07383565,-0.01944893,-1.3188804,92.839998,0.078952588,-0.0173859359999999,-1.299934,0.8312705222222223,1.3502181111111111,9.493996222222222,64.22222222222223,0.0,29.33333333333333,-3.111111111111111,45.66666666666666,247.77777777777777,-985.6666666666666,-7.444444444444445,330.3333333333333,1014.5038888888888,-3.5146004444444445,4105.888888888889,0.078952588,0.000122276,-0.0173859359999999,0.0383457896,-1.299934,0.005254228,92830.0,28555.0,30370.0,11.0,14.5,-9.5,0,None
2023-01-03 12:00:25,162.697,0.102000000000001,100.0,956.5,24337.5,4899.0,98.0,948.4,278.8,4904.5,85.101764,5.1068312,0.064386156,-0.0044340218,-1.3204426000000002,92.868,0.069687166,-0.00247955598,-1.3019308,0.90147613,1.2392753000000003,10.5248497,58.3,19.0,30.5,-18.1,14.2,254.6,-1028.7,-6.4,330.7,1014.5226,-3.4958751,4106.2,0.069687166,-0.065963626,-0.00247955598,0.0309309659999999,-1.3019308,0.0020204647999999,92870.0,28539.0,30410.0,-6.5,9.0,-6.0,0,None
2023-01-03 12:00:26,163.70499999999998,0.0999999999999999,100.0,955.0,24335.5,4901.5,98.0,1001.3,281.6,4904.3,85.23588800000002,5.1117876,0.075055866,0.00680291824,-1.3163118,92.86,0.079175904,0.0083019462,-1.2984806,0.74767998,1.2663179,8.225969199999998,62.4,15.5,30.7,-17.7,16.3,246.2,-980.8,-3.3,316.6,1014.4855,-3.5327575,4107.0,0.079175904,0.00679024178,0.0083019462,0.023615741,-1.2984806,0.0056667022,92855.0,28566.0,30395.0,-15.5,2.0,-6.0,0,None
2023-01-03 12:00:27,164.70499999999998,0.0999999999999999,100.0,1048.0,24294.0,4902.5,98.0,880.5,284.0,4905.9,85.37422999999998,5.115166,0.062718506,0.02194659,-1.3312318,92.896,0.066628378,0.022671382,-1.3130034,1.1155950300000002,1.2556596,12.2428991,74.0,2.7,27.1,-26.7,17.3,257.7,-1018.6,-8.5,315.3,1014.4945,-3.5238907,4107.8,0.066628378,-0.0096171659999999,0.022671382,-0.0187945056199999,-1.3130034,-0.01803345426,92895.0,28493.0,30435.0,-11.0,-1.0,-10.5,0,None
2023-01-03 12:00:28,165.70499999999998,0.0999999999999999,100.0,947.0,24321.0,4903.5,98.0,942.0,286.5,4907.3,85.485668,5.11745,0.085727978,0.0165450839999999,-1.3300398000000002,92.90800000000002,0.089089488,0.01813869,-1.3116978,0.9267992699999998,1.31560635,12.4509002,78.2,2.6,16.2,-24.9,-19.7,258.6,-1087.2,11.1,318.0,1014.4765,-3.5419532999999994,4108.1,0.089089488,0.032531778,0.01813869,-0.0239667884,-1.3116978,0.0264388279999999,92905.0,28472.0,30445.0,-1.5,-5.0,-16.5,0,None
2023-01-03 12:00:29,166.70499999999998,0.0999999999999999,100.0,970.0,24317.0,4902.5,98.0,978.3,289.3,4910.1,85.58132799999998,5.1206624000000005,0.0929753579999999,0.014578156,-1.3204178,92.918,0.0962503079999999,0.016586862,-1.3017516,0.80560071,1.25714731,9.4085559,90.5,-3.5,17.0,-12.9,7.3,252.0,-1013.7,9.4,313.8,1014.4932,-3.525179800000001,4108.9,0.0962503079999999,-0.0027613431999999,0.016586862,-0.013633012,-1.3017516,0.0184738159999999,92925.0,28540.5,30465.0,5.0,1.0,-17.5,0,None
2023-01-03 12:00:30,167.70499999999998,0.0999999999999999,100.0,995.5,24316.5,4904.5,98.0,1076.1,292.2,4904.6,85.67668800000001,5.1257852,0.087143774,0.00262179832,-1.3209484,92.91400000000002,0.09120507,0.0059188489999999,-1.30181,0.68309497,1.3033313000000002,7.957357299999998,68.0,-9.3,17.8,-35.9,-16.9,252.7,-1041.4,-5.1,308.9,1014.4539,-3.5645389,4109.4,0.09120507,-0.0105201681999999,0.0059188489999999,-0.022630328,-1.30181,-0.00174391778,92905.0,28540.5,30445.0,5.0,8.5,-14.5,0,None
2023-01-03 12:00:31,168.70499999999998,0.0999999999999999,100.0,1022.5,24301.5,4903.5,98.0,1054.8,295.1,4908.0,85.78018,5.1320396,0.079087178,0.0213898068,-1.3222973999999998,92.954,0.084221682,0.024464112,-1.3038542000000002,0.65694125,1.2920735799999998,8.219481300000002,92.8,24.8,23.5,-1.7,21.5,255.8,-1040.1,6.0,307.9,1014.4715,-3.5470234,4110.0,0.084221682,0.0312062703999999,0.024464112,0.0054283987999999,-1.3038542000000002,0.0127231315999999,92955.0,28532.5,30495.0,-1.0,2.5,-18.5,0,None
2023-01-03 12:00:32,169.70499999999998,0.0999999999999999,100.0,1125.0,24300.5,4899.0,98.0,1152.7,298.2,4904.9,85.88305199999999,5.138555800000001,0.099181566,-0.0020879264,-1.3173884,92.93999599999998,0.102920988,0.0013468832,-1.2992956,0.6110842999999999,1.3734979,8.914340499999998,81.3,-15.8,17.6,-34.2,6.2,246.5,-1046.6,-3.7,314.1,1014.442,-3.5765544999999994,4110.2,0.102920988,-0.0565622899999999,0.0013468832,0.0030640599999999,-1.2992956,-0.0085302086,92935.0,28557.0,30475.0,7.0,3.5,-15.5,0,None
2023-01-03 12:00:33,170.70499999999998,0.0999999999999999,100.0,1158.0,24281.0,4882.5,98.0,990.2,301.1,4903.3,85.98875,5.1460916,0.084691542,0.02207634,-1.328665,92.96,0.0896328,0.025157686,-1.3112762,0.95452299,1.3739868,12.579914000000002,76.0,13.9,17.9,-20.8,-14.3,259.5,-1109.2,-17.4,320.7,1014.4984,-3.5200779000000004,4111.0,0.0896328,0.059622304,0.025157686,0.0080981969999999,-1.3112762,0.0097077884,92965.0,28493.5,30505.0,-3.5,1.0,-10.0,0,None
2023-01-03 12:00:34,171.705,0.0999999999999999,100.0,1219.5,24240.0,4897.5,98.0,1088.7,304.1,4901.7,86.092322,5.1542192,0.10708028,0.017861664,-1.3247498,92.91,0.1114191799999999,0.0207869639999999,-1.3076498,0.6321845899999999,1.3699544,10.5584858,99.1,-11.2,11.4,-15.6,10.6,260.7,-1063.3,2.8,307.5,1014.4846,-3.5337655000000003,4111.2,0.1114191799999999,0.020621436,0.0207869639999999,-0.0113339246,-1.3076498,0.021942502,92910.0,28498.5,30450.0,4.5,0.5,-10.5,0,None
2023-01-03 12:00:35,172.705,0.0999999999999999,100.0,1045.0,24271.0,4895.0,98.0,1029.6,307.0,4896.9,86.18458999999999,5.164315599999999,0.1101578599999999,0.019529522,-1.3281572,92.916,0.1137772199999999,0.0234756159999999,-1.3112452,0.7958928200000001,1.3191497999999997,7.077021100000001,93.9,4.4,5.7,-18.7,-5.5,257.6,-1037.6,-5.2,316.0,1014.4977,-3.5208047,4112.0,0.1137772199999999,0.0297801045999999,0.0234756159999999,0.0045446976,-1.3112452,0.006530889,92920.0,28493.5,30460.0,3.5,3.5,-13.0,0,None
2023-01-03 12:00:36,173.705,0.0999999999999999,100.0,1140.0,24265.0,4903.5,98.0,1011.8,309.9,4900.6,86.272694,5.176685399999999,0.10417844,0.0164126,-1.3254113999999997,92.91599800000002,0.10856588,0.020419888,-1.3093458,0.8303248,1.2856099,10.2374857,99.9,3.9,12.3,-27.2,27.9,250.9,-1011.9,-3.4,302.1,1014.4644999999998,-3.5538670000000003,4112.4,0.10856588,-0.062242418,0.020419888,0.022121216,-1.3093458,0.0030047218,92910.0,28497.0,30450.0,5.5,6.5,-9.0,0,None
2023-01-03 12:00:37,174.70700000000002,0.102000000000001,100.0,846.0,24350.0,4883.5,98.0,981.8,312.6,4907.6,86.357112,5.1907616,0.11226106,0.023310926,-1.3285236,92.919996,0.1166539,0.027345418,-1.313271,0.7748921799999999,1.11828072,10.4089843,99.9,5.8,11.2,-39.3,-3.8,260.1,-1016.9,2.0,319.2,1014.4935,-3.5250469000000004,4113.0,0.1166539,-0.0102977979999999,0.027345418,-0.00623736,-1.313271,-0.0080773554,92925.0,28478.5,30465.0,1.0,6.5,-16.5,0,None
2023-01-03 12:00:38,175.57500000000002,0.0999999999999983,100.0,1005.0,24308.0,4896.0,98.0,967.8571428571428,314.85714285714283,4909.428571428572,86.42806571428572,5.203859571428571,0.1005749166666666,0.0211565466666666,-1.327979,92.89333333333332,0.1052822666666666,0.0241965233333333,-1.3131156666666666,0.8370516857142858,1.1570070857142858,11.659068000000005,75.42857142857143,-20.0,17.142857142857142,-38.142857142857146,-12.428571428571429,257.42857142857144,-1038.2857142857142,-4.0,323.42857142857144,1014.4878571428573,-3.530412857142857,4113.142857142857,0.1052822666666666,-0.00105795,0.0241965233333333,0.013696383,-1.3131156666666666,-0.0034952133333333,92895.0,28488.0,30435.0,6.5,12.5,-11.5,0,None
2023-01-03 12:00:43,180.875,0.759999999999999,100.0,1087.5,24266.5,4909.0,97.14285714285714,1079.2857142857142,328.1428571428572,4902.428571428572,86.85471714285715,5.281231,0.103817625,0.01380097,-1.32183225,92.895,0.10872045,0.017563495,-1.3066442500000002,0.8250854142857144,1.305633,7.140863285714286,106.21428571428572,0.5,10.928571428571429,-15.428571428571429,-8.357142857142858,252.57142857142856,-1054.857142857143,19.428571428571427,321.7857142857143,1014.4927142857144,-3.5257645,4115.714285714285,0.10872045,0.0194661645,0.017563495,-0.000352081,-1.3066442500000002,0.01161153175,92890.0,28520.0,30430.0,2.0,1.0,-10.0,0,None
2023-01-03 12:00:44,181.72622222222225,0.1066666666666675,100.0,1039.0,24240.0,4911.0,97.0,1094.3333333333333,332.6666666666667,4901.888888888889,86.91747777777779,5.294452555555555,0.10895196,0.018082564,-1.3219702,92.892,0.11284364,0.0227359039999999,-1.3059882,0.7557453777777778,1.4301742222222222,9.489134,92.44444444444444,6.111111111111111,10.333333333333334,-34.666666666666664,6.0,250.22222222222223,-1021.1111111111112,15.88888888888889,306.3333333333333,1014.5226666666666,-3.495703,4116.444444444444,0.11284364,0.0101347859999999,0.0227359039999999,-0.0081041726,-1.3059882,-0.0139114322,92895.0,28519.0,30435.0,4.5,1.5,-12.0,0,None
2023-01-03 12:00:45,182.7451,0.1060000000000002,100.0,1039.3333333333333,24261.0,4903.666666666667,97.0,1034.5,335.5,4904.0,86.990066,5.3101038,0.10270342,0.0028627742399999,-1.3207928000000002,92.858,0.10641304,0.0079515758,-1.3045792,0.92991298,1.3954519000000003,8.823159400000002,93.8,-8.55,12.75,-17.15,-17.95,249.45,-1077.7,-10.3,312.35,1014.4999,-3.5186561,4117.05,0.10641304,-0.0121162686,0.0079515758,0.0010703239999999,-1.3045792,0.0007605295999999,92855.0,28525.5,30395.0,8.0,5.5,-3.0,0,None
2023-01-03 12:00:46,183.7372222222222,0.1044444444444441,100.0,869.0,24304.0,4909.0,97.0,1081.5555555555557,338.44444444444446,4899.666666666667,87.07020333333334,5.325430222222222,0.110694725,0.0080456385,-1.3197837499999998,92.8775,0.11504015,0.01273749075,-1.3033345,0.7690608555555555,1.361583777777778,10.36035688888889,110.88888888888889,21.33333333333333,9.22222222222222,-38.55555555555556,11.666666666666666,251.77777777777777,-1023.4444444444443,-5.777777777777778,323.6666666666667,1014.4752222222222,-3.5432377777777777,4117.222222222223,0.11504015,-0.0328655775,0.01273749075,0.01580701775,-1.3033345,-0.0100428425,92880.0,28534.0,30420.0,-4.5,-3.0,-10.5,0,None
2023-01-03 12:00:47,184.745,0.1060000000000002,100.0,1047.3333333333333,24271.33333333333,4907.666666666667,97.0,1074.2,341.4,4902.1,87.16543200000001,5.3403706,0.12195858,0.027137732,-1.3219716,92.91,0.1258786999999999,0.0310101819999999,-1.3057942,0.67426344,1.4593203,7.176419300000001,111.5,4.5,9.15,-36.55,7.95,258.9,-1062.05,12.85,311.0,1014.45575,-3.5627655000000003,4117.5,0.1258786999999999,-0.001511938,0.0310101819999999,-0.00397760176,-1.3057942,-0.0106668303999999,92910.0,28519.5,30450.0,-3.5,-3.5,-11.5,0,None
2023-01-03 12:00:48,185.733,0.1044444444444441,100.0,1109.0,24245.0,4909.0,97.0,1043.2222222222222,344.44444444444446,4905.555555555556,87.25655444444446,5.356841111111112,0.12891116,0.027940152,-1.3204456,92.945996,0.13195918,0.032156268,-1.3043746000000005,0.7536726,1.1794417555555556,4.391000111111111,101.11111111111111,4.777777777777778,7.222222222222222,-62.11111111111112,11.333333333333334,257.6666666666667,-994.0,-8.88888888888889,310.8888888888889,1014.459111111111,-3.559192666666667,4118.111111111111,0.13195918,0.00641181,0.032156268,0.0317756515999999,-1.3043746000000005,-0.0158682716,92950.0,28529.5,30490.0,-3.0,-0.5,-18.5,0,None
2023-01-03 12:00:49,186.7411,0.1061000000000006,100.0,1112.3333333333333,24229.666666666668,4899.333333333333,97.0,1059.6,347.2,4904.4,87.33017,5.374430600000001,0.1234945199999999,0.0393259799999999,-1.3131354,92.958,0.12717182,0.043881104,-1.2966712,0.74010059,1.4502978999999998,8.940015499999998,103.15,16.45,355.65,-58.45,-14.45,263.95,-1038.7,-3.0,308.9,1014.4427500000002,-3.575753700000001,4118.6,0.12717182,-0.00967815776,0.043881104,0.0380175416,-1.2966712,-0.001562851,92960.0,28570.5,30500.0,-7.0,6.0,-17.0,1,27_xmag_avg_constant_355.65
