00000_Time_epoch,00000_Time_boot_sec,00000_Span_Time_boot_sec,1_battery_remaining_avg,1_current_battery_avg,1_voltage_battery_avg,125_Vcc_avg,147_battery_remaining_avg,147_current_battery_avg,147_current_consumed_avg,165_Vcc_avg,168_direction_avg,168_speed_avg,178_pitch_avg,178_roll_avg,178_yaw_avg,182_altitude_avg,182_pitch_avg,182_roll_avg,182_yaw_avg,241_vibration_x_avg,241_vibration_y_avg,241_vibration_z_avg,27_xacc_avg,27_xgyro_avg,27_xmag_avg,27_yacc_avg,27_ygyro_avg,27_ymag_avg,27_zacc_avg,27_zgyro_avg,27_zmag_avg,29_press_abs_avg,29_press_diff_avg,29_temperature_avg,30_pitch_avg,30_pitchspeed_avg,30_roll_avg,30_rollspeed_avg,30_yaw_avg,30_yawspeed_avg,33_alt_avg,33_hdg_avg,33_relative_alt_avg,33_vx_avg,33_vy_avg,33_vz_avg,label,diagnosis
2023-01-03 14:45:46,2286.483,-0.1650000000000773,80.0,87.0,23132.0,4880.0,96.0,84.66666666666667,565.0,4888.25,-174.038375,0.050177995,-0.003806028,-0.016493525,-1.3254155,32.085,-0.004192053,-0.0163635749999999,-1.3275860000000002,0.02485426,0.0232240999999999,0.03634582,-14.25,6.0,52.75,0.5,6.75,264.5,-1047.5,-2.25,335.25,1018.364,-0.0051953124999999,3880.0,-0.004192053,0.0074146835,-0.0163635749999999,0.0072328405,-1.3275860000000002,-0.0033177165,32090.0,28394.0,10.0,2.0,0.0,3.0,0,None
2023-01-03 14:45:47,2287.217,0.1060000000000399,80.0,86.0,23159.0,4882.0,96.0,87.4,565.9,4887.9,-164.76396,0.098411082,-0.0034133118,-0.01662495,-1.325352,32.1,-0.0042416044,-0.016381256,-1.327644,0.026817643,0.025193427,0.03660129,-14.4,6.35,51.55,0.9,6.2,265.0,-1046.0,-2.2,334.75,1018.35105,-0.0179687485,3880.0,-0.0042416044,0.0067003964,-0.016381256,0.0067903421999999,-1.327644,-0.0027417405999999,32100.0,28393.5,20.0,2.0,0.0,2.0,0,None
2023-01-03 14:45:48,2288.1974444444445,0.1022222222221797,80.0,185.0,23083.0,4896.5,96.0,173.0,566.0,4884.444444444444,-160.19578888888887,0.1690524888888888,-0.0031190567999999,-0.016520606,-1.3257154,32.118,-0.004228836,-0.016551816,-1.3277088,0.1401472733333333,0.2629237455555555,0.8039697055555555,-11.333333333333334,6.111111111111111,49.44444444444444,-10.0,6.444444444444445,254.44444444444449,-1040.0,-1.1111111111111112,331.22222222222223,1018.3644444444444,-0.0048611122222222,3880.1111111111113,-0.004228836,0.0069857023999999,-0.016551816,0.0085556452,-1.3277088,0.0059412646,32120.0,28395.0,40.0,2.0,1.5,2.0,0,None
2023-01-03 14:45:49,2289.1991000000003,0.1041000000000167,80.0,169.5,23097.5,4886.5,96.0,137.1,566.1,4887.5,-158.11606,0.24729246,-0.003635854,-0.01657798,-1.3250682,32.138,-0.004194646,-0.0167288599999999,-1.3276093999999998,0.070557587,0.1467568699999999,0.4630206,-16.1,5.7,49.8,4.0,5.7,252.2,-1043.7,-1.4,330.4,1018.3728,0.0037500004999999,3880.7,-0.004194646,0.007625555,-0.0167288599999999,0.0069873376,-1.3276093999999998,-0.00282815548,32140.0,28395.0,60.0,1.0,2.0,1.0,0,None
2023-01-03 14:45:50,2290.224,0.0999999999999999,79.5,1863.5,22653.5,4890.5,96.0,1633.7,569.0,4892.3,-157.33289999999997,0.3226080399999999,0.0098392228,-0.0066746193999999,-1.3311446,32.372,0.0086691612,-0.0067554975999999,-1.3304308,0.4179680999999999,1.34247168,5.708913999999999,-2.7,36.4,19.9,-9.6,4.9,247.4,-1238.8,4.5,287.2,1018.5715,0.202234376,3880.9,0.0086691612,-0.01405835,-0.0067554975999999,0.0167881974,-1.3304308,-0.0116139557999999,32475.0,28376.5,395.0,-3.5,7.0,109.0,0,None
2023-01-03 14:45:51,2291.2423,0.1021000000000184,78.5,1791.0,22621.0,4876.0,96.0,1824.6,574.3,4884.9,-159.36538000000004,0.39740448,0.0004751981999999,0.005347768,-1.3209946,34.262,-0.0006793474,0.005193974,-1.3421396,0.44198302,1.877447,8.8628586,-0.15,-59.2,22.7,-11.9,-12.65,257.4,-1163.8,9.65,289.8,1018.0871,-0.282175778,3881.0,-0.0006793474,0.014502862,0.005193974,-0.039298632,-1.3421396,0.0078912019999999,34630.0,28093.0,2550.0,17.0,3.5,281.0,0,None
2023-01-03 14:45:52,2292.215888888889,0.1045555555555337,77.5,1519.5,22670.0,4887.5,96.0,1602.888888888889,579.1111111111111,4884.0,-161.12525555555555,0.4475981555555555,0.0017125693999999,-0.042810844,-1.333234,37.46999999999999,0.0001325668,-0.041833544,-1.4547364000000005,0.4280489,1.7095999222222222,5.63712211111111,-14.11111111111111,46.888888888888886,24.55555555555556,-7.444444444444445,33.111111111111114,243.44444444444449,-1044.3333333333333,-2.0,325.44444444444446,1017.7661111111112,-0.6031163111111112,3881.222222222222,0.0001325668,0.012006822,-0.041833544,0.0541953899999999,-1.4547364000000005,-0.0042688676,37915.0,27664.5,5835.0,-14.0,-3.0,319.0,0,None
2023-01-03 14:45:53,2293.202,0.1019999999999981,77.0,1168.0,22746.5,4885.0,96.0,1232.1,582.5,4885.9,-163.21848,0.5010218,-0.0284752601999999,0.0315803926,-1.3313986000000002,40.162,-0.0293080919999999,0.0306307968,-1.4475232000000002,0.6852465,1.1022380799999998,4.2019533,9.1,53.5,39.0,-46.0,-41.9,255.2,-855.2,9.7,290.4,1017.4659,-0.90332028,3881.4,-0.0293080919999999,-0.0068393359999999,0.0306307968,0.055045745,-1.4475232000000002,-0.0209565828,40390.0,27704.0,8310.0,-20.0,-20.0,159.5,0,None
2023-01-03 14:45:54,2294.206,0.0999999999999999,76.5,1206.0,22725.5,4893.0,96.0,1184.2,585.8,4887.0,-165.15198,0.5206071800000001,0.0257575173999999,0.027845154,-1.3330742,41.13,0.0241644842,0.02753119,-1.4445288,0.60254447,1.1871748999999998,3.7806663,-4.6,-0.2,30.0,-22.0,106.0,257.3,-969.8,-3.7,293.7,1017.2654,-1.1038359,3882.0,0.0241644842,0.097584454,0.02753119,0.032547314,-1.4445288,0.0072577954,41195.0,27731.0,9115.0,-12.0,-38.5,42.5,0,None
2023-01-03 14:45:55,2295.2061,0.1001000000000203,76.0,1212.0,22699.0,4878.5,96.0,1188.8,589.2,4892.4,-166.72798000000003,0.50900754,0.058526048,0.071467902,-1.3377614,41.484,0.054177734,0.072851048,-1.4456636,0.52890367,1.22151028,8.3674754,-9.9,74.2,13.2,-48.3,-17.5,271.0,-1029.7,2.8,286.9,1017.211,-1.1579373999999998,3882.2,0.054177734,-0.0359587113999999,0.072851048,0.070703196,-1.4456636,-0.0137052773999999,41515.0,27718.0,9435.0,-3.5,12.0,6.0,0,None
2023-01-03 14:45:56,2296.2245,0.1019999999999981,75.5,1207.5,22732.5,4885.0,96.0,1214.2,592.5,4887.9,-170.62566000000004,0.4751186599999999,-0.008332288,0.068066538,-1.3405744000000002,41.61,-0.0104222048,0.0697865479999999,-1.4434182,0.63360193,0.95106195,9.3554843,-8.0,-40.9,34.2,-33.8,-39.0,277.6,-1071.2,13.8,285.8,1017.229,-1.1401485,3882.8,-0.0104222048,0.0086151599999999,0.0697865479999999,-0.065869608,-1.4434182,0.0242359163999999,41615.0,27742.5,9535.0,44.0,28.0,-4.5,0,None
2023-01-03 14:45:57,2297.2307,0.1019999999999981,75.0,1267.5,22704.5,4896.5,96.0,1221.4,595.9,4887.3,-173.72178000000002,0.42080626,-0.010602125662,0.027918642,-1.3318013999999998,41.61,-0.0125841298,0.029603178,-1.431336,0.47627961,2.1626633,13.992112,-7.5,-22.25,40.55,-47.25,-20.3,254.75,-1022.0,1.6,293.3,1017.2253,-1.14386715,3883.0,-0.0125841298,-0.0206506218,0.029603178,-0.0079827588,-1.431336,-0.010325392,41610.0,27783.0,9530.0,58.0,28.0,-3.0,0,None
2023-01-03 14:45:58,2298.2147777777773,0.1066666666666706,75.0,1252.0,22704.0,4901.5,96.0,1220.0,599.6666666666666,4889.111111111111,-176.5024222222222,0.3579305333333333,-0.034036888075,0.00984227085,-1.33536975,41.615,-0.034744896225,0.0114021012249999,-1.431662,0.5032619666666667,1.533810388888889,8.671468666666666,-13.77777777777778,-24.444444444444443,47.888888888888886,-14.11111111111111,73.77777777777777,256.0,-1062.3333333333333,12.444444444444445,298.3333333333333,1017.2353333333332,-1.1338541111111111,3883.222222222222,-0.034744896225,0.0949671125,0.0114021012249999,-0.039382841,-1.431662,0.0117846894999999,41610.0,27769.0,9530.0,57.0,-6.0,0.0,0,None
2023-01-03 14:45:59,2299.209,0.1019999999999981,74.0,1281.5,22681.0,4896.5,96.0,1264.7,602.8,4889.4,35.536860000000004,0.2938063999999999,0.0151394077999999,-0.0050732903999999,-1.3348862,41.616,0.0137926272,-0.002273731,-1.427727,0.51583354,1.34512001,6.5486507000000005,-11.7,19.0,35.4,-17.1,19.7,251.7,-1070.8,-43.9,312.8,1017.2551999999998,-1.1140703,3883.8,0.0137926272,0.0201615852,-0.002273731,0.0211053474,-1.427727,-0.0369313722,41620.0,27857.0,9540.0,43.5,-12.5,-3.0,0,None
2023-01-03 14:46:00,2300.2410000000004,0.1019999999999981,74.0,1354.5,22649.5,4897.0,96.0,1289.3,606.7,4886.6,173.08224,0.23982436,0.017415824,-0.011219776,-1.3666522,41.576,0.016428604,-0.008080313,-1.4556538,0.4311653299999999,1.32898109,8.327045,-8.4,-8.45,22.6,-21.55,-16.45,256.95,-1064.95,-8.9,304.65,1017.23775,-1.1314412499999995,3884.1,0.016428604,-0.0091224642,-0.008080313,0.0004070417999999,-1.4556538,-0.0121920743199999,41580.0,27673.5,9500.0,16.0,0.0,-2.0,0,None
2023-01-03 14:46:01,2301.269,0.1019999999999981,73.5,1109.0,22719.0,4890.0,96.0,1197.3,610.2,4880.6,162.68962,0.1942786199999999,-0.003929132,0.0145507689999999,-1.3571334,41.618,-0.00390131,0.0181756848,-1.4435454,0.5209575,1.7663596,9.456533,-0.5,24.8,36.1,-50.2,-45.8,255.3,-1035.6,12.3,294.9,1017.2201,-1.1491327,3884.5,-0.00390131,-0.0131487774,0.0181756848,0.0160368044,-1.4435454,0.0100778,41605.0,27704.5,9525.0,-6.0,1.5,0.0,0,None
2023-01-03 14:46:02,2302.230333333333,0.1022222222222302,73.0,1503.0,22604.0,4891.5,96.0,1515.5555555555557,613.6666666666666,4889.666666666667,147.2652111111111,0.1633801111111111,-0.12659457,0.0159333035,-1.3653334,41.846,-0.12623776,0.0195962334,-1.4486938,0.4164007555555555,1.9891167777777776,10.69530122222222,-14.444444444444445,-14.444444444444445,68.22222222222223,-40.66666666666666,-124.33333333333331,253.66666666666663,-1180.111111111111,-8.666666666666666,275.22222222222223,1017.2245555555556,-1.1447567777777778,3885.0,-0.12623776,-0.1364135719999999,0.0195962334,-0.021920789,-1.4486938,-0.0100182298,41750.0,27711.5,9670.0,0.5,-51.0,34.0,0,None
2023-01-03 14:46:03,2303.211,0.1039999999999963,73.0,1461.0,22599.0,4887.0,96.0,1386.4,617.8,4889.2,127.46788,0.1603810199999999,-0.15787826,-0.0033678907999999,-1.3572782,43.098,-0.15883892,-0.00039613196,-1.436064,0.44214841,1.55752788,9.000794600000003,-33.2,1.9,83.3,-55.2,-1.7,256.6,-1058.8,-20.3,282.5,1017.0782,-1.2910313000000002,3885.1,-0.15883892,0.015885414,-0.00039613196,0.0147860659999999,-1.436064,-0.033029922,42825.0,27781.5,10745.0,17.5,-211.0,148.0,0,None
2023-01-03 14:46:04,2304.2391,0.102099999999973,72.0,1505.0,22584.0,4896.0,96.0,1475.7,621.7,4887.9,109.75954,0.1775899,-0.17667652,-0.0185224264,-1.4088064,44.654,-0.17828406,-0.0134242136,-1.4820065999999998,0.45405468,1.23441038,6.442554800000001,-24.25,-42.35,78.1,-45.1,52.15,246.2,-1071.75,-48.45,283.0,1016.9036500000002,-1.46548435,3885.8,-0.17828406,0.055631356,-0.0134242136,-0.0189122704,-1.4820065999999998,-0.031212482,44400.0,27538.5,12320.0,26.0,-374.0,149.0,0,None
2023-01-03 14:46:05,2305.271,0.1019000000000232,72.0,1395.5,22602.5,4902.0,96.0,1392.0,626.0,4888.6,96.7639,0.2061793999999999,-0.1002183139999999,-0.017062693,-1.420588,46.194,-0.103297718,-0.0093466509999999,-1.4876672,0.5270477299999999,1.4599055,9.1333771,-36.6,91.1,52.2,-57.6,55.2,240.7,-1025.9,7.9,302.4,1016.7292999999996,-1.6399218000000002,3886.0,-0.103297718,0.051018158,-0.0093466509999999,0.1042049019999999,-1.4876672,0.011941537,45925.0,27459.0,13845.0,1.0,-521.0,157.5,0,None
2023-01-03 14:46:06,2306.2347777777777,0.1044444444444504,72.0,1391.0,22599.5,4900.0,96.0,1392.2222222222222,629.5555555555555,4895.0,85.78401777777776,0.2467997888888889,-0.1082981339999999,0.032958952,-1.4116764,47.748000000000005,-0.112341256,0.041427892,-1.4755688,0.5072685777777779,1.269564222222222,7.725262333333335,-44.44444444444444,18.77777777777778,63.55555555555556,-45.66666666666666,-24.666666666666668,256.6666666666667,-1060.0,-7.888888888888889,275.44444444444446,1016.5962222222222,-1.7730641111111107,3886.444444444444,-0.112341256,-0.0027244479999999,0.041427892,0.015926154,-1.4755688,-0.005440706,47490.0,27551.5,15410.0,0.5,-595.0,157.0,0,None
2023-01-03 14:46:07,2307.221,0.1019999999999981,71.0,1405.5,22586.0,4885.0,96.0,1407.9,633.5,4896.5,77.30559600000001,0.2999187,-0.10871866,0.0139533685999999,-1.4141236,49.322,-0.11225238,0.024912588,-1.4761056,0.5315067200000001,1.2539157,7.776589599999999,-48.7,-16.6,59.3,-44.2,22.1,248.0,-1051.5,4.1,276.2,1016.4317,-1.9373747,3886.9,-0.11225238,0.0207773959999999,0.024912588,-0.0040739578,-1.4761056,0.0067207006,49025.0,27525.0,16945.0,31.5,-674.5,162.0,0,None
2023-01-03 14:46:08,2308.2410000000004,0.1019999999999981,71.0,1469.0,22554.0,4887.0,96.0,1393.1,637.5,4892.0,71.063906,0.36619566,-0.088670622,0.036453668,-1.414787,50.898,-0.09283743,0.048933088,-1.4754872,0.5520225300000001,1.23920893,7.6767818,-57.25,24.75,58.8,-44.7,58.85,261.55,-1057.35,-26.65,295.9,1016.22195,-2.1473672,3887.0,-0.09283743,0.0752613984,0.048933088,0.004099232,-1.4754872,-0.041922302,50595.0,27567.0,18515.0,44.0,-739.0,163.5,0,None
2023-01-03 14:46:09,2309.263,0.1019999999999981,71.0,1403.5,22586.0,4902.0,96.0,1384.2,641.5,4895.4,66.563084,0.4442858399999999,0.098587418,0.0270512319999999,-1.419768,52.528,0.0924246752,0.0400438199999999,-1.477414,0.54359673,1.21505425,6.9875854,-44.3,1.2,0.3,-33.2,178.8,258.2,-1055.7,13.7,299.8,1016.0320000000002,-2.3370546,3887.3,0.0924246752,0.159957004,0.0400438199999999,-0.0021905503999999,-1.477414,0.0010658650599999,52205.0,27504.5,20125.0,62.0,-728.5,170.5,0,None
2023-01-03 14:46:10,2310.2670000000003,0.0999999999999999,70.0,1426.5,22553.0,4901.5,96.0,1437.9,645.4,4892.8,63.43334799999999,0.53536914,0.10566428,0.044922688,-1.4143066,54.17800000000001,0.101091238,0.05849102,-1.4673426,0.46522829,1.03673001,4.897952299999999,-23.9,28.4,-6.8,-28.6,-20.6,260.0,-1070.7,-0.4,294.4,1015.8376,-2.5316093000000004,3887.9,0.101091238,-0.0184246899999999,0.05849102,0.0163999104,-1.4673426,-0.0151513316,53860.0,27599.0,21780.0,58.5,-578.0,172.0,0,None
2023-01-03 14:46:11,2311.2670000000003,0.0999999999999999,70.0,1452.5,22547.0,4894.5,95.5,1402.1,649.4,4889.0,61.02573199999999,0.6328809,0.1329081399999999,0.054136322,-1.4135428,55.876,0.13073264,0.064949234,-1.45832,0.44906686,1.18573232,7.836605100000002,-15.6,29.5,-11.9,-38.2,49.8,266.2,-1068.1,23.0,297.2,1015.6152,-2.7539452,3888.1,0.13073264,0.040431474,0.064949234,0.0399105642,-1.45832,0.022531704,55550.0,27612.0,23470.0,56.0,-449.0,175.5,0,None
2023-01-03 14:46:12,2312.2670000000003,0.0999999999999999,70.0,1365.5,22565.0,4891.5,95.0,1385.0,653.3,4887.1,58.93434,0.7309929000000001,0.1409568,0.088857912,-1.4121634,57.6,0.13958854,0.0963273279999999,-1.4482702,0.4517234699999999,1.5785210800000002,8.8104653,-7.7,42.2,-13.5,-44.4,6.2,270.5,-1036.7,-27.0,277.6,1015.3882,-2.9809298,3888.3,0.13958854,0.0111796646,0.0963273279999999,0.05752911186,-1.4482702,-0.0425832852,57265.0,27725.0,25185.0,54.5,-300.5,171.0,0,None
2023-01-03 14:46:13,2313.2670000000003,0.0999999999999999,70.0,1410.0,22541.5,4893.0,95.0,1405.8,657.2,4884.7,56.904896,0.8306617800000001,0.1585869,0.0814744,-1.4409025999999998,59.33200000000001,0.15817708,0.0868798839999999,-1.4694024,0.49293219,1.1121969799999998,8.1868929,26.4,-20.5,-28.8,-48.2,28.8,279.8,-1072.3,-10.5,285.2,1015.1974,-3.1717653,3889.0,0.15817708,0.0496178558,0.0868798839999999,-0.0161975019999999,-1.4694024,-0.0041870164,59010.0,27580.5,26930.0,75.0,-164.0,163.0,0,None
2023-01-03 14:46:14,2314.232555555556,0.1022222222222302,69.5,1461.0,22529.0,4890.0,95.0,1363.4444444444443,660.6666666666666,4891.222222222223,55.14646666666668,0.942530122222222,0.171277275,0.06664198,-1.44216475,60.84,0.1715905,0.070845655,-1.46447425,0.5276914444444444,1.3701919333333332,8.325666444444444,0.0,1.2222222222222223,-34.666666666666664,-91.33333333333331,-42.77777777777778,265.0,-1049.111111111111,-11.333333333333334,282.55555555555554,1014.9833333333332,-3.3859287777777776,3889.0,0.1715905,-0.0104399149999999,0.070845655,0.0309857027499999,-1.46447425,-0.0116581079999999,60690.0,27611.5,28610.0,72.0,-41.0,165.0,1,27_xacc_avg_constant_0
2023-01-03 14:46:15,2315.205,0.1039999999999963,69.0,1108.0,22606.5,4893.0,95.0,1107.1,664.1,4889.5,54.293796,1.0557122,0.108987148,0.0584225539999999,-1.4413007999999998,62.41,0.11139352,0.0603063699999999,-1.4607702000000002,0.59633999,1.23740692,5.0381736,0.0,-2.6,-9.9,-62.3,-23.3,273.4,-1017.3,-2.5,300.3,1014.7963,-3.5729296999999995,3889.1,0.11214836,-0.030637088,0.0600301719999999,-0.0101918238,-1.46043,-0.0092647099999999,62425.0,27641.0,30345.0,61.0,26.0,154.5,1,27_xacc_avg_constant_0
2023-01-03 14:46:16,2316.2410000000004,0.1019999999999981,69.5,794.5,22701.0,4895.0,95.0,741.5,666.6,4889.0,54.219282,1.180215,0.094394348,0.046232786,-1.4609852,63.544,0.096388518,0.045190494,-1.4803697999999998,0.95995332,1.15365887,7.748809800000001,0.0,-17.6,-4.25,-41.95,-20.25,271.5,-917.1,-17.1,308.45,1014.69735,-3.67202725,3889.55,0.096388518,-0.0004322973,0.045190494,0.0040557796,-1.4803697999999998,-0.0219380088,63555.0,27514.0,31475.0,50.0,47.5,37.5,1,27_xacc_avg_constant_0
2023-01-03 14:46:17,2317.2609999999995,0.1019999999999981,70.0,946.5,22658.0,4896.0,95.0,1007.7,669.1,4884.3,54.616332,1.3001678,0.036849712,0.012887367,-1.480985,63.492,0.03821604,0.01044078396,-1.4990724,0.819266,1.1839572,8.926542399999999,0.0,-15.7,2.9,-37.8,-42.8,261.5,-1068.8,-22.3,314.0,1014.7198,-3.6495154,3890.0,0.03821604,-0.032744554,0.01044078396,-0.032599828,-1.4990724,-0.0151815944,63490.0,27409.5,31410.0,45.5,57.0,-6.0,1,27_xacc_avg_constant_0
2023-01-03 14:46:18,2318.230333333333,0.1022222222222302,70.0,1075.0,22634.5,4900.0,95.0,995.2222222222222,671.8888888888889,4888.666666666667,55.39858888888889,1.403079111111111,0.050635188,-0.0065151397599999,-1.4864742,63.38399999999999,0.051978236,-0.0085971952,-1.5031322,0.8813635777777776,1.0240369111111112,9.057795111111112,0.0,-16.0,-2.888888888888889,-42.44444444444444,52.66666666666666,262.0,-1060.2222222222222,14.666666666666666,319.6666666666667,1014.707,-3.6622132222222223,3890.1111111111113,0.051978236,0.045060856,-0.0085971952,-0.0022895161999999,-1.5031322,0.0069166495,63385.0,27394.0,31305.0,22.0,27.5,1.0,1,27_xacc_avg_constant_0
2023-01-03 14:46:19,2319.201,0.1019999999999981,70.0,935.0,22677.0,4901.0,95.0,963.9,674.5,4894.8,56.473726,1.4832638000000002,0.07148606,-0.0028088061999999,-1.476101,63.29600000000001,0.0721041759999999,-0.0039055266,-1.4907394,0.94013715,0.99965467,7.4458375,0.0,39.3,-4.3,-37.2,5.6,260.1,-986.2,-2.0,324.7,1014.7111,-3.6580859,3890.0,0.0721041759999999,0.038228878,-0.0039055266,0.049039704,-1.4907394,0.0029438619999999,63305.0,27456.0,31225.0,-11.0,13.5,-19.5,1,27_xacc_avg_constant_0
2023-01-03 14:46:20,2320.2210000000005,0.1019999999999981,69.5,1201.5,22592.0,4888.0,95.0,1097.1,677.2,4892.1,57.74290111111111,1.5598755555555557,0.066836402,0.00382102722,-1.4709336,62.7,0.06706602,0.00397831288,-1.4829416,0.8471308900000001,1.3534469999999998,9.5828168,0.0,-13.0,-5.3,-43.6,12.9,260.1,-1096.2,-1.0,307.8,1014.7683,-3.6008672000000006,3890.6,0.06706602,-0.0340088852,0.00397831288,-0.0221895919999999,-1.4829416,-0.006869704,62685.0,27498.5,30605.0,-21.0,3.0,-53.5,1,27_xacc_avg_constant_0
2023-01-03 14:46:21,2321.2290000000003,0.1001999999999952,69.0,1066.5,22632.5,4901.5,95.0,1053.5,680.3,4889.9,59.17718400000001,1.6384822,0.0835935799999999,0.0180288218,-1.4678408,62.53,0.08363945,0.0202884902,-1.4776285999999998,0.7259439300000001,1.0943043,7.922590099999998,0.0,53.1,-10.5,-48.8,13.9,254.1,-1052.0,-3.1,315.4,1014.7706,-3.5987499,3890.9,0.08363945,0.00661684,0.0202884902,0.04571927,-1.4776285999999998,0.0073706724,62535.0,27535.0,30455.0,-37.5,-0.5,1.0,1,27_xacc_avg_constant_0
2023-01-03 14:46:22,2322.2627999999995,0.1039999999999963,69.0,1072.5,22621.0,4898.5,95.0,1055.9,683.4,4885.5,60.644580000000005,1.714389,0.090091696,0.035667616,-1.4641342,62.518,0.09020902,0.03891527,-1.4724814,0.79148831,0.90599501,7.127153700000001,0.0,-7.1,-12.3,-48.3,16.55,268.6,-1032.45,-4.4,303.05,1014.72935,-3.63976945,3891.0,0.09020902,-0.0096471038,0.03891527,-0.0148108198,-1.4724814,0.010311276,62515.0,27563.5,30435.0,-28.5,-4.5,-6.0,1,27_xacc_avg_constant_0
2023-01-03 14:46:23,2323.2543333333333,0.1044444444444504,69.0,1093.0,22598.0,4896.5,95.0,1077.4444444444443,686.2222222222222,4891.777777777777,62.01893666666667,1.8002070000000003,0.099470448,0.037421588,-1.4609216,62.502,0.099925852,0.042322176,-1.4674983999999998,0.8191600666666666,0.9541955444444448,6.685715999999999,0.0,38.0,-10.22222222222222,-62.77777777777778,15.22222222222222,267.55555555555554,-1038.2222222222222,6.777777777777778,309.1111111111111,1014.7245555555556,-3.644531,3891.1111111111113,0.099566852,0.0172958844,0.042243536,0.0511373171,-1.4673849999999995,-0.0093850325999999,62500.0,27591.5,30420.0,-29.0,-7.5,-10.5,1,27_xacc_avg_constant_0
2023-01-03 14:46:24,2324.209,0.0999999999999999,69.0,1011.5,22631.5,4896.5,95.0,1123.3,689.3,4888.5,63.126524,1.8849586,0.089583886,0.063198142,-1.4627564000000002,62.46,0.090508484,0.0684519979999999,-1.4680643999999998,0.8979419500000001,1.0654504,6.8738869,0.0,6.6,-13.6,-50.4,-12.8,272.5,-1042.4,8.0,286.2,1014.7271,-3.641953,3891.2,0.090508484,0.0023514692,0.0684519979999999,0.004191713,-1.4680643999999998,-0.0092108,62460.0,27591.0,30380.0,-12.5,-4.5,-8.0,1,27_xacc_avg_constant_0
2023-01-03 14:46:25,2325.215,0.1019999999999981,69.0,1111.0,22619.0,4888.5,95.0,1066.5,692.3,4886.9,63.98641,1.9816314,0.093316064,0.044533054,-1.4684852000000002,62.4,0.094599464,0.051031796,-1.4726998,0.91669661,0.99018043,6.6974,0.0,-10.7,-14.1,-65.0,17.7,269.3,-1022.2,-13.1,298.2,1014.7447,-3.6246328,3891.4,0.094599464,0.0030581956,0.051031796,0.0059570959999999,-1.4726998,-0.0065482456,62395.0,27559.5,30315.0,7.5,-6.5,-9.5,1,27_xacc_avg_constant_0
2023-01-03 14:46:26,2326.2308000000003,0.0999999999999999,69.0,956.0,22633.0,4888.5,95.0,1067.3,695.2,4887.2,64.60785800000001,2.0818926,0.092960152,0.034686624,-1.4716868,62.34799999999999,0.094886194,0.041521272,-1.4748546,0.79641689,0.9562714,6.959806500000001,0.0,-7.1,-16.9,-51.7,-4.8,265.6,-1030.9,-3.2,293.6,1014.7543,-3.6148982,3891.6,0.094886194,-0.02970059,0.041521272,-0.0225701658,-1.4748546,0.0054252621999999,62350.0,27546.5,30270.0,18.5,2.0,-7.0,1,27_xacc_avg_constant_0
2023-01-03 14:46:27,2327.2290000000003,0.0999999999999999,69.0,1072.0,22603.5,4885.0,95.0,1049.0,698.1,4885.111111111111,65.14292222222221,2.181665222222222,0.0908017325,0.0246464825,-1.464146,62.33,0.09310196,0.0314730624999999,-1.46705225,0.8257132599999999,0.95677797,7.1273487000000015,0.0,5.6,-12.8,-41.4,5.3,262.8,-1031.1,8.2,309.3,1014.7585555555556,-3.610633555555555,3891.1111111111113,0.09310196,0.047299906,0.0314730624999999,0.0153536430249999,-1.46705225,0.0013805909999999,62330.0,27592.0,30250.0,14.5,3.0,-5.5,1,27_xacc_avg_constant_0
2023-01-03 14:46:28,2328.2448000000004,0.1019999999999981,69.0,952.0,22641.5,4892.5,95.0,1048.7,701.3,4886.0,65.64419,2.2791018000000003,0.0852111379999999,0.0274590179999999,-1.4651384,62.330000000000005,0.088826602,0.033214068,-1.4680144,0.97284348,0.9692087100000002,8.129911600000002,76.95,9.7,-11.5,-54.2,32.45,254.05,-1022.95,-8.5,302.15,1014.77,-3.5993945500000004,3891.8,0.088826602,0.0211607123999999,0.033214068,-0.000751956,-1.4680144,-0.021633624,62330.0,27593.0,30250.0,3.5,3.0,-1.0,0,None
2023-01-03 14:46:29,2329.2167777777777,0.1022222222222302,69.0,1015.5,22617.0,4883.0,95.0,1000.8888888888888,704.0,4886.444444444444,66.09197999999999,2.3690012222222223,0.0779866625,0.041520645,-1.476343,62.315,0.0818883775,0.046544305,-1.479542,0.8647267888888889,1.0508490666666666,7.0169793333333335,68.55555555555556,34.55555555555556,-10.555555555555555,-54.333333333333336,-24.22222222222222,266.6666666666667,-1054.3333333333333,0.5555555555555556,298.3333333333333,1014.7853333333336,-3.583802111111111,3891.6666666666665,0.0818883775,0.0034346825,0.046544305,0.0267098144999999,-1.479542,-0.0029737539999999,62310.0,27524.5,30230.0,-1.5,8.0,-0.5,0,None
2023-01-03 14:46:30,2330.189,0.1019999999999981,69.0,1049.0,22590.5,4889.0,95.0,1013.0,706.6,4885.1,66.49358400000001,2.4620533999999994,0.070497218,0.04154393,-1.4769764,62.282,0.074278812,0.045502936,-1.4806164,0.8551891800000002,1.01669864,6.779690499999999,67.3,-13.8,-9.8,-47.9,6.6,264.9,-1061.1,1.9,309.2,1014.7796,-3.5895703,3891.7,0.074278812,0.0137004788,0.045502936,-0.0074796093999999,-1.4806164,0.0004993618999999,62280.0,27523.0,30200.0,11.0,6.0,0.5,0,None
2023-01-03 14:46:31,2331.2028,0.1019999999999981,69.0,1053.5,22602.0,4888.0,95.0,1028.9,709.6,4884.4,66.74163399999999,2.5451024,0.0737445779999999,0.0284172859999999,-1.4649278,62.276,0.077802226,0.032631228,-1.4681685999999998,0.8476413800000001,0.95412741,6.6462563,65.3,-3.4,-6.2,-48.1,20.9,265.9,-1034.6,2.4,307.0,1014.7829,-3.5862969,3891.8,0.077802226,0.048482708,0.032631228,-0.0142053416,-1.4681685999999998,0.0059965178,62280.0,27598.5,30200.0,12.5,-1.0,0.5,0,None
2023-01-03 14:46:32,2332.239,0.1039999999999963,69.0,1053.5,22574.5,4890.0,95.0,1016.7,712.6,4881.1,66.94466,2.622495,0.0850988549999999,0.021043849,-1.463877833333333,62.28333333333334,0.0888003266666666,0.0249932366666666,-1.46724,0.83435735,0.96943912,7.1246392,78.55,13.45,-10.15,-42.5,-9.2,260.75,-1057.1,-5.3,306.2,1014.7867,-3.5825273,3891.9,0.0888003266666666,0.0197956083333333,0.0249932366666666,0.0173140616666666,-1.46724,-0.0022740061666666,62285.0,27592.0,30205.0,1.5,-2.0,-0.5,0,None
2023-01-03 14:46:33,2333.263,0.1019999999999981,69.0,1059.5,22584.0,4883.5,95.0,997.2,715.4,4880.4,67.187186,2.6965036,0.0754075,0.031737284,-1.4702198,62.28,0.07935693,0.035142764,-1.4739048,0.89873092,1.0100791999999998,7.793746199999998,63.5,5.8,-9.1,-46.5,16.9,267.1,-1057.0,-17.4,310.5,1014.8018,-3.5674609000000004,3891.9,0.07935693,0.0124424582,0.035142764,0.0057132519999999,-1.4739048,-0.02009352886,62280.0,27560.5,30200.0,0.0,4.0,-0.5,0,None
2023-01-03 14:46:34,2334.2323333333334,0.1022222222222302,69.0,1025.5,22586.0,4891.5,95.0,1021.8888888888888,718.1111111111111,4888.0,67.44099111111113,2.7682925555555555,0.0688496775,0.0257506,-1.47191025,62.255,0.0723301425,0.02939298,-1.474898,0.8157919444444446,1.0162827333333333,7.480570444444445,60.44444444444444,2.2222222222222223,-7.555555555555555,-39.44444444444444,-9.555555555555555,262.6666666666667,-1054.4444444444443,26.88888888888889,301.1111111111111,1014.8165555555554,-3.552682222222222,3891.555555555556,0.0723301425,-0.043452685,0.02939298,0.010495658,-1.474898,0.02772644,62250.0,27573.5,30170.0,5.5,7.5,1.5,0,None
2023-01-03 14:46:35,2335.2543333333333,0.1133333333333312,69.0,1170.5,22564.0,4900.0,95.0,1153.2777777777778,721.0,4888.888888888889,67.68341111111111,2.834454111111111,0.0777094519999999,0.01264715408,-1.4433616,62.21600000000001,0.081030412,0.0166872536,-1.4464716000000002,0.7572020333333334,1.1309396111111112,7.145358055555556,62.66666666666666,24.61111111111111,-5.5,-49.11111111111112,4.5,254.11111111111111,-1075.9444444444443,-2.6666666666666665,312.55555555555554,1014.7713333333332,-3.597712555555556,3891.722222222222,0.081030412,0.020953712,0.0166872536,0.0078491796,-1.4464716000000002,0.0067866606,62215.0,27728.0,30135.0,-4.0,4.0,3.5,0,None
2023-01-03 14:46:36,2336.2230000000004,0.1019999999999981,69.0,1071.5,22584.0,4895.5,95.0,1030.9,724.0,4892.4,67.959222,2.8910469999999995,0.0701959519999999,0.034983926,-1.4486394,62.28000000000001,0.0736933999999999,0.0376049819999999,-1.4517836000000002,0.8541644899999999,1.00452359,6.596357,65.4,8.6,-3.5,-46.1,7.0,263.1,-1035.7,-27.4,309.0,1014.7861,-3.5830392000000004,3891.6,0.0736933999999999,0.0064253699999999,0.0376049819999999,0.005544574,-1.4517836000000002,-0.0292691432,62290.0,27668.0,30210.0,-3.5,0.5,-0.5,0,None
2023-01-03 14:46:37,2337.243,0.1019999999999981,69.0,1044.5,22593.0,4901.5,95.0,1056.7,727.1,4890.3,68.223022,2.9473764,0.06905774,0.0245355759999999,-1.4593268,62.294,0.072611736,0.026798238,-1.4623199999999998,0.80965164,1.04964646,6.8287527,58.5,1.85,-4.9,-56.65,-9.45,266.9,-1034.15,-20.3,311.65,1014.7842,-3.5849453,3891.6,0.072611736,-0.021184396,0.026798238,-0.026514022,-1.4623199999999998,-0.003675114,62290.0,27610.5,30210.0,-2.0,0.0,-1.0,0,None
2023-01-03 14:46:38,2338.225222222222,0.1044444444444504,69.0,967.5,22599.5,4896.5,95.0,1003.5555555555557,730.0,4890.666666666667,68.44694555555556,3.000345555555556,0.065301684,0.0278563999999999,-1.4664028,62.286,0.06901702,0.03044428,-1.4688866,0.8781796666666666,1.0189790333333333,7.4455527777777775,59.333333333333336,18.666666666666668,-8.11111111111111,-37.22222222222222,5.777777777777778,261.3333333333333,-1035.3333333333333,-8.11111111111111,302.55555555555554,1014.8006666666666,-3.568732666666667,3891.444444444444,0.0687491024999999,0.0243969175,0.0316340425,0.01287832,-1.46919075,-0.0010747324999999,62290.0,27576.5,30210.0,-1.5,0.0,2.0,0,None
2023-01-03 14:46:39,2339.1908,0.0999999999999999,69.0,1039.0,22590.0,4900.5,95.0,1035.3,732.6,4893.1,68.63444,3.0499258,0.0707513759999999,0.031793212,-1.4608432,62.276,0.074210722,0.034506562,-1.4633797999999998,0.8283551,0.979474988888889,7.835521777777779,59.2,1.8,-6.6,-35.1,14.4,265.4,-1042.7,3.4,306.9,1014.8009,-3.5684059999999995,3891.3,0.074210722,0.0030610516,0.034506562,-0.0118888716,-1.4633797999999998,0.0113161886,62270.0,27632.0,30190.0,6.0,0.5,0.0,0,None
2023-01-03 14:46:40,2340.1928,0.1019999999999981,69.0,939.5,22604.5,4900.5,95.0,1049.8,735.5,4897.5,68.794452,3.0968542,0.07209888,0.0133114016,-1.4497414,62.262,0.074922324,0.0158234136,-1.4522879999999998,0.7739523888888888,0.9763810444444444,7.8418907777777775,63.1,-21.4,-7.1,-30.1,18.5,257.5,-1018.3,16.2,316.1,1014.7916,-3.5776326000000003,3891.1,0.074922324,0.0304379732,0.0158234136,-0.01237783682,-1.4522879999999998,-0.0076923322,62260.0,27683.5,30180.0,6.0,4.0,-1.0,0,None
2023-01-03 14:46:41,2341.225,0.1019999999999981,69.0,951.5,22603.0,4891.5,95.0,1047.6,738.5,4895.7,68.98378199999999,3.1405036000000006,0.059916118,0.0116314046,-1.4577398,62.262,0.0635069,0.013758861,-1.4608924,0.77490817,1.1538075,8.6568465,46.4,20.9,-5.0,-42.1,11.1,256.8,-1029.4,-18.2,315.9,1014.7893,-3.579968600000001,3891.1,0.0635069,-0.0287666536,0.013758861,0.0027478459999999,-1.4608924,-0.0048798329999999,62260.0,27617.5,30180.0,-5.5,4.5,1.5,0,None
2023-01-03 14:46:42,2342.2290000000003,0.0999999999999999,69.0,1069.5,22587.5,4901.5,95.0,992.4,741.2,4894.6,69.212704,3.1791978,0.063412716,0.034525314,-1.4677896,62.302,0.067153408,0.0359229019999999,-1.4718996,0.9326214222222222,1.020794088888889,7.831031333333333,62.0,40.1,-2.6,-56.4,1.5,269.6,-1082.7,-16.2,314.1,1014.7494,-3.619695300000001,3891.0,0.067153408,0.0051255598,0.0359229019999999,0.044308682,-1.4718996,-0.0082298432,62310.0,27556.5,30230.0,-13.5,-1.5,-2.0,0,None
2023-01-03 14:46:43,2343.2290000000003,0.0999999999999999,69.0,1034.0,22582.0,4900.0,95.0,951.6,744.0,4890.8,69.413024,3.2151254,0.077680834,0.049027814,-1.4690956,62.346,0.081243262,0.050110112,-1.4739106000000002,0.9522785666666668,1.1849950333333334,9.13373788888889,84.6,-3.8,-12.5,-45.0,16.8,272.2,-1010.4,6.3,313.4,1014.7362,-3.632882800000001,3891.1,0.081243262,0.0428848696,0.050110112,0.0188213722,-1.4739106000000002,-0.0081339558,62350.0,27556.0,30270.0,-1.5,-5.0,-2.5,0,None
2023-01-03 14:46:44,2344.231,0.1019999999999981,69.0,919.5,22609.0,4893.0,95.0,952.7,746.6,4889.0,69.53198,3.2529996,0.0812446059999999,0.036328144,-1.4652688,62.364,0.084474058,0.0381561879999999,-1.4696258,1.002000488888889,1.0465658666666668,9.297678555555557,66.65,-14.7,-12.7,-52.4,11.35,267.2,-1039.0,2.8,312.55,1014.7483,-3.6209687,3890.9,0.084474058,0.015359475,0.0381561879999999,-0.0420023819999999,-1.4696258,0.0004195075999999,62365.0,27581.5,30285.0,5.0,-3.5,-6.0,0,None
2023-01-03 14:46:45,2345.2508000000003,0.0999999999999999,69.0,1031.5,22593.0,4894.5,95.0,918.7,749.2,4889.1,69.61636000000001,3.2932508,0.076691706,0.031664922,-1.4554174,62.352,0.079443576,0.033463604,-1.4599618,0.96009354,1.1764981999999995,8.5462053,60.4,43.7,-7.1,-48.5,-40.7,262.8,-1014.8,12.0,314.2,1014.7759,-3.5932422,3890.9,0.079443576,-0.045753995,0.033463604,0.0404812431199999,-1.4599618,0.0166389022,62345.0,27643.0,30265.0,-4.0,10.5,-6.0,0,None
2023-01-03 14:46:46,2346.2648,0.1019999999999981,69.0,1152.0,22558.0,4906.0,95.0,977.9,752.0,4888.6,69.70307,3.3335637999999994,0.0522973839999999,0.0483066959999999,-1.4557218,62.29200000000001,0.055483642,0.04937106,-1.4600046,0.9294176,1.09846586,8.742005099999998,66.9,-6.9,-3.7,-45.3,37.3,263.3,-1018.8,-12.2,298.0,1014.7848,-3.5845468999999994,3890.6,0.055483642,0.05437836,0.04937106,-0.016961166,-1.4600046,-0.01163113892,62285.0,27633.0,30205.0,9.5,-0.5,-3.0,0,None
2023-01-03 14:46:47,2347.269,0.0999999999999999,69.0,902.0,22600.5,4904.5,95.0,1038.7,754.7,4889.0,69.722526,3.3705638,0.077506498,0.027928854,-1.4622508,62.276,0.080371856,0.029961782,-1.4668754,0.7979056100000002,0.9788079199999998,6.527137900000001,71.0,-8.7,-9.0,-61.6,37.0,258.7,-1053.7,2.6,308.9,1014.781,-3.5881953,3890.0,0.080371856,0.0316927744,0.029961782,-0.0120435538,-1.4668754,-0.0004564576,62280.0,27596.0,30200.0,11.0,-11.0,-1.5,0,None
2023-01-03 14:46:48,2348.269,0.0999999999999999,68.5,1218.5,22548.0,4903.0,95.0,1097.2,757.7,4889.7,69.728908,3.405558,0.096926044,0.0276974679999999,-1.4518012,62.26800000000001,0.099945956,0.029739554,-1.4570362,0.89325698,1.02691497,6.4551295,91.1,22.7,-15.2,-59.6,32.1,257.8,-1032.3,9.2,308.3,1014.7395,-3.6297655,3890.0,0.099945956,0.051974948,0.029739554,0.0345116638,-1.4570362,0.0132049126,62270.0,27666.5,30190.0,-4.5,-13.5,-2.0,0,None
2023-01-03 14:46:49,2349.2324444444444,0.1023333333333135,68.0,1088.5,22558.5,4905.5,95.0,1077.3333333333333,760.6666666666666,4899.0,69.78316444444445,3.443261333333333,0.108424942,0.065172096,-1.4412482,62.356,0.1118838,0.066594342,-1.4465344,0.8849205555555556,1.0849238222222222,7.583816888888888,105.11111111111111,47.55555555555556,-18.55555555555556,-66.22222222222223,18.55555555555556,274.44444444444446,-1037.4444444444443,20.444444444444443,291.55555555555554,1014.6874444444446,-3.681840222222222,3890.0,0.1118838,-0.04948299,0.066594342,0.0543570299999999,-1.4465344,0.0058276094,62375.0,27714.5,30295.0,-10.0,-12.5,-6.5,0,None
2023-01-03 14:46:50,2350.1892,0.0999999999999999,68.0,1149.5,22538.0,4890.0,95.0,1043.3,763.4,4899.0,69.83399444444446,3.485075,0.11816938,0.057038336,-1.4524548000000002,62.40999999999999,0.12085704,0.05844214,-1.4586254000000003,0.8766496699999999,1.02726192,8.3577405,98.8,-35.5,-18.6,-57.6,-0.5,276.0,-1042.5,-17.3,302.0,1014.7427999999998,-3.6263438,3890.0,0.12085704,0.0426342,0.05844214,0.0064762718,-1.4586254000000003,-0.0111761209599999,62405.0,27636.5,30325.0,7.5,2.0,-10.0,0,None
2023-01-03 14:46:51,2351.1838888888888,0.111111111111111,68.0,1050.5,22579.5,4903.0,95.0,998.7777777777778,766.2777777777778,4900.666666666667,69.84504222222223,3.534625833333334,0.10839196,0.046111128,-1.4579898,62.36,0.11154178,0.048876834,-1.4636872,0.8296129277777777,0.9378515,7.619827000000001,93.66666666666669,17.27777777777778,-19.444444444444443,-53.77777777777778,2.055555555555556,266.8888888888889,-1043.1666666666667,-9.38888888888889,304.3333333333333,1014.7766666666666,-3.5925433888888887,3889.222222222222,0.11154178,0.0017433401999999,0.048876834,0.01329956564,-1.4636872,-0.0128644513999999,62355.0,27606.5,30275.0,7.0,9.5,-6.5,0,None
2023-01-03 14:46:52,2352.1894,0.0999999999999999,68.0,958.5,22567.0,4893.0,95.0,1027.111111111111,769.0,4900.5,69.858132,3.5884928,0.0960766939999999,0.03866825,-1.4602862,62.294,0.0996578339999999,0.040881912,-1.4655534,0.8635384799999999,0.94069329,6.9765356,93.3,-3.4,-18.4,-60.5,-16.0,267.7,-1047.8,-2.6,304.2,1014.8016,-3.5676247999999995,3889.0,0.0996578339999999,0.002272174,0.040881912,-0.0288867048,-1.4655534,-0.0064578046,62285.0,27599.5,30205.0,8.0,11.5,-1.0,0,None
2023-01-03 14:46:53,2353.1892999999995,0.0999999999999999,68.0,1110.0,22552.0,4895.5,95.0,1056.1,772.0,4893.0,69.87909800000001,3.6414608,0.094321306,0.032688488,-1.458059,62.266,0.097636286,0.034811286,-1.4634716,0.8087236900000001,0.90262724,6.9714224,92.5,1.1,-14.3,-55.8,11.5,263.5,-1045.6,8.2,301.6,1014.7958,-3.5734061000000006,3888.9,0.097636286,-0.007900164,0.034811286,0.00308102848,-1.4634716,0.0095031906,62265.0,27623.0,30185.0,2.5,10.5,2.0,0,None
2023-01-03 14:46:54,2354.1911,0.0999999999999999,68.0,1159.0,22532.0,4893.0,95.0,1097.3,774.9,4891.9,69.91279200000001,3.6925006,0.09289251,0.037395624,-1.44818,62.25999999999999,0.096398158,0.039727062,-1.4532762,0.8227969399999999,0.96118722,7.1964217,87.1,8.8,-14.4,-38.7,19.3,266.1,-1035.9,16.3,304.1,1014.7935,-3.5758672,3888.5,0.096398158,0.011417306,0.039727062,0.0122086517999999,-1.4532762,0.0069964082999999,62255.0,27686.5,30175.0,2.0,3.5,1.0,0,None
2023-01-03 14:46:55,2355.1909,0.1017000000000279,68.0,1154.0,22537.0,4887.5,95.0,1082.4,778.1,4891.2,69.95012399999999,3.741527799999999,0.091573546,0.0306894039999999,-1.4394944,62.254,0.094884098,0.033220246,-1.4441796000000002,0.8599833499999999,1.13328883,8.496567299999999,85.6,-13.8,-11.9,-52.5,-3.8,264.6,-1086.5,-12.1,304.5,1014.7901,-3.5790467000000006,3888.1,0.094884098,0.0323602119999999,0.033220246,0.014358828,-1.4441796000000002,-0.023688472,62255.0,27723.0,30175.0,0.5,-3.0,4.0,0,None
2023-01-03 14:46:56,2356.1954,0.1019999999999981,68.0,893.5,22589.5,4894.5,95.0,1007.1,780.9,4892.1,70.003152,3.7882088,0.095778856,0.0396396459999999,-1.4551146,62.276,0.099087374,0.04281907,-1.4600276,0.8472662700000001,1.00179593,7.289260200000001,74.0,39.6,-14.4,-52.7,9.8,269.2,-1038.3,-17.1,305.1,1014.7949,-3.574328,3887.9,0.099087374,-0.0023900162999999,0.04281907,0.01647191436,-1.4600276,-0.0167896924,62280.0,27629.5,30200.0,-8.5,1.5,0.5,1,27_xgyro_avg_constant_39.6
2023-01-03 14:46:57,2357.217,0.0999999999999999,68.0,1112.5,22505.0,4904.0,95.0,1132.6,783.8,4897.7,70.069348,3.833072799999999,0.084174604,0.0586832959999999,-1.455475,62.262,0.087579546,0.060571312,-1.4606276,0.69006343,0.95766198,6.5607181,86.6,39.6,-13.3,-58.7,-24.1,272.5,-1040.4,12.7,291.3,1014.7889,-3.580414,3887.4,0.087579546,0.011733552,0.060571312,-0.003554472,-1.4606276,0.0151605913999999,62255.0,27647.5,30175.0,9.0,0.0,0.5,1,27_xgyro_avg_constant_39.6
2023-01-03 14:46:58,2358.2192,0.102099999999973,68.0,1075.0,22552.0,4903.0,95.0,1099.5,786.9,4897.3,70.10093199999999,3.876519800000001,0.087688278,0.022402914,-1.438735,62.25,0.090651276,0.0252817419999999,-1.4436006,0.78884562,1.06824165,7.346167100000001,90.2,39.6,-9.2,-37.3,4.4,256.9,-1035.5,14.2,300.9,1014.8058,-3.5635234,3887.0,0.090651276,0.0335320693999999,0.0252817419999999,-0.016585014,-1.4436006,-0.0128375712,62245.0,27730.0,30165.0,16.5,-1.0,3.0,1,27_xgyro_avg_constant_39.6
2023-01-03 14:46:59,2359.2478,0.1021999999999934,68.0,1255.0,22487.5,4901.5,95.0,1220.9,790.4,4896.7,70.13783999999998,3.9169988,0.076365294,0.0110347546,-1.443539,62.23199999999999,0.0793885,0.0143610918,-1.4480872,0.67575927,1.13745978,6.2508809,59.1,39.6,-9.5,-53.8,-29.1,252.15,-1052.85,-15.2,304.45,1014.80295,-3.56621865,3886.85,0.079368916,-0.06071822,0.0143759818,0.00251663,-1.4482384,-0.0161507683999999,62230.0,27697.0,30150.0,-2.0,5.5,5.5,1,27_xgyro_avg_constant_39.6
2023-01-03 14:47:00,2360.233333333333,0.1022222222222302,68.0,1089.5,22522.5,4905.0,95.0,1004.5555555555557,793.4444444444445,4896.666666666667,70.22589333333333,3.953757,0.0520823475,0.041671005,-1.46305475,62.26500000000001,0.0553967225,0.0442609449999999,-1.4675100000000003,0.850471388888889,1.062573166666667,7.163787444444444,63.0,39.6,-5.777777777777778,-44.333333333333336,39.55555555555556,266.0,-1020.4444444444443,-8.222222222222221,303.44444444444446,1014.8025555555556,-3.566718555555556,3886.3333333333335,0.0553967225,0.0297194124999999,0.0442609449999999,0.0356551475,-1.4675100000000003,-0.01711869175,62270.0,27577.0,30190.0,-11.0,2.0,7.0,1,27_xgyro_avg_constant_39.6
2023-01-03 14:47:01,2361.2134,0.1019999999999981,68.0,984.0,22553.5,4904.5,95.0,1091.0,796.3,4902.4,70.300524,3.98243,0.064428195,0.04876696,-1.460383,62.268,0.0687605739999999,0.052229474,-1.4652804,0.70127992,0.99733844,6.006785,60.4,39.6,-8.2,-63.4,11.3,267.8,-1034.6,-18.4,296.7,1014.7818,-3.587414,3886.0,0.0687605739999999,0.0161363957999999,0.052229474,0.0059830366,-1.4652804,0.0062097079999999,62265.0,27604.5,30185.0,-6.5,-6.5,-2.0,1,27_xgyro_avg_constant_39.6
2023-01-03 14:47:02,2362.182222222222,0.1044444444444504,68.0,996.0,22531.5,4907.5,95.0,1101.7777777777778,799.1111111111111,4902.888888888889,70.32087777777777,4.007315444444444,0.071343866,0.0519448099999999,-1.4585174,62.29,0.073825146,0.0550133879999999,-1.4635138,0.655872,1.0875230111111112,6.719767222222222,66.16666666666667,39.6,-9.444444444444445,-67.16666666666667,17.444444444444443,271.1666666666667,-1029.4444444444443,0.8888888888888888,301.6666666666667,1014.7803333333336,-3.589101444444444,3885.8333333333335,0.073825146,0.0135842057999999,0.0550133879999999,-0.0091423758,-1.4635138,-0.0119730243999999,62290.0,27610.0,30210.0,3.0,-9.0,-2.0,1,27_xgyro_avg_constant_39.6
2023-01-03 14:47:03,2363.1873,0.1039999999999963,67.0,1174.0,22510.0,4904.5,95.0,1199.5,802.5,4900.6,70.29751300000001,4.0330992,0.093004376,0.049035914,-1.4525258,62.29599999999999,0.095210486,0.053574156,-1.4578592,0.67643287,1.1442567,7.1847744,80.6,39.6,-15.6,-43.0,43.6,271.7,-1055.6,27.3,294.5,1014.7637000000002,-3.6055702,3885.3,0.0952101779999999,0.04568445,0.053437688,0.029588008,-1.4577246,0.019474876,62295.0,27633.0,30215.0,7.5,-15.0,-2.5,1,27_xgyro_avg_constant_39.6
2023-01-03 14:47:04,2364.1955000000003,0.1019999999999981,67.0,1131.5,22512.0,4903.0,95.0,1163.0,805.8,4899.7,70.25336200000001,4.060762,0.0900679779999999,0.048494206,-1.4412068,62.30999999999999,0.091740878,0.053358472,-1.4462592,0.7405581999999999,1.15637735,6.517296399999999,73.5,39.6,-10.5,-62.0,-0.2,269.0,-1030.2,-10.0,295.6,1014.7686,-3.6006562000000004,3884.6,0.091740878,-0.0086203588,0.053358472,-0.0097966469999999,-1.4462592,-0.015223472,62305.0,27729.5,30225.0,10.0,-6.0,-3.0,1,27_xgyro_avg_constant_39.6
2023-01-03 14:47:05,2365.2168,0.0999999999999999,67.0,1033.5,22509.5,4899.5,95.0,1088.6,808.9,4897.9,70.198136,4.0906446,0.083857124,0.033778754,-1.452132,62.31,0.085992562,0.039423584,-1.4574764,0.8441524300000001,0.99462971,6.6276658,72.8,39.6,-9.0,-46.2,-2.5,267.4,-1067.1,14.0,302.3,1014.7867,-3.5824609,3884.3,0.085992562,0.002409136,0.039423584,-0.0181641162,-1.4574764,-0.0210923189999999,62315.0,27654.5,30235.0,14.5,-1.0,-0.5,1,27_xgyro_avg_constant_39.6
2023-01-03 14:47:06,2366.2169000000004,0.0999999999999999,67.0,1108.0,22506.5,4896.0,94.6,1017.3,811.8,4892.4,70.153182,4.1204532,0.077829648,0.030508416,-1.4571942,62.29,0.079668284,0.035152346,-1.4629806,0.8888086900000001,0.98222577,6.9045398,63.1,39.6,-8.8,-57.1,6.0,264.3,-1040.9,-5.8,306.6,1014.8211000000005,-3.5479921,3883.9,0.079668284,0.0011551017999999,0.035152346,0.0025358941999999,-1.4629806,0.0004263391999999,62300.0,27621.0,30220.0,11.0,4.5,1.5,1,27_xgyro_avg_constant_39.6
2023-01-03 14:47:07,2367.2372000000005,0.1019999999999981,67.0,940.0,22549.0,4901.5,94.0,1020.1,814.7,4893.7,70.12779000000002,4.148568599999999,0.076566462,0.0153109607999999,-1.4635312000000005,62.252,0.07855313,0.0201502328,-1.4689058000000002,0.81031245,0.99655237,8.1342575,65.7,39.6,-9.7,-53.5,46.6,259.7,-1012.5,3.2,312.5,1014.7803,-3.588914,3883.6,0.07855313,-0.0036961223999999,0.0201502328,-0.023779718,-1.4689058000000002,-0.009521272,62255.0,27585.0,30175.0,10.0,6.0,1.5,1,27_xgyro_avg_constant_39.6
2023-01-03 14:47:08,2368.2514,0.1039999999999963,67.0,914.0,22572.0,4896.5,94.0,952.8,817.6,4893.5,70.13437200000001,4.1732038,0.055925594,0.02706100852,-1.456739,62.294,0.058500508,0.0317500036,-1.4622810000000002,0.8986491899999999,1.06217863,6.3591403,46.1,39.6,-4.05,-40.75,-23.6,262.6,-1022.2,-3.7,309.15,1014.7817,-3.5875861,3883.0,0.058500508,-0.0541825778,0.0317500036,0.062866674,-1.4622810000000002,0.0032062179999999,62285.0,27625.0,30205.0,-18.5,15.0,-1.0,1,27_xgyro_avg_constant_39.6
2023-01-03 14:47:09,2369.2684444444444,0.1088888888888908,67.0,1019.5,22538.0,4893.0,94.0,934.1111111111112,820.1111111111111,4899.666666666667,70.15238222222222,4.193976777777778,0.05654928,0.050872614,-1.4652314,62.294,0.05926561,0.054070896,-1.4710557999999998,0.9553926666666666,1.1183215555555557,8.013874444444445,62.16666666666666,39.6,-5.111111111111111,-60.55555555555556,27.83333333333333,271.05555555555554,-1024.388888888889,-1.9444444444444444,301.8333333333333,1014.7816666666666,-3.587413055555556,3882.555555555556,0.05926561,0.0468488859999999,0.054070896,-0.0014279045399999,-1.4710557999999998,-0.004500413,62300.0,27570.0,30220.0,-6.0,9.5,-3.0,1,27_xgyro_avg_constant_39.6
2023-01-03 14:47:10,2370.2674,0.1019999999999981,67.0,1079.0,22506.0,4885.0,94.0,1087.6,823.2,4895.5,70.119592,4.209895399999999,0.081704824,0.04665232,-1.4537564,62.29,0.0850995659999999,0.051385512,-1.4596006,0.75724757,1.05473699,5.964631299999999,80.9,26.6,-10.5,-81.9,60.1,266.7,-1014.8,-3.2,293.7,1014.7452,-3.6240155,3882.0,0.0850995659999999,0.070678594,0.051385512,0.028680456,-1.4596006,0.0043938938,62280.0,27624.5,30200.0,-5.5,-20.0,-5.0,0,None
2023-01-03 14:47:11,2371.233333333333,0.1022222222222302,67.0,1172.0,22480.0,4890.0,94.0,1107.6666666666667,826.0,4897.0,70.05179444444444,4.226726,0.1095363749999999,0.05780604,-1.450034,62.3225,0.111511925,0.0621022725,-1.4560795,0.7731909666666668,0.9994903444444444,6.204753999999999,74.33333333333333,-0.6666666666666666,-18.55555555555556,-87.22222222222223,5.666666666666667,272.55555555555554,-1022.5555555555557,-7.555555555555555,294.55555555555554,1014.7708888888887,-3.5982897777777776,3881.6666666666665,0.111511925,-0.00337451925,0.0621022725,-0.0074356325,-1.4560795,-0.022175658,62320.0,27665.5,30240.0,-1.0,-18.5,-4.5,0,None
2023-01-03 14:47:12,2372.2397,0.1079999999999926,67.0,1040.5,22521.5,4896.5,94.0,1044.2,829.2,4892.0,69.98616799999999,4.247700199999999,0.0911614919999999,0.054325658,-1.4507873999999998,62.316,0.094114794,0.059428802,-1.4566206,0.80335824,1.04454008,6.4187542,75.3,6.5,-15.3,-71.85,-4.7,274.75,-1036.65,-8.4,302.2,1014.78135,-3.5877773000000004,3881.1,0.094114794,-0.0019265333399999,0.059428802,0.0084016291,-1.4566206,-0.0118283977999999,62315.0,27657.5,30235.0,4.5,-1.5,-1.0,0,None
2023-01-03 14:47:13,2373.235111111111,0.1022222222222302,67.0,1007.0,22540.5,4895.0,94.0,982.3333333333334,831.8888888888889,4898.777777777777,69.91202444444446,4.273530888888889,0.085759644,0.0467954139999999,-1.4609834000000002,62.306,0.088302402,0.051938456,-1.4663528,0.7951524333333333,1.045419511111111,6.219503888888889,71.22222222222223,4.222222222222222,-15.88888888888889,-61.888888888888886,9.88888888888889,272.55555555555554,-1019.7777777777778,-4.222222222222222,305.8888888888889,1014.8064444444444,-3.5627777777777774,3880.6666666666665,0.088418562,0.0083050314,0.052025136,0.0063607429999999,-1.4664352,0.002997328,62305.0,27594.0,30225.0,8.5,5.0,-2.0,0,None
2023-01-03 14:47:14,2374.2037,0.1019999999999981,67.0,963.0,22554.5,4883.5,94.0,1007.0,834.6,4899.7,69.82996,4.2991516,0.0721518,0.042240356,-1.4568462,62.262,0.075329064,0.04732344,-1.4619864,0.99787395,1.06391406,6.7190569,64.1,3.5,-7.2,-68.1,-6.6,267.1,-1049.4,-6.4,300.2,1014.8227,-3.5464843000000004,3880.1,0.075329064,0.004521572,0.04732344,0.0072969959799999,-1.4619864,0.0014753443999999,62260.0,27625.5,30180.0,11.5,7.5,0.5,0,None
2023-01-03 14:47:15,2375.2120000000004,0.1019999999999981,67.0,1009.5,22519.0,4889.0,94.0,1028.5,837.3,4899.9,69.73536399999999,4.324041599999999,0.074562934,0.0301333799999999,-1.4641474000000003,62.228,0.077656956,0.0347260359999999,-1.469147,0.86143254,1.03108295,6.4054344,78.5,-16.1,-11.9,-60.0,18.2,267.8,-1051.6,-7.6,308.5,1014.8214,-3.5477890000000003,3879.9,0.0762565775,0.01208173475,0.0377907299999999,-0.0187473999999999,-1.4691610000000002,-0.022205322025,62225.0,27577.5,30145.0,14.0,2.5,4.5,0,None
2023-01-03 14:47:16,2376.2509000000005,0.1039999999999962,67.0,1057.5,22518.0,4893.0,94.0,1054.2,840.6,4893.8,69.65598800000001,4.3470264,0.089381108,0.029273792,-1.457515,62.224,0.093216998,0.033871668,-1.462453,0.8462673200000002,0.92752799,5.584734299999999,74.25,32.25,-13.7,-64.7,15.95,261.6,-1044.45,0.65,300.65,1014.7965,-3.57259375,3879.0,0.093216998,0.03137123,0.033871668,0.048359718,-1.462453,-0.0008248131999999,62220.0,27622.5,30140.0,-3.5,-6.0,4.5,0,None
2023-01-03 14:47:17,2377.224222222222,0.1022222222222302,67.0,1081.5,22506.5,4894.0,94.0,1088.0,843.3333333333334,4892.222222222223,69.61741333333333,4.368611111111111,0.09338178,0.04555165,-1.45283,62.238,0.09672518,0.049401608,-1.4570598,0.8206613555555555,0.8887060888888888,5.859981888888888,83.77777777777777,7.0,-19.88888888888889,-64.88888888888889,6.333333333333333,273.0,-1030.7777777777778,6.0,293.55555555555554,1014.783,-3.5862497777777773,3878.555555555556,0.09672518,-0.0076824294,0.049401608,0.0102874408,-1.4570598,0.0089621754,62240.0,27651.5,30160.0,-6.5,-4.5,1.5,0,None
2023-01-03 14:47:18,2378.1996,0.1039999999999963,67.0,1213.0,22480.0,4891.5,94.0,1152.6,846.2,4899.1,69.591456,4.392449599999999,0.0978125399999999,0.04082779,-1.449317,62.25599999999999,0.101228976,0.046626914,-1.4530337999999998,0.8886650100000001,0.95472989,6.6709649,89.9,4.4,-16.1,-64.9,22.9,268.3,-1030.8,-1.7,293.7,1014.7679,-3.6011874999999995,3878.0,0.101513616,0.004266014,0.046473562,0.010227694,-1.4529734,-0.0057106802,62255.0,27678.0,30175.0,-4.5,-2.5,1.0,0,None
2023-01-03 14:47:19,2379.2455,0.1019999999999981,67.0,1103.5,22508.5,4887.0,94.0,1149.4,849.6,4897.7,69.568286,4.417181600000001,0.0916514879999999,0.054068516,-1.440867,62.292,0.095408522,0.0597099399999999,-1.4448056,0.79137983,1.16685885,7.326958299999999,85.3,24.95,-11.05,-68.35,-11.5,265.6,-1056.75,-10.8,293.95,1014.746,-3.62323825,3877.45,0.095408522,0.00099872,0.0597099399999999,0.02900402,-1.4448056,0.0079336034,62290.0,27719.5,30210.0,-6.5,0.0,1.5,0,None
2023-01-03 14:47:20,2380.219111111111,0.1044444444444504,67.0,1110.5,22503.5,4888.5,94.0,1046.5555555555557,852.7777777777778,4895.0,69.54420555555555,4.442100777777778,0.089963545,0.0478914499999999,-1.4648815000000002,62.3425,0.0931593199999999,0.0530807575,-1.46895475,0.8580547222222221,0.9510696777777778,6.083234555555555,66.44444444444444,-28.0,-14.77777777777778,-50.55555555555556,1.2222222222222223,279.1111111111111,-1048.4444444444443,-24.88888888888889,309.3333333333333,1014.8107777777778,-3.5583853333333337,3877.1111111111113,0.0931593199999999,0.02213762925,0.0530807575,-0.03172499225,-1.46895475,-0.0163295724999999,62335.0,27576.0,30255.0,8.0,4.0,-4.0,0,None
2023-01-03 14:47:21,2381.204,0.1039999999999963,67.0,1038.0,22517.5,4896.5,94.0,1046.4,855.6,4898.2,69.50264000000001,4.469562999999999,0.074822006,0.02489283,-1.4668912,62.27,0.077314668,0.03100112,-1.4697004,0.7765937555555555,1.0670293222222222,6.380744555555555,65.3,12.6,-12.8,-60.5,-21.9,265.0,-1045.6,3.4,310.2,1014.8113,-3.5579452000000003,3876.7,0.077314668,-0.034608196,0.03100112,0.0238865494,-1.4697004,-0.00454202848,62255.0,27577.0,30175.0,2.0,12.0,3.5,0,None
2023-01-03 14:47:22,2382.193,0.1022222222222302,67.0,1255.0,22448.0,4888.0,94.0,1108.3333333333333,858.4444444444445,4899.777777777777,69.47070111111111,4.492287999999999,0.0619666899999999,0.039404074,-1.4625468,62.228,0.064863178,0.04399377,-1.4647916,0.7537058111111111,1.0023690111111112,6.916442666666667,58.77777777777778,-8.61111111111111,-9.444444444444445,-53.77777777777778,16.38888888888889,269.94444444444446,-1046.7222222222222,10.055555555555555,307.0,1014.8088333333334,-3.560360222222222,3875.8888888888887,0.064863178,0.022491352,0.04399377,0.0056590839999999,-1.4647916,0.0159844658,62220.0,27630.0,30140.0,9.0,2.5,2.5,0,None
2023-01-03 14:47:23,2383.204,0.1079999999999927,67.0,1108.0,22489.33333333333,4884.333333333333,94.0,1162.5,861.8,4904.1,69.43132,4.513140999999999,0.079261696,0.0156007787999999,-1.4506902,62.228,0.0816719099999999,0.020741834,-1.4519088,0.7680825,1.01966102,6.857559999999999,63.9,20.6,-8.9,-62.0,18.9,261.1,-1058.0,-7.7,304.6,1014.7973,-3.5719216,3875.3,0.0816719099999999,0.0400717659999999,0.020741834,0.019441566,-1.4519088,-0.0136304015999999,62235.0,27683.5,30155.0,0.0,-6.5,4.5,0,None
2023-01-03 14:47:24,2384.202222222222,0.1088888888888908,67.0,1110.5,22483.0,4889.0,94.0,1075.0,864.8888888888889,4893.444444444444,69.42278999999999,4.529511444444444,0.0740279559999999,0.0242222219999999,-1.44494,62.266000000000005,0.07605217,0.028633086,-1.4462107999999998,0.8143698999999999,0.9989292888888888,6.471853111111112,59.11111111111112,-0.6666666666666666,-10.055555555555555,-56.16666666666666,-21.33333333333333,261.55555555555554,-1037.0555555555557,-12.0,299.8888888888889,1014.7917222222222,-3.577478277777778,3875.0,0.07605217,-0.015549762,0.028633086,-0.037110828,-1.4462107999999998,-0.0059627528,62260.0,27736.0,30180.0,2.0,-3.0,4.0,0,None
2023-01-03 14:47:25,2385.222,0.1019999999999981,67.0,1155.5,22516.5,4893.0,94.0,1106.3,868.0,4896.6,69.44298599999999,4.5458332,0.0661886575,0.01498893075,-1.4564125,62.2575,0.0682421699999999,0.01977419025,-1.457479,0.7412135666666668,0.9684451222222225,6.664272111111112,66.77777777777777,27.11111111111111,-8.333333333333334,-54.0,0.3333333333333333,261.22222222222223,-1032.2222222222222,-7.444444444444445,312.6666666666667,1014.8134444444446,-3.555780999999999,3874.222222222222,0.0682421699999999,-0.01558424575,0.01977419025,0.038014335,-1.457479,-0.0064143097499999,62270.0,27655.5,30190.0,-5.5,-3.0,3.5,0,None
2023-01-03 14:47:26,2386.252,0.1039999999999963,67.0,1053.0,22493.0,4888.5,94.0,1015.6,870.9,4888.8,69.480354,4.5586868,0.066936094,0.029012426,-1.4627168000000002,62.238,0.068726288,0.032925148,-1.4644625999999998,0.7304766500000002,1.1099070800000004,7.503304100000001,66.15,18.55,-3.35,-30.1,12.2,264.75,-1022.75,-15.35,309.0,1014.8255,-3.54382015,3873.55,0.068726288,0.0107047352,0.032925148,0.011868462,-1.4644625999999998,-0.02508477572,62235.0,27642.5,30155.0,-10.0,-4.0,7.0,0,None
2023-01-03 14:47:27,2387.228888888889,0.1044444444444504,67.0,1116.0,22482.5,4889.0,94.0,1085.2222222222222,873.8888888888889,4889.111111111111,69.52059333333334,4.569785111111112,0.066147775,0.0280690049999999,-1.4658015,62.2175,0.06706853,0.0315126275,-1.4669825,0.6991971777777777,1.0724618,7.8915824444444445,43.11111111111112,-2.6666666666666665,-12.22222222222222,-45.44444444444444,-11.444444444444445,264.6666666666667,-1064.6666666666667,-9.666666666666666,300.77777777777777,1014.8276666666666,-3.5416752222222225,3873.0,0.06706853,-0.01676099185,0.0315126275,-0.0067814235,-1.4669825,-0.0022145252499999,62225.0,27591.0,30145.0,-2.5,-0.5,4.0,0,None
2023-01-03 14:47:28,2388.21,0.1019999999999981,67.0,1059.0,22490.5,4899.0,94.0,1085.2,876.7,4899.8,69.555988,4.580614799999999,0.049130794,0.0190014819999999,-1.4686522000000002,62.21,0.050857506,0.0228131319999999,-1.4693164,0.6625122999999999,1.04982328,7.0228846,53.9,2.6,-3.9,-27.5,-13.8,261.0,-1047.8,6.4,304.6,1014.8371999999996,-3.5319842,3872.3,0.050857506,-0.0014168153999999,0.0228131319999999,0.007392062,-1.4693164,-0.0027615229999999,62210.0,27586.5,30130.0,3.0,2.0,6.0,0,None
2023-01-03 14:47:29,2389.2499999999995,0.1039999999999963,67.0,1061.5,22500.5,4899.0,94.0,1032.6,879.8,4894.8,69.581144,4.588204999999999,0.050360682,0.0115591302,-1.4660692000000002,62.206,0.051690594,0.0149618174,-1.4672896000000002,0.9696187900000002,1.11527146,9.3183899,35.2,-9.05,0.55,-29.6,31.4,253.2,-1044.8,-10.65,312.05,1014.829,-3.540148500000001,3871.9,0.051690594,0.0068570766,0.0149618174,-0.023797168,-1.4672896000000002,0.00961198026,62210.0,27592.5,30130.0,10.5,-6.0,8.5,0,None
2023-01-03 14:47:30,2390.2377777777783,0.1044444444444504,67.0,904.5,22547.5,4900.0,94.0,1028.3333333333333,882.6666666666666,4898.666666666667,69.60320777777777,4.5919116666666655,0.0684702339999999,-0.0005168651999999,-1.4668040000000002,62.23,0.069367972,0.00208162002,-1.4672402,0.7711368888888889,1.1382304666666667,8.941987,37.888888888888886,27.0,-7.777777777777778,-42.22222222222222,-7.111111111111111,254.66666666666663,-1104.2222222222222,-5.777777777777778,320.77777777777777,1014.787111111111,-3.5822222222222218,3871.1111111111113,0.069367972,-0.025069014,0.00208162002,0.029278157,-1.4672402,-0.0120628306,62225.0,27596.5,30145.0,-4.5,-3.0,6.0,0,None
2023-01-03 14:47:31,2391.216,0.1019999999999981,67.0,1025.5,22488.5,4902.0,94.0,977.2,885.2,4902.6,69.65322400000001,4.593824,0.0498259459999999,0.037541394,-1.4772054,62.29200000000001,0.0510044839999999,0.039503842,-1.4777922,0.8350375400000001,1.1476003,9.0720057,42.4,24.2,-4.7,-46.1,-8.0,269.5,-1038.1,-3.9,308.8,1014.7932,-3.5758828,3871.0,0.0512911,-0.0046815719999999,0.039549386,0.0070723006,-1.4777996000000002,-0.01238715,62290.0,27536.0,30210.0,-16.5,2.0,1.0,0,None
2023-01-03 14:47:32,2392.2499999999995,0.1039999999999963,67.0,967.5,22527.5,4900.5,94.0,960.0,888.1,4901.0,69.70096,4.595253400000002,0.0451083279999999,0.035377828,-1.4786429999999997,62.254,0.045933862,0.036846434,-1.4789518,0.8193283499999999,1.2127867,9.7045767,39.45,8.45,-6.2,-50.15,-2.65,266.3,-1078.75,-6.8,311.15,1014.78865,-3.5806133,3870.45,0.045933862,0.01857403,0.036846434,0.00289982,-1.4789518,0.0053564026,62270.0,27524.0,30190.0,-1.0,0.5,1.0,0,None
2023-01-03 14:47:33,2393.2333333333336,0.1044444444444504,67.0,1159.0,22453.0,4898.0,94.0,1015.4444444444443,890.8888888888889,4898.111111111111,69.71871333333334,4.595853444444444,0.055339685,0.0308531025,-1.47389975,62.0425,0.05606557,0.0325259175,-1.47417825,0.8339096666666665,1.0569135777777778,8.418863222222221,38.77777777777778,-4.888888888888889,-4.555555555555555,-41.44444444444444,32.111111111111114,270.22222222222223,-1029.111111111111,3.111111111111111,305.44444444444446,1014.7693333333332,-3.599861,3869.8888888888887,0.05606557,0.043581915,0.0325259175,-0.0024501825,-1.47417825,-0.00244542,62040.0,27551.5,29960.0,9.0,-3.5,-1.5,0,None
2023-01-03 14:47:34,2394.224,0.1039999999999963,66.5,1107.5,22474.0,4900.5,94.0,1192.6,893.8,4903.8,69.714276,4.5957086,0.06369258,0.0148912338,-1.4486188,61.802,0.0645310839999999,0.01732677,-1.447974,0.70011325,1.0673031300000002,7.0656582,63.15,-0.15,-5.75,-41.15,0.9,262.3,-1091.75,17.85,303.95,1014.731,-3.6381875,3869.2,0.0645310839999999,-0.0028352228,0.01732677,0.004156564,-1.447974,0.0092743312,61780.0,27721.5,29700.0,3.5,-8.5,-4.0,0,None
2023-01-03 14:47:35,2395.213333333333,0.1022222222222302,66.0,1095.0,22500.0,4903.0,94.0,1116.2222222222222,897.2222222222222,4895.0,69.72035444444444,4.595956111111111,0.0643905,0.029130882,-1.4462832,61.592,0.065564714,0.0314743679999999,-1.4453542,0.7451220333333333,1.1390346,6.745009555555555,51.44444444444444,13.88888888888889,-2.2222222222222223,-47.333333333333336,5.888888888888889,264.3333333333333,-1035.888888888889,3.7777777777777777,305.0,1014.7544444444444,-3.6146525555555553,3868.8888888888887,0.065564714,-0.0198494372,0.0314743679999999,0.0068311,-1.4453542,-0.0215839878599999,61575.0,27724.5,29495.0,-7.0,-11.0,-4.0,0,None
2023-01-03 14:47:36,2396.224,0.1079999999999927,66.0,1084.6666666666667,22484.0,4901.333333333333,94.0,1109.3,900.1,4900.0,69.735978,4.597167799999999,0.074695222,0.04114305,-1.4596214,61.362,0.076011214,0.043130452,-1.4589204000000002,0.68002743,1.01708378,6.847893999999999,70.2,11.15,-10.05,-45.5,22.85,264.35,-1040.65,-5.55,302.7,1014.7723,-3.596918,3868.3,0.076011214,0.0162030294,0.043130452,0.0149167245999999,-1.4589204000000002,-0.01618650826,61360.0,27640.0,29280.0,-4.5,-11.5,-3.5,0,None
2023-01-03 14:47:43,2403.1933333333336,0.720000000000002,66.0,1087.0,22453.5,4904.5,94.0,1066.111111111111,918.8888888888888,4901.0,69.68419444444444,4.664505,0.061225645,0.0338985424999999,-1.4689645000000002,60.575,0.0638556625,0.0368617549999999,-1.46669525,0.7862326666666667,1.0181508222222222,6.229664888888888,54.888888888888886,16.944444444444443,-11.27777777777778,-54.05555555555556,-7.444444444444445,262.5,-1054.2777777777778,-6.166666666666667,303.77777777777777,1014.7983333333332,-3.570933111111112,3864.222222222222,0.0638556625,-0.0038021144999999,0.0368617549999999,0.027676894,-1.46669525,-0.007362628425,60580.0,27595.0,28500.0,5.0,2.0,3.0,0,None
