00000_Time_epoch,00000_Time_boot_sec,00000_Span_Time_boot_sec,1_battery_remaining_avg,1_current_battery_avg,1_voltage_battery_avg,125_Vcc_avg,147_battery_remaining_avg,147_current_battery_avg,147_current_consumed_avg,165_Vcc_avg,168_direction_avg,168_speed_avg,178_pitch_avg,178_roll_avg,178_yaw_avg,182_altitude_avg,182_pitch_avg,182_roll_avg,182_yaw_avg,241_vibration_x_avg,241_vibration_y_avg,241_vibration_z_avg,27_xacc_avg,27_xgyro_avg,27_xmag_avg,27_yacc_avg,27_ygyro_avg,27_ymag_avg,27_zacc_avg,27_zgyro_avg,27_zmag_avg,29_press_abs_avg,29_press_diff_avg,29_temperature_avg,30_pitch_avg,30_pitchspeed_avg,30_roll_avg,30_rollspeed_avg,30_yaw_avg,30_yawspeed_avg,33_alt_avg,33_hdg_avg,33_relative_alt_avg,33_vx_avg,33_vy_avg,33_vz_avg,label,diagnosis
2023-01-03 09:26:04,206.934,-0.0324999999999988,84.0,87.0,23338.0,4893.0,99.0,88.0,49.0,4890.125,-153.62897500000005,0.196915075,-0.0024163185,-0.014863125,-1.2443940000000002,27.4475,0.005472027,-0.00829002525,-1.25521075,0.0258543114285714,0.0240098714285714,0.0370149442857142,-16.0,4.0,71.78571428571429,0.4285714285714285,6.071428571428571,252.28571428571428,-1056.7142857142858,0.0,334.7142857142857,1020.3884285714288,-0.1320479714285714,3583.214285714286,0.00547291275,0.006662453,-0.008289181,0.00423072875,-1.25521425,-0.000380098675,27465.0,28808.5,-95.0,8.0,24.5,-36.5,0,None
2023-01-03 09:26:05,207.88090000000005,0.1039999999999991,84.0,85.0,23336.0,4886.5,99.0,88.6,49.0,4886.5,-155.65134,0.18485394,-0.0021449252,-0.015188064,-1.2430996,27.342,0.0057035335999999,-0.0083924335999999,-1.254754,0.025188776,0.0245298849999999,0.0381635359999999,-14.8,3.5,73.4,0.4,6.4,252.3,-1054.8,-2.6,335.3,1020.3791,-0.1413281099999999,3585.5,0.0057035335999999,0.0066200819999999,-0.0083924335999999,0.0047198386,-1.254754,-0.00034062432,27345.0,28811.5,-215.0,7.5,26.5,-38.5,0,None
2023-01-03 09:26:06,208.8888,0.0999999999999999,84.0,174.5,23327.0,4888.0,99.0,164.6,49.7,4893.9,-155.89388000000002,0.2229906799999999,-0.0023627794,-0.0146415579999999,-1.2419432,27.27,0.00581261,-0.0083857598,-1.2543381999999998,0.084080224,0.1879052,0.9108758,-14.3,4.4,69.4,0.3,7.1,249.3,-1053.8,1.7,334.1,1020.4049,-0.115539049,3588.5,0.00581261,0.0062373941999999,-0.0083857598,0.0037783658,-1.2543381999999998,0.0001172967999999,27275.0,28814.5,-285.0,7.5,27.5,-40.0,0,None
2023-01-03 09:26:07,209.8701111111111,0.1044444444444441,84.0,558.5,23211.5,4891.5,99.0,561.8888888888889,50.22222222222222,4897.111111111111,-155.51943333333338,0.2800054555555555,-0.0019025783399999,-0.015633886,-1.2408958,27.176,0.0059026146,-0.0093562904,-1.253756,0.1420170633333333,0.4066164333333333,1.441952,-13.88888888888889,6.888888888888889,63.77777777777778,0.3333333333333333,4.777777777777778,247.22222222222223,-1062.2222222222222,1.4444444444444444,318.1111111111111,1020.462888888889,-0.0575434111111111,3590.777777777778,0.0059026146,0.0098699268,-0.0093562904,-0.0111573199999999,-1.253756,-0.0060649814,27180.0,28818.5,-380.0,7.0,27.0,-39.5,0,None
2023-01-03 09:26:08,210.859,0.1039999999999991,83.0,1547.5,22949.5,4894.5,99.0,1767.0,54.0,4888.1,-155.51298000000003,0.34097868,-0.00322884636,-0.0148511936,-1.2286198000000002,27.666,0.0051548878,-0.0083389179999999,-1.2402272,0.3908314500000001,1.1819320999999998,3.3760540000000008,-12.5,13.65,57.8,-15.3,-7.7,241.45,-1235.0,20.95,300.6,1020.5346,0.0141289019999999,3593.7,0.0051548878,-0.0345089519999999,-0.0083389179999999,0.0158928401999999,-1.2402272,0.013546999,27720.0,28905.5,160.0,-8.0,19.0,93.0,0,None
2023-01-03 09:26:09,211.8501111111111,0.1044444444444441,82.5,1729.5,22862.0,4897.5,99.0,1779.6666666666667,58.77777777777778,4896.888888888889,-156.53235555555557,0.4228270555555555,-0.0166350249999999,0.01153283575,-1.23162975,29.755,-0.00946083325,0.01740705875,-1.2419835,0.3230259111111111,1.0937394666666669,2.689869555555556,-9.77777777777778,34.111111111111114,60.77777777777778,-10.22222222222222,16.88888888888889,236.44444444444449,-1161.6666666666667,-9.88888888888889,282.55555555555554,1020.1171111111112,-0.4031684,3596.222222222222,-0.00949919075,0.0338736415,0.01706814625,0.0194129075,-1.24201425,-0.0021899399999999,30210.0,28778.5,2650.0,-3.0,1.0,240.0,0,None
2023-01-03 09:26:10,212.849,0.1080000000000012,81.5,1650.0,22878.0,4895.0,99.0,1733.9,63.6,4893.4,-155.88913999999997,0.4822895,-0.0042573206666666,-0.0003496493333333,-1.2347596666666665,33.08,0.0025532731833333,0.0058962913333333,-1.2794945,0.41055312,1.35710166,3.4031183,-8.85,-13.35,59.75,-21.75,0.0,238.95,-1046.1,-6.65,287.95,1019.75935,-0.76111325,3598.9,0.0027485420166666,0.0076312059999999,0.0056160999999999,-0.0053944316666666,-1.2794826666666663,-0.0043880735,33570.0,28672.0,6010.0,7.5,-6.5,284.5,0,None
2023-01-03 09:26:11,213.85688888888888,0.1022222222222208,81.0,1289.5,22930.5,4894.0,99.0,1301.3333333333333,67.66666666666667,4894.111111111111,-155.62585555555555,0.5175723444444444,-0.1543983149999999,0.0255271025,-1.23260725,36.035,-0.1443469399999999,0.0341649025,-1.2761364999999998,0.5499463333333333,0.9915030111111112,6.579329888888889,-3.7777777777777777,75.44444444444444,101.44444444444444,-30.22222222222222,-205.77777777777777,254.66666666666663,-916.1111111111112,23.55555555555556,286.6666666666667,1019.423888888889,-1.0964756666666666,3601.555555555556,-0.1443469399999999,-0.2335930355,0.0341649025,0.0857705025,-1.2761364999999998,0.02782563,36330.0,28711.0,8770.0,24.0,-84.0,161.5,0,None
2023-01-03 09:26:12,214.8216,0.1021000000000014,80.0,1523.0,22865.0,4893.0,99.0,1545.0,71.6,4893.6,-158.66972,0.5018145799999999,-0.19339478,0.055271614,-1.10955788,37.55200000000001,-0.18274198,0.062956214,-1.15039094,0.498518,1.07564144,5.6016633,-20.8,5.7,150.5,-47.6,85.3,262.1,-1054.7,295.0,270.2,1019.2131,-1.3072657,3604.4,-0.18274198,0.09109976,0.062956214,-0.0107653159999999,-1.15039094,0.292779378,37925.0,29908.5,10365.0,120.5,-256.0,116.5,0,None
2023-01-03 09:26:13,215.8309,0.1001000000000004,79.5,1710.5,22782.0,4890.5,99.0,1649.5,76.3,4892.4,-162.13242000000002,0.4553834200000001,-0.18464604,-0.0137425787999999,-0.91315804,39.208,-0.18059112,-0.0031266185999999,-0.95341982,0.45344854,1.4558054,6.2873742,-48.2,26.5,207.8,-55.5,-29.0,221.7,-1121.8,-35.0,271.1,1018.9767,-1.5436171,3607.3,-0.18059112,-0.018422668,-0.0031266185999999,0.031873261,-0.95341982,-0.0258387959999999,39715.0,30441.5,12155.0,180.0,-415.5,162.0,0,None
2023-01-03 09:26:14,216.8448,0.1019999999999981,79.0,1772.5,22756.0,4877.0,99.0,1801.9,81.0,4886.3,-166.81901999999997,0.38575232,-0.15847844,0.0654172859999999,-0.9774055399999998,41.50599999999999,-0.1564975,0.076323452,-1.0222052,0.4908999699999999,1.3922208,6.050541099999999,-57.9,26.8,187.6,-59.85,52.55,233.65,-1102.3,-39.0,260.3,1018.7043,-1.81615615,3610.3,-0.1564975,0.0581104459999999,0.076323452,0.0707060519999999,-1.0222052,-0.0460689839999999,42165.0,30090.0,14605.0,269.5,-533.5,219.5,0,None
2023-01-03 09:26:15,217.865,0.102000000000001,78.0,1497.5,22793.5,4893.0,99.0,1491.9,85.8,4886.4,-103.48976000000002,0.30156298,-0.1138017916666666,0.0445665583333333,-1.0072041166666668,44.571666666666665,-0.1118701549999999,0.0576500583333333,-1.053348333333333,0.5517768299999999,1.22150253,7.3151758,-72.6,-55.7,169.8,-60.5,38.4,250.0,-1060.5,-55.1,284.0,1018.4006,-2.1197108,3613.2,-0.1118701549999999,0.0711122233333333,0.0576500583333333,-0.0462525116666666,-1.053348333333333,-0.0390292703333333,45005.0,29931.0,17445.0,338.5,-579.5,243.0,0,None
2023-01-03 09:26:16,218.885,0.102000000000001,78.0,1291.5,22851.5,4892.5,99.0,1283.2,89.6,4886.4,165.58285999999998,0.22625698,-0.06474568,0.024193478,-1.046537,47.524,-0.0617928539999999,0.038960692,-1.0941672,0.5804670300000001,1.1058480000000002,8.140211400000002,-72.4,13.7,142.4,-51.9,22.6,234.5,-1003.7,-29.5,290.8,1018.1004,-2.4199296,3616.0,-0.0617928539999999,-0.0019984077999999,0.038960692,0.0182569946,-1.0941672,-0.0216175433199999,47650.0,29729.0,20090.0,336.0,-604.0,210.0,0,None
2023-01-03 09:26:17,219.891,0.0999999999999999,77.5,1471.0,22809.5,4896.0,99.0,1317.5,93.1,4887.0,132.12499999999997,0.2081209999999999,-0.07143661,0.0235273466,-1.0619288,49.836,-0.0661130779999999,0.0379336559999999,-1.1119366000000002,0.66792124,1.06780771,7.651076999999999,-77.4,-9.3,142.6,-49.2,-9.9,238.7,-1050.3,-8.5,290.9,1017.8806,-2.6400701,3619.0,-0.0661130779999999,-0.00231387,0.0379336559999999,-0.0281963248,-1.1119366000000002,-0.022026912,49945.0,29624.0,22385.0,332.0,-599.5,198.5,0,None
2023-01-03 09:26:18,220.8613333333333,0.1045555555555557,77.0,1394.0,22802.5,4899.0,99.0,1342.0,96.77777777777776,4896.222222222223,103.18291111111112,0.2866963444444445,-0.0811557474999999,0.02662106,-1.0592665,51.8875,-0.0734744775,0.0396629624999999,-1.110055,0.6015784,1.0123577555555554,7.65702588888889,-60.0,25.88888888888889,145.88888888888889,-50.22222222222222,3.333333333333333,250.66666666666663,-1056.888888888889,-3.111111111111111,296.44444444444446,1017.6062222222222,-2.914123111111112,3621.555555555556,-0.0734744775,0.0098623364999999,0.0396629624999999,0.0244664275,-1.110055,-0.0221790325,52255.0,29628.0,24695.0,330.0,-624.0,201.0,0,None
2023-01-03 09:26:19,221.8592,0.1038999999999986,77.0,1455.5,22809.5,4891.5,99.0,1488.7,100.9,4894.4,90.00125599999998,0.4085557199999999,-0.072219592,0.021610142,-1.069335,54.134,-0.064337122,0.0347321659999999,-1.119328,0.51432269,1.16024673,6.573896500000001,-60.7,23.45,134.7,-63.0,103.1,238.65,-1059.9,-7.4,296.0,1017.26695,-3.2533944,3624.3,-0.064337122,0.1035723799999999,0.0347321659999999,-0.0144296997999999,-1.119328,0.0069017818,54770.0,29603.0,27210.0,332.0,-659.5,205.5,0,None
2023-01-03 09:26:20,222.8836,0.1021000000000014,76.0,1024.5,22918.5,4889.0,99.0,994.5,104.1,4895.8,84.16109800000001,0.5622404000000001,-0.0392529435599999,0.126620302,-0.98854578,56.36199999999999,-0.0336721256,0.138655328,-1.04001968,0.71552078,1.17402543,7.715949499999999,-64.3,113.2,145.9,-51.7,-41.0,264.7,-900.5,165.4,278.1,1017.0512,-3.4692889,3627.2,-0.0336721256,-0.0631677708799999,0.138655328,0.1521480495,-1.04001968,0.162052102,56720.0,30278.5,29160.0,360.0,-632.0,88.0,0,None
2023-01-03 09:26:21,223.853,0.1022222222222208,76.0,1006.0,22918.5,4889.5,99.0,1019.7777777777778,106.88888888888889,4891.888888888889,81.91691888888889,0.7496883999999999,-0.0726396679999999,0.116938532,-0.84306512,57.31,-0.068507622,0.1289768619999999,-0.8958565999999999,0.5957095555555556,1.029237888888889,12.303136666666669,-70.33333333333333,-67.33333333333333,196.5555555555556,-43.55555555555556,-8.333333333333334,242.0,-1011.3333333333334,86.11111111111111,273.44444444444446,1016.953888888889,-3.5665797777777777,3629.6666666666665,-0.068507622,0.0139370926,0.1289768619999999,-0.066257688,-0.8958565999999999,0.085250492,57330.0,30908.0,29770.0,423.0,-595.0,21.0,0,None
2023-01-03 09:26:22,224.822,0.102000000000001,76.0,961.0,22924.0,4885.0,99.0,970.6,109.6,4893.4,80.29443599999999,0.9444951199999998,-0.089008514,0.066146256,-0.80186894,57.65999999999999,-0.085248316,0.080744348,-0.8572753200000001,0.68326372,1.3083066,11.711959599999998,-62.5,-8.1,204.8,-45.8,-4.5,216.9,-1018.1,20.2,290.5,1016.9328,-3.5876092000000006,3632.2,-0.085248316,-0.0084322519999999,0.080744348,0.0011162658,-0.8572753200000001,0.02518005,57650.0,31091.0,30090.0,474.0,-585.0,-11.666666666666666,0,None
2023-01-03 09:26:23,225.836,0.1001999999999981,76.0,1035.5,22912.0,4889.0,99.0,1044.7,112.6,4898.3,79.138022,1.1303368,-0.096804208,0.0555253859999999,-0.7786987799999999,57.760000000000005,-0.0925137219999999,0.068734228,-0.8362807200000001,0.58349641,1.2250495,11.318047000000002,-79.6,-3.4,216.0,-57.2,3.1,209.5,-1052.3,18.5,271.3,1016.8705,-3.650007699999999,3635.1,-0.0925137219999999,-0.0092518666,0.068734228,0.0028737956,-0.8362807200000001,0.0095776806,57785.0,31222.5,30225.0,512.0,-598.5,-27.5,0,None
2023-01-03 09:26:24,226.836,0.0999999999999999,76.0,1063.0,22890.0,4889.5,99.0,1056.5,115.4,4895.4,78.39545000000001,1.3057026000000005,-0.0957905679999999,0.0454869559999999,-0.7802895399999998,57.83399999999999,-0.09087305,0.058795032,-0.8416126800000001,0.61754617,1.09156409,11.8740305,-76.7,3.7,218.8,-52.0,16.4,213.2,-1066.0,-9.0,280.6,1016.8488999999996,-3.6714452,3637.6,-0.09087305,0.02168112798,0.058795032,0.004077852,-0.8416126800000001,-0.0157292094,57850.0,31172.0,30290.0,536.5,-619.5,-36.0,0,None
2023-01-03 09:26:25,227.836,0.0999999999999999,76.0,1021.5,22903.0,4886.5,99.0,1024.3,118.4,4896.5,77.946214,1.4687926,-0.067662846,0.0054230499999999,-0.7855111,57.874,-0.063327448,0.0174031662,-0.84915232,0.5662224699999999,1.0772071799999998,11.409361,-68.5,-150.5,203.7,-52.9,71.2,207.2,-1069.2,-47.9,283.7,1016.8781,-3.6422967,3640.1,-0.063327448,0.0709768618,0.0174031662,-0.1629745608,-0.84915232,-0.054253123,57880.0,31013.5,30320.0,534.5,-638.0,-35.5,0,None
2023-01-03 09:26:26,228.86400000000003,0.104000000000002,76.0,1077.5,22872.5,4890.5,99.0,1083.2,121.2,4891.2,77.82298599999999,1.6245621999999995,-0.032097772,-0.16111564,-0.97961128,57.846,-0.02677429,-0.14733552,-1.0450628,0.56710233,1.0137741999999998,11.957009,-55.15,-19.05,154.55,-34.8,20.85,176.4,-1046.1,-246.6,348.5,1016.9092,-3.61125775,3643.05,-0.026677234,0.0142996443999999,-0.14744644,-0.0243908066,-1.0438886,-0.23545844,57825.0,29650.5,30265.0,387.5,-712.5,-35.0,0,None
2023-01-03 09:26:27,229.8351111111112,0.1022222222222208,76.0,1154.0,22859.0,4886.0,99.0,1162.7777777777778,124.33333333333331,4892.0,78.21602222222222,1.779578888888889,-0.058855872,-0.093286912,-1.1729194,57.826,-0.051351448,-0.0840644439999999,-1.2409262,0.5518549111111111,0.9476102,10.206972333333333,-53.333333333333336,76.88888888888889,106.11111111111111,-42.888888888888886,12.555555555555555,215.5555555555556,-1053.2222222222222,-133.0,333.22222222222223,1016.8693333333334,-3.651137,3645.1111111111113,-0.051145172,0.0057587238,-0.0842887299999999,0.078285858,-1.2404596,-0.13357286,57830.0,28867.0,30270.0,283.0,-768.0,-39.0,0,None
2023-01-03 09:26:28,230.824,0.1039999999999991,75.0,1112.5,22858.5,4889.0,99.0,1100.9,127.3,4896.8,78.820834,1.9427202,-0.044823788,-0.0466152259999999,-1.2654998,57.818,-0.03795999,-0.040323692,-1.3306876,0.5492575900000001,0.85242799,11.1004287,-62.8,14.6,69.7,-39.6,32.3,237.1,-1012.0,-64.8,328.5,1016.8863,-3.6342266,3647.7,-0.03795999,0.0280292942,-0.040323692,0.0147573779999999,-1.3306876,-0.0807994019999999,57830.0,28483.0,30270.0,224.0,-802.5,-30.0,0,None
2023-01-03 09:26:29,231.846,0.104000000000002,75.0,1044.0,22872.5,4891.5,99.0,1042.5,130.6,4894.7,79.317734,2.0898794,-0.0262134796,-0.030986242,-1.3185,57.772000000000006,-0.0202953601999999,-0.024484758,-1.3809904,0.68594227,1.03423292,12.709276,-51.75,-65.5,52.05,-24.1,68.15,248.15,-1040.45,-47.0,330.75,1016.9257,-3.5950389,3650.25,-0.0202953601999999,0.0667437232,-0.024484758,-0.04425608,-1.3809904,-0.035840894,57773.333333333336,28085.666666666668,30213.33333333333,158.0,-823.3333333333334,-32.333333333333336,0,None
2023-01-03 09:26:30,232.868,0.1019999999999981,75.0,1157.5,22835.5,4888.0,99.0,1151.8,133.5,4894.1,79.728014,2.2315146,0.044554294,-0.21261758,-1.4902576,57.66799999999999,0.0505441519999999,-0.20385224,-1.5498698000000002,0.71616333,1.05072618,8.8606003,-55.7,-122.8,-19.8,-20.9,37.0,184.8,-1166.7,-339.0,365.4,1016.9464,-3.5741015,3652.9,0.050669524,0.0471064519999999,-0.20322598,-0.1420348979999999,-1.5484566000000002,-0.33714576,57645.0,26654.5,30085.0,-20.5,-766.5,-24.5,0,None
2023-01-03 09:26:31,233.8928888888889,0.1088888888888909,75.0,1144.5,22825.0,4890.0,99.0,1178.6666666666667,136.88888888888889,4892.888888888889,79.95578888888889,2.3715874444444447,-0.07861714,-0.17910742,-1.808728,57.63,-0.0694520419999999,-0.17362258,-1.865088,0.6030551888888889,1.1244513555555555,6.832439777777777,-63.94444444444444,106.55555555555556,-63.22222222222222,-10.944444444444445,-44.72222222222222,167.61111111111111,-1057.4444444444443,-262.6666666666667,360.8888888888889,1016.8887777777776,-3.631792388888889,3655.444444444444,-0.0694520419999999,-0.044109383,-0.17362258,0.1156382199999999,-1.865088,-0.26555734,57620.0,25302.0,30060.0,-202.0,-729.0,-26.0,0,None
2023-01-03 09:26:32,234.83733333333333,0.1044444444444441,75.0,1135.0,22829.5,4888.0,99.0,1149.6666666666667,140.0,4892.666666666667,80.16529555555557,2.487472111111112,-0.090961955,-0.109160025,-1.98465075,57.67,-0.081867495,-0.108835775,-2.0348472500000003,0.7478371555555555,1.0471319,6.459371888888889,-70.44444444444444,9.555555555555555,-105.66666666666669,-16.0,-11180.088888888891,184.11111111111111,-1060.3333333333333,-120.88888888888889,358.77777777777777,1016.8945555555556,-3.625755,3657.6666666666665,-0.081867495,0.063457575,-0.108835775,0.01371460102,-2.0348472500000003,-0.1163804675,57670.0,24493.0,30110.0,-306.5,-742.0,-30.0,1,27_ygyro_avg_drift_-397.6916666666667
2023-01-03 09:26:33,235.844,0.1060000000000002,75.0,1108.5,22845.0,4888.5,99.0,1113.8,143.2,4891.5,80.44572799999999,2.6016734,-0.0330679446666666,-0.1141608466666666,-2.0903745,57.64333333333333,-0.0255003283333333,-0.1118960983333333,-2.1353885,0.8109717899999997,1.13172375,6.9221795,-66.05,-116.95,-148.85,-9.5,-11577.780555555557,169.95,-1055.7,-94.95,355.95,1016.8872,-3.63331245,3659.95,-0.0255003283333333,0.1364041849999999,-0.1118960983333333,-0.1221428636666666,-2.1353885,-0.1007279816666666,57650.0,23873.0,30090.0,-400.5,-738.0,-27.0,1,27_ygyro_avg_drift_-397.6916666666667
2023-01-03 09:26:34,236.8395555555556,0.1044444444444441,75.0,1204.5,22822.5,4887.5,99.0,1214.888888888889,146.33333333333334,4892.333333333333,80.65422777777778,2.6998372222222224,0.05053065375,-0.311204125,-2.341089,57.655,0.0560780975,-0.3048766,-2.38012425,0.644860988888889,0.9542430000000002,11.302857777777778,-61.888888888888886,-107.88888888888889,-228.44444444444449,-5.111111111111111,-11975.472222222224,62.55555555555556,-1095.888888888889,-379.55555555555554,364.3333333333333,1016.803,-3.717543333333333,3662.0,0.0560780975,0.0172793849999999,-0.3048766,-0.0988164825,-2.38012425,-0.3771473,57650.0,22735.5,30090.0,-488.5,-611.5,-26.0,1,27_ygyro_avg_drift_-397.6916666666667
2023-01-03 09:26:35,237.844,0.1060000000000002,74.0,1168.5,22815.5,4888.0,99.0,1169.8,149.7,4887.9,80.815228,2.8002012000000005,-0.083376886,-0.27807184,-2.6877894,57.782,-0.072168658,-0.2762438,-2.7152832,0.6414851899999999,0.94486111,11.062122,-73.75,83.65,-236.55,17.95,-12373.16388888889,-12.1,-1073.75,-358.1,379.3,1016.70635,-3.81424605,3664.25,-0.072168658,0.020351812,-0.2762438,0.0943301219999999,-2.7152832,-0.36497422,57765.0,20605.0,30205.0,-635.5,-353.0,-41.0,1,27_ygyro_avg_drift_-397.6916666666667
2023-01-03 09:26:36,238.8551111111111,0.1066666666666643,74.0,1004.0,22847.5,4891.0,99.0,995.0,152.77777777777777,4891.777777777777,80.92328666666667,2.9041705555555555,-0.11902012,-0.1785655199999999,-2.9609994,57.904,-0.1064224599999999,-0.18405482,-2.9722006,0.9359329333333332,1.3189912222222222,12.137691111111112,-99.77777777777776,37.44444444444444,-238.44444444444449,20.55555555555556,-12770.855555555558,-55.11111111111112,-1054.3333333333333,-161.77777777777777,360.6666666666667,1016.7778888888888,-3.742430444444445,3666.6666666666665,-0.1064224599999999,0.0542908399999999,-0.18405482,0.0385769,-2.9722006,-0.15164914,57910.0,19038.0,30350.0,-745.5,-195.5,-54.0,1,27_ygyro_avg_drift_-397.6916666666667
2023-01-03 09:26:37,239.874,0.1060000000000002,74.0,952.0,22867.0,4891.0,99.0,970.9,155.5,4892.4,80.92983199999999,3.0100732,-0.0962171399999999,-0.12792878,-3.0684370000000003,57.81,-0.084257638,-0.1336128999999999,-3.0710154,0.9673518600000002,1.429822,13.970555,-98.75,31.95,-248.4,25.4,-13168.547222222225,-68.25,-1038.05,-56.4,363.3,1016.8581,-3.66214045,3668.8,-0.084257638,0.0317654716,-0.1336128999999999,0.0482173104,-3.0710154,-0.058625462,57820.0,18431.5,30260.0,-804.0,-101.5,-47.5,1,27_ygyro_avg_drift_-397.6916666666667
2023-01-03 09:26:38,240.8751111111111,0.1088888888888909,74.0,914.0,22883.0,4893.0,99.0,952.5555555555557,158.11111111111111,4898.111111111111,80.7242388888889,3.114583,-0.068803368,-0.091330688,-3.101531,57.674,-0.057587652,-0.095556838,-3.1023780000000003,0.9843876333333332,1.499226333333333,14.180538888888888,-96.61111111111111,1.7222222222222223,-258.8333333333333,32.5,-13566.23888888889,-63.27777777777778,-1074.2777777777778,1.9444444444444444,353.8888888888889,1016.8745,-3.6459155,3670.722222222222,-0.057587652,0.058406632,-0.095556838,-0.0449224519999999,-3.1023780000000003,-0.0067359348399999,57680.0,18230.5,30120.0,-823.5,-51.5,-37.5,1,27_ygyro_avg_drift_-397.6916666666667
2023-01-03 09:26:39,241.868,0.0999999999999999,74.0,851.0,22901.5,4892.0,99.0,866.6,160.7,4885.4,80.254832,3.2031842,-0.0367785739999999,-0.24645896,1.8055528,57.604,-0.027031159,-0.24591086,1.805734,1.0999425400000002,1.8663473000000004,14.017254,-94.2,-151.8,-268.8,47.2,-13963.930555555558,-125.2,-1008.3,-224.2,322.1,1016.9175,-3.6028828,3672.8,-0.027031159,0.038251168,-0.24591086,-0.1043631881999999,1.805734,-0.23555426,57610.0,17650.5,30050.0,-801.0,37.5,-31.5,1,27_ygyro_avg_drift_-397.6916666666667
2023-01-03 09:26:40,242.87288888888887,0.1088888888888877,74.0,1055.0,22845.5,4886.5,98.11111111111111,897.3333333333334,163.0,4889.555555555556,79.18411111111112,3.2910514444444448,-0.0877430975,-0.188483925,2.85237175,57.51,-0.0762732075,-0.189127925,2.858402,1.1409107888888892,1.9431023333333333,12.773534444444444,-102.94444444444444,103.5,-236.5555555555556,30.5,-14361.622222222224,-179.77777777777777,-1074.6666666666667,-180.44444444444449,324.27777777777777,1016.9001111111112,-3.620412166666666,3675.1111111111113,-0.0762732075,-0.044647055,-0.189127925,0.1025682275,2.858402,-0.181546975,57505.0,16349.5,29945.0,-747.5,232.0,-23.5,1,27_ygyro_avg_drift_-397.6916666666667
2023-01-03 09:26:41,243.87000000000003,0.1039999999999991,74.0,865.5,22889.0,4893.5,98.0,865.5,165.5,4889.3,77.97040199999999,3.366393,-0.10607696,-0.10342245,2.7496426,57.510000000000005,-0.094866076,-0.108802276,2.7608802,1.08942904,1.8933719000000004,10.8933298,-118.0,37.4,-210.6,33.6,-14759.313888888892,-181.0,-1101.8,-81.9,339.8,1016.8299,-3.6905078,3677.1,-0.094866076,-0.0003593582399999,-0.108802276,0.02890927572,2.7608802,-0.081100456,57520.0,15766.5,29960.0,-737.5,316.0,-21.0,1,27_ygyro_avg_drift_-397.6916666666667
2023-01-03 09:26:42,244.864,0.1022222222222239,74.0,1010.5,22848.5,4888.5,98.0,920.0,167.88888888888889,4898.777777777777,76.68301666666667,3.439682888888889,-0.09923641,-0.081486598,2.6934219999999995,57.6,-0.089751768,-0.085486432,2.704594,1.0178473666666668,1.5821723333333335,10.467852555555556,-107.11111111111111,4.444444444444445,-208.0,55.44444444444444,-15157.005555555557,-180.3333333333333,-1056.2222222222222,-36.333333333333336,342.44444444444446,1016.7658888888888,-3.754574555555555,3678.8888888888887,-0.089751768,0.011526542,-0.085486432,0.008806068,2.704594,-0.026170922,57605.0,15456.0,30045.0,-737.0,339.0,-34.0,1,27_ygyro_avg_drift_-397.6916666666667
2023-01-03 09:26:43,245.854,0.1060000000000002,74.0,959.5,22860.0,4883.0,98.0,920.6,170.5,4887.4,75.561636,3.4957784000000003,-0.09607128,-0.07682965,2.6537606,57.648,-0.0880437719999999,-0.07869887,2.6631624,1.04113071,1.7146133,10.788037,-131.75,15.05,-202.1,35.95,-15554.697222222225,-191.65,-1031.5,-19.85,335.05,1016.7656,-3.754742099999999,3681.05,-0.0880437719999999,-0.0006204787999999,-0.07869887,0.0401995319999999,2.6631624,-0.0341886684,57655.0,15241.0,30095.0,-719.5,358.0,-40.5,1,27_ygyro_avg_drift_-397.6916666666667
2023-01-03 09:26:44,246.85066666666663,0.1066666666666643,74.0,937.5,22855.0,4879.5,98.0,870.3333333333334,172.88888888888889,4890.888888888889,74.47044777777778,3.543512222222222,-0.11844222,-0.063965866,2.6411018,57.648,-0.11156466,-0.0659662219999999,2.6483202,1.0299774888888888,2.057309888888889,11.630137777777778,-126.66666666666669,12.444444444444445,-190.88888888888889,42.44444444444444,-15952.38888888889,-191.11111111111111,-1007.3333333333334,2.0,348.44444444444446,1016.7775555555556,-3.742855888888888,3682.8888888888887,-0.11156466,-0.0023072659999999,-0.0659662219999999,0.019936292,2.6483202,0.0023724544,57645.0,15168.0,30085.0,-714.0,366.0,-37.5,1,27_ygyro_avg_drift_-397.6916666666667
2023-01-03 09:26:45,247.854,0.104000000000002,74.0,882.5,22853.0,4888.0,98.0,905.1,175.5,4888.4,73.428234,3.5851882,-0.12695362,-0.057648868,2.640052,57.648,-0.12177088,-0.059362288,2.6438,1.10845924,1.994179,9.6385906,-145.7,-10.8,-189.5,64.65,-16350.080555555558,-186.05,-1037.45,0.3,347.25,1016.7182,-3.8021092,3684.9,-0.12177088,0.021771413,-0.059362288,0.00061775,2.6438,0.00537895952,57655.0,15138.5,30095.0,-724.5,366.0,-43.0,1,27_ygyro_avg_drift_-397.6916666666667
2023-01-03 09:26:46,248.84844444444445,0.1044444444444441,74.0,1081.5,22816.5,4891.5,98.0,1019.8888888888888,178.0,4895.333333333333,72.57459333333333,3.618433888888889,-0.113673675,-0.1731363249999999,2.58496725,57.6875,-0.11002575,-0.17376,2.5878500000000004,1.12785,1.5241560000000005,8.946771777777776,-179.88888888888889,-171.66666666666666,-183.5555555555556,1.6666666666666667,39.22222222222222,-230.44444444444449,-1007.6666666666666,-141.0,324.77777777777777,1016.6467777777776,-3.873775888888889,3687.0,-0.11002575,-0.0051321275,-0.17376,-0.1570604675,2.5878500000000004,-0.13569808,57690.0,14857.0,30130.0,-701.0,389.0,-48.0,0,None
2023-01-03 09:26:47,249.86,0.1060000000000002,74.0,1080.5,22831.5,4880.5,98.0,1061.1,181.3,4893.0,71.789344,3.649163,-0.1502936999999999,-0.1918026,2.4240208,57.784000000000006,-0.14560204,-0.19182662,2.4279416,1.11287929,1.4090068999999998,8.4029479,-168.75,51.85,-138.8,64.75,-9.65,-268.2,-1026.1,-146.35,312.75,1016.62715,-3.89333185,3688.5,-0.14560204,0.003279096,-0.19182662,0.0661635979999999,2.4279416,-0.1549787399999999,57780.0,13875.0,30220.0,-612.0,504.6666666666667,-58.66666666666666,0,None
2023-01-03 09:26:48,250.899,0.1224999999999987,74.0,991.0,22840.5,4895.0,98.0,1019.375,184.25,4900.5,71.00796125,3.683538875,-0.1725657,-0.1193519,2.3137552500000003,57.8125,-0.168280775,-0.1236712,2.32079525,1.2287978749999997,1.6170019375,7.778220624999999,-134.25,17.0625,-106.0,63.5625,23.25,-276.3125,-1008.8125,-61.4375,316.0,1016.6851875,-3.8352635,3690.3125,-0.16853066,0.018011902,-0.1235360599999999,0.0465740013999999,2.32044,-0.07859788,57800.0,13257.0,30240.0,-571.0,595.0,-58.0,0,None
2023-01-03 09:26:49,251.84844444444445,0.1088888888888877,74.0,918.0,22868.0,4902.0,98.0,992.2222222222222,186.77777777777777,4895.444444444444,70.32864444444444,3.715602111111111,-0.1580013,-0.0912367559999999,2.2510328,57.672,-0.15652136,-0.09576764,2.2590258,1.294541,1.9208656666666664,9.573393,-168.88888888888889,28.444444444444443,-97.22222222222224,13.22222222222222,29.0,-267.0,-1042.7777777777778,-37.44444444444444,317.44444444444446,1016.8087777777778,-3.711562555555556,3691.8888888888887,-0.15652136,0.033792156,-0.09576764,0.0461311493999999,2.2590258,-0.0307021446,57720.0,12986.0,30160.0,-554.0,639.5,-48.0,0,None
2023-01-03 09:26:50,252.862,0.104000000000002,74.0,1022.5,22832.5,4903.0,98.0,1012.6,189.6,4895.7,69.58466000000001,3.7468716,-0.1480215,-0.06387192,2.2217446,57.504,-0.14792292,-0.068787854,2.2300254,1.2728622,1.7094112,9.2689138,-178.45,22.3,-99.05,37.75,10.0,-270.75,-1022.05,-14.1,323.2,1016.77525,-3.74505475,3693.7,-0.14792292,0.02533157556,-0.068787854,0.029768254,2.2300254,-0.0235722251999999,57515.0,12791.5,29955.0,-537.0,672.5,-35.0,0,None
2023-01-03 09:26:51,253.86844444444444,0.1044444444444441,74.0,1119.0,22795.0,4901.5,98.0,1058.5555555555557,192.44444444444449,4901.444444444444,68.84377,3.771174555555556,-0.14666025,-0.0605411074999999,2.21634725,57.5275,-0.14633635,-0.0656654674999999,2.224408,1.2290005555555557,1.6603927777777776,10.597003,-192.66666666666663,3.111111111111111,-94.22222222222224,28.22222222222222,17.77777777777778,-272.3333333333333,-1057.7777777777778,-17.77777777777778,333.3333333333333,1016.7519999999998,-3.7685327777777777,3695.444444444444,-0.14633635,0.0027057182499999,-0.0656654674999999,-0.034337485,2.224408,-0.007376825,57525.0,12756.0,29965.0,-531.0,680.5,-31.0,0,None
2023-01-03 09:26:52,254.82200000000003,0.0999999999999999,74.0,1155.5,22778.5,4896.5,98.0,1044.2,195.1,4899.5,68.158662,3.7881984,-0.14752184,-0.06089942,2.207755,57.55,-0.14893912,-0.0656415039999999,2.214855,1.1543378,1.5378938,9.5707451,-210.7,28.0,-94.7,-15.1,5.8,-270.6,-1065.7,-14.0,328.0,1016.7152000000002,-3.8053125,3696.7,-0.14893912,6.372800000001375e-06,-0.0656415039999999,0.0042250342,2.214855,-0.005962043,57545.0,12691.0,29985.0,-513.0,674.5,-37.0,0,None
2023-01-03 09:26:53,255.82200000000003,0.1019999999999981,74.0,1040.0,22808.5,4896.5,98.0,968.2,198.0,4900.0,67.51777200000001,3.801923800000001,-0.13872588,-0.141173956,2.1671348000000004,57.56999999999999,-0.1402811399999999,-0.14623925,2.1742014000000003,1.2552417000000002,1.7521681,11.9273565,-170.5,-205.5,-84.1,19.7,36.2,-288.9,-1041.7,-108.9,299.3,1016.7615,-3.7589766,3698.4,-0.1402811399999999,0.0331716909999999,-0.14623925,-0.1909437788,2.1742014000000003,-0.1104099642,57565.0,12463.5,30005.0,-483.0,682.5,-36.5,0,None
2023-01-03 09:26:54,256.87,0.1060000000000002,74.0,1275.0,22754.0,4896.5,98.0,1102.3,200.8,4896.2,66.93104000000001,3.8112826000000006,-0.15585436,-0.2051494199999999,1.95048,57.462,-0.15751742,-0.20721454,1.9565568,1.1923454900000003,1.5610499,8.665336100000001,-155.95,70.95,-24.65,9.6,7.45,-331.85,-1070.85,-196.9,269.15,1016.7541,-3.76633985,3700.1,-0.15751742,0.0240128204,-0.20721454,0.0614820311999999,1.9565568,-0.1950933,57465.0,11215.0,29905.0,-321.0,750.5,-31.0,0,None
2023-01-03 09:26:55,257.865,0.1045555555555589,74.0,1051.5,22787.0,4892.5,98.0,1012.0,203.88888888888889,4897.666666666667,66.29483222222223,3.817460444444445,-0.18120792,-0.098694942,1.8127292,57.53399999999999,-0.1834670999999999,-0.104555266,1.8200218,1.2045902222222222,1.777726777777778,10.797657666666666,-175.55555555555554,51.66666666666666,15.444444444444445,5.555555555555555,-7.333333333333333,-315.8888888888889,-1078.4444444444443,-86.33333333333333,289.77777777777777,1016.7391111111114,-3.781206333333334,3701.777777777778,-0.1834670999999999,0.0373486287999999,-0.104555266,0.0526431299999999,1.8200218,-0.055419224,57540.0,10420.5,29980.0,-197.5,809.5,-29.5,0,None
2023-01-03 09:26:56,258.855,0.1039999999999963,74.0,1031.0,22798.0,4894.5,98.0,1050.4,206.7,4890.3,65.649072,3.8206618,-0.15316804,-0.0851511039999999,1.7342593999999998,57.596,-0.15747738,-0.09100492,1.7437742,1.2275779,1.7035902999999997,11.246833100000002,-201.8,-84.0,35.45,13.55,92.15,-310.05,-1061.15,-86.1,298.5,1016.7525000000002,-3.7679922,3703.4,-0.15747738,0.149006534,-0.09100492,-0.119491388,1.7437742,-0.096096916,57595.0,9995.0,30035.0,-150.5,842.5,-25.0,0,None
2023-01-03 09:26:57,259.845,0.1044444444444441,73.5,1073.5,22805.0,4900.0,98.0,1048.0,209.44444444444449,4891.111111111111,65.0183188888889,3.817931111111111,-0.1182686749999999,-0.1969547,1.575905,57.5925,-0.1248672,-0.198222475,1.58590425,1.1432964444444442,1.7957676666666664,11.891031444444444,-196.3333333333333,-63.11111111111112,64.44444444444444,11.555555555555555,22.33333333333333,-332.55555555555554,-976.1111111111112,-240.22222222222223,259.8888888888889,1016.7672222222222,-3.7532464444444447,3704.6666666666665,-0.1248672,-0.0126120074999999,-0.198222475,-0.1221560625,1.58590425,-0.2382801,57600.0,8937.5,30040.0,-14.5,833.0,-23.0,0,None
2023-01-03 09:26:58,260.833,0.104000000000002,73.0,1124.5,22784.0,4884.0,98.0,964.3,212.2,4900.2,64.35088200000001,3.8046362,-0.16188248,-0.136252782,1.3913276,57.61999999999999,-0.1674559,-0.137065852,1.3978468,1.2563128,1.9199808,13.1722388,-170.75,77.35,134.1,11.8,-2.5,-308.8,-1027.35,-153.6,249.8,1016.7429499999998,-3.7774844,3705.95,-0.1674559,0.071859344,-0.137065852,0.0376479985999999,1.3978468,-0.137398256,57625.0,7827.0,30065.0,142.0,814.0,-22.5,0,None
2023-01-03 09:26:59,261.8806,0.1038999999999986,73.0,1040.0,22811.0,4898.0,98.0,1083.2,215.3,4896.7,63.665384,3.7832098,-0.17203386,-0.065156918,1.2862490000000002,57.652,-0.17830742,-0.06707149,1.292093,1.1884729,1.4418498000000002,8.9565351,-154.9,18.4,162.6,1.9,52.3,-289.8,-1040.5,-54.2,271.9,1016.6774,-3.843093800000001,3707.5,-0.17830742,0.066893432,-0.06707149,0.0446259854,1.292093,-0.078067688,57675.0,7311.5,30115.0,220.5,820.0,-27.0,0,None
2023-01-03 09:27:00,262.86488888888886,0.1045555555555589,73.0,1048.0,22807.5,4898.0,98.0,1037.2222222222222,218.11111111111111,4900.333333333333,62.97268777777778,3.756370111111112,-0.123191542,-0.0995958659999999,1.2098337999999995,57.728,-0.13170742,-0.09962855,1.2173952,1.1911276666666666,1.5952473333333332,10.26585277777778,-188.22222222222223,-157.88888888888889,171.88888888888889,30.666666666666668,128.22222222222223,-280.0,-1079.4444444444443,-88.44444444444444,268.55555555555554,1016.6856666666667,-3.834739333333333,3708.555555555556,-0.13170742,0.1346311439999999,-0.09962855,-0.175816594,1.2173952,-0.0891037134,57710.0,7066.0,30150.0,251.0,816.0,-34.0,0,None
2023-01-03 09:27:01,263.8568,0.1038999999999987,73.0,896.5,22825.5,4899.5,98.0,929.4,220.8,4892.5,62.35598600000001,3.7248526,-0.063745918,-0.2892687400000001,0.92890818,57.648,-0.072724596,-0.28224968,0.93411816,1.14045644,2.3048505,15.600979999999998,-170.25,-92.75,207.05,-72.95,32.35,-301.65,-1151.55,-363.85,215.8,1016.84665,-3.6738515,3710.1,-0.072724596,0.0566367561999999,-0.28224968,-0.038444594,0.93411816,-0.37351748,57715.0,5988.5,30155.0,355.0,694.5,-32.5,0,None
2023-01-03 09:27:02,264.84666666666664,0.1044444444444441,73.0,1127.0,22780.0,4887.5,98.0,1094.0,223.5555555555556,4893.777777777777,61.78734666666667,3.677201,-0.155895125,-0.1725501499999999,0.6195629500000001,57.475,-0.163188575,-0.167336775,0.613544725,1.0157984777777778,1.371155,9.401802222222225,-150.44444444444446,145.66666666666666,296.3333333333333,-56.22222222222222,3.888888888888889,-213.3333333333333,-1057.4444444444443,-283.0,219.88888888888889,1016.712,-3.808533,3711.222222222222,-0.163188575,-0.0085106242499999,-0.167336775,0.150173425,0.613544725,-0.267221625,57485.0,3856.5,29925.0,578.5,447.0,-18.0,0,None
2023-01-03 09:27:03,265.833,0.1040999999999996,73.0,1123.0,22777.5,4901.5,98.0,1059.9,226.6,4898.8,61.277490000000014,3.6200326,-0.16037186,-0.056902528,0.4465953,57.622,-0.1692249,-0.0525921539999999,0.43706632,0.9751850600000004,1.3443649,8.496716500000002,-159.9,54.5,327.95,-66.3,22.55,-131.65,-1032.1,-126.25,243.1,1016.6073,-3.9131132000000006,3712.6,-0.1692249,0.0827264559999999,-0.0525921539999999,0.0330352539999999,0.43706632,-0.12560796,57605.0,2572.5,30045.0,706.0,329.5,-27.5,0,None
2023-01-03 09:27:04,266.8807,0.104000000000002,73.0,964.0,22818.5,4902.0,98.0,1017.4,229.7,4892.2,60.925072000000014,3.5675662000000004,-0.13874386,-0.00941387688,0.34635176,57.760000000000005,-0.14926024,-0.0026344018,0.3376208,0.91766174,1.3713498,10.2927629,-141.5,30.8,334.6,-64.1,37.7,-82.9,-1003.3,-61.2,265.8,1016.6078,-3.9125938,3714.1,-0.14926024,0.00427673,-0.0026344018,0.01970888,0.3376208,-0.084895016,57755.0,1972.5,30195.0,758.0,272.0,-44.0,0,None
2023-01-03 09:27:05,267.865,0.1044444444444441,73.0,814.0,22842.0,4901.0,98.0,963.2222222222222,232.3333333333333,4902.222222222223,60.71511777777778,3.518623111111111,-0.106563256,-0.0334015066,0.27810612,57.75,-0.1178043299999999,-0.024507936,0.27112134,0.937744322222222,1.4721032222222223,10.957201888888887,-150.88888888888889,-146.77777777777777,328.22222222222223,-75.11111111111111,72.33333333333333,-73.22222222222223,-966.0,-77.44444444444444,273.44444444444446,1016.695222222222,-3.825303777777778,3714.8888888888887,-0.1178043299999999,0.0794156888,-0.024507936,-0.141285572,0.27112134,-0.120575708,57760.0,1632.0,30200.0,778.0,234.5,-38.0,0,None
2023-01-03 09:27:06,268.8549,0.1039999999999963,73.0,871.5,22835.0,4884.5,98.0,878.1,234.8,4899.4,60.675558,3.4770502,-0.0880894919999999,-0.1738447,0.0353722099999999,57.59,-0.097104422,-0.15794544,0.0285736519999999,0.8906635100000001,1.9547802000000003,13.364621,-126.25,-36.5,330.9,-78.95,10.3,-52.1,-1124.65,-299.2,276.5,1016.7771,-3.7433554,3716.2,-0.097104422,-0.0004935603999999,-0.15794544,-0.0147947479999999,0.0285736519999999,-0.2980393,57610.0,18346.5,30050.0,782.0,66.0,-22.5,0,None
2023-01-03 09:27:07,269.8446666666666,0.1044444444444441,73.0,977.0,22797.5,4885.0,98.0,947.3333333333334,237.22222222222223,4897.333333333333,60.82013444444445,3.438512888888889,-0.11626745,-0.0806081525,-0.166773125,57.5175,-0.121299225,-0.0655404075,-0.181185875,0.9846402444444444,1.4934578888888888,11.325318888888887,-134.0,102.22222222222224,326.77777777777777,-84.11111111111111,28.0,22.22222222222222,-1026.4444444444443,-144.22222222222223,274.55555555555554,1016.6516666666666,-3.8688193333333327,3717.0,-0.121299225,0.01847114275,-0.0655404075,0.1030050399999999,-0.181185875,-0.1225377425,57520.0,34969.5,29960.0,783.5,-133.5,-20.5,0,None
2023-01-03 09:27:08,270.833,0.104000000000002,73.0,1067.0,22781.5,4897.0,98.0,1036.7,240.0,4893.4,61.119882,3.4035068,-0.1067571599999999,-0.0069516339999999,-0.2375319,57.648,-0.1123285799999999,0.00653308582,-0.25312644,0.80867164,1.2879055,11.3830161,-130.45,31.15,318.95,-62.85,18.8,66.85,-1000.8,-43.45,273.6,1016.60905,-3.9114337,3718.2,-0.1123285799999999,-0.0077941643999999,0.00653308582,0.040736058,-0.25312644,-0.0554266759999999,57665.0,34511.0,30105.0,781.5,-220.0,-28.5,0,None
2023-01-03 09:27:09,271.8788,0.104000000000002,73.0,959.0,22814.5,4901.0,98.0,937.2,243.0,4896.3,61.476846,3.3743052000000007,-0.08259376,-0.043160135,-0.3233097,57.73199999999999,-0.088180338,-0.028598142,-0.33651456,0.86286845,1.4542761,10.6039374,-109.0,-80.6,307.9,-55.0,32.8,83.7,-1034.6,-142.8,282.4,1016.6992000000002,-3.8211405,3719.3,-0.088180338,0.110456848,-0.028598142,-0.081476928,-0.33651456,-0.137942154,57730.0,33982.0,30170.0,768.5,-279.5,-34.5,0,None
2023-01-03 09:27:10,272.86711111111106,0.1066666666666643,73.0,814.0,22855.0,4889.0,98.0,887.8888888888889,245.44444444444449,4901.0,61.91933666666667,3.3497421111111114,-0.091487154,-0.051858982,-0.4659039,57.604,-0.095310574,-0.035767872,-0.4809385,1.0015871111111112,1.7491085555555557,13.164673333333331,-120.22222222222224,19.666666666666668,285.55555555555554,-57.333333333333336,2.555555555555556,107.33333333333331,-1130.888888888889,-130.0,283.3333333333333,1016.7544444444444,-3.765885333333333,3720.222222222222,-0.095310574,0.0327269224,-0.035767872,0.0049896068,-0.4809385,-0.1115914839999999,57585.0,33172.5,30025.0,754.0,-368.5,-24.0,0,None
2023-01-03 09:27:11,273.85889999999995,0.1019999999999981,73.0,956.5,22802.5,4888.5,98.0,1002.3,248.1,4897.4,62.423506,3.3293234000000007,-0.070028062,-0.0225351279999999,-0.53115168,57.512,-0.07316693,-0.0074872722,-0.54653334,0.8034640399999999,1.3937145000000002,10.789096,-85.8,29.45,266.6,-52.45,7.25,142.1,-1041.1,-50.9,301.95,1016.69955,-3.8208591,3720.85,-0.07316693,-0.0209123476,-0.0074872722,-0.008243278,-0.54653334,-0.0468055446,57515.0,32847.5,29955.0,730.5,-426.0,-21.0,0,None
2023-01-03 09:27:12,274.8809,0.1020000000000038,73.0,1004.0,22803.5,4899.0,98.0,1037.6,250.9,4882.8,63.010954000000005,3.3094290000000006,-0.07483784,-0.01634961,-0.5738568399999999,57.518,-0.077238004,-0.00213956544,-0.59153874,0.79764467,1.2737664000000002,8.8577786,-99.7,-12.9,260.8,-38.5,-1.0,142.8,-1026.3,-44.0,286.2,1016.6704000000002,-3.8500781,3722.0,-0.077238004,-0.0224406094,-0.00213956544,-0.0320105668,-0.59153874,-0.061572272,57520.0,32584.5,29960.0,717.5,-460.5,-23.0,0,None
2023-01-03 09:27:13,275.8668888888889,0.1043333333333293,73.0,1083.5,22773.5,4899.0,98.0,1124.7777777777778,253.77777777777777,4902.444444444444,63.68846666666666,3.288729111111111,-0.0752818949999999,-0.0030125085,-0.6010427249999999,57.565,-0.077904005,0.011578278,-0.6202246499999999,0.7124028444444445,1.1413380222222225,8.157815999999999,-85.33333333333333,36.0,254.22222222222223,-39.11111111111112,2.111111111111111,161.66666666666666,-1067.5555555555557,-27.0,289.44444444444446,1016.5935555555554,-3.926831555555555,3722.555555555556,-0.077904005,-0.0060145599999999,0.011578278,0.0423534125,-0.6202246499999999,-0.0256096629999999,57560.0,32446.0,30000.0,708.0,-493.0,-32.0,0,None
2023-01-03 09:27:14,276.86060000000003,0.104000000000002,73.0,1045.5,22780.0,4886.5,98.0,1045.9,257.1,4894.8,64.34157200000001,3.271837599999999,-0.073363818,0.019350777,-0.6026503400000001,57.654,-0.07566271,0.033170096,-0.62435218,0.7854242499999999,1.24962188,7.0874383,-80.05,31.65,247.4,-59.15,9.55,14334.91666666667,-1002.75,14.3,284.45,1016.5666,-3.95374595,3723.1,-0.07566271,-0.0101154746,0.033170096,0.0263377096,-0.62435218,0.0055145737999999,57630.0,32401.5,30070.0,702.0,-515.5,-31.5,1,27_ymag_avg_drift_202.47500000000005
2023-01-03 09:27:15,277.845,0.1045555555555526,73.0,1027.0,22781.5,4881.5,98.0,1018.2222222222222,259.77777777777777,4895.333333333333,65.00979333333333,3.258577444444444,-0.069035188,-0.0004026279999999,-0.59562972,57.664,-0.0722543279999999,0.01161814898,-0.61849186,0.7608437777777779,1.2297955555555555,10.440922888888888,-98.0,-71.88888888888889,250.11111111111111,-86.66666666666667,24.444444444444443,14537.39166666667,-1103.2222222222222,-53.0,290.55555555555554,1016.6153333333336,-3.905104111111112,3724.0,-0.0722543279999999,0.0166253342,0.01161814898,-0.07429012,-0.61849186,-0.046121488,57690.0,32493.5,30130.0,687.5,-532.0,-39.5,1,27_ymag_avg_drift_202.47500000000005
2023-01-03 09:27:16,278.8329,0.104000000000002,73.0,928.5,22786.5,4895.0,98.0,959.5,262.5,4890.0,65.69136999999999,3.2506052,-0.064557388,-0.0064964196,-0.66926904,57.578,-0.066420362,0.0057332022,-0.69299342,0.75287468,1.3648599,12.1521179,-94.85,19.6,235.3,-47.55,1.65,14739.86666666667,-1082.1,-83.85,299.3,1016.6605,-3.85974985,3724.7,-0.066420362,0.038751876,0.0057332022,0.055107204,-0.69299342,-0.081196504,57590.0,32102.5,30030.0,644.5,-573.0,-28.0,1,27_ymag_avg_drift_202.47500000000005
2023-01-03 09:27:17,279.8788,0.104000000000002,73.0,987.5,22788.5,4894.0,98.0,981.8,265.3,4889.2,66.35593200000001,3.2467514,-0.068039034,0.012532404,-0.72100756,57.492,-0.068732574,0.023420668,-0.74610724,0.7769371899999999,1.3316469,12.3425756,-91.3,-9.4,224.9,-67.1,-17.1,14942.341666666669,-1086.3,-57.0,293.1,1016.6587,-3.8618124,3725.4,-0.068732574,0.047017546,0.023420668,0.0187562127999999,-0.74610724,-0.0447435896,57505.0,31783.5,29945.0,625.0,-602.0,-23.5,1,27_ymag_avg_drift_202.47500000000005
2023-01-03 09:27:18,280.86477777777776,0.1044444444444441,73.0,1037.0,22755.0,4881.0,98.0,1028.6666666666667,268.0,4901.111111111111,67.02269777777776,3.246265,-0.0692173575,0.0150544685,-0.757681825,57.5225,-0.06947445,0.0256511525,-0.783818175,0.6891576222222223,1.2266385555555557,10.663195333333334,-78.33333333333333,24.0,206.88888888888889,-63.0,6.444444444444445,15144.81666666667,-1009.4444444444443,-27.22222222222222,287.6666666666667,1016.6042222222222,-3.916327888888889,3726.1111111111113,-0.06947445,-0.01624322845,0.0256511525,0.02694449,-0.783818175,-0.0460476475,57505.0,31531.0,29945.0,604.5,-622.5,-24.5,1,27_ymag_avg_drift_202.47500000000005
2023-01-03 09:27:19,281.8569,0.1038999999999987,73.0,994.5,22776.0,4895.5,98.0,1018.4,271.0,4893.8,67.630462,3.2490166,-0.07318388,0.0288259219999999,-0.7784734600000001,57.572,-0.072197684,0.039132728,-0.8047730200000001,0.70660979,1.1837218,10.6543301,-91.9,10.45,206.4,-40.25,7.85,15347.29166666667,-1060.45,-19.3,298.55,1016.61905,-3.9015077000000007,3726.7,-0.072197684,0.0040273368,0.039132728,0.003478274,-0.8047730200000001,-0.026280722,57575.0,31389.5,30015.0,588.5,-635.0,-27.0,1,27_ymag_avg_drift_202.47500000000005
2023-01-03 09:27:20,282.8448888888889,0.1045555555555526,73.0,1039.0,22776.0,4902.0,98.0,1030.2222222222222,273.6666666666667,4896.444444444444,68.19664777777777,3.254523888888889,-0.0702230319999999,0.0139340659999999,-0.7966426199999999,57.554,-0.068491736,0.024155864,-0.82384628,0.7154805,1.1948233333333331,10.35796277777778,-87.44444444444444,-91.55555555555556,204.88888888888889,-65.88888888888889,37.55555555555556,15549.76666666667,-1032.5555555555557,-27.11111111111111,283.44444444444446,1016.625,-3.8954946666666666,3727.222222222222,-0.068491736,0.073292924,0.024155864,-0.0902720436,-0.82384628,-0.048608178817,57560.0,31292.5,30000.0,583.0,-643.0,-26.0,1,27_ymag_avg_drift_202.47500000000005
2023-01-03 09:27:21,283.833,0.104000000000002,73.0,1015.0,22781.5,4902.0,98.0,999.4,276.5,4893.9,68.724848,3.2640524,-0.029884116,-0.1457243,-0.95090414,57.52,-0.028702968,-0.1328214999999999,-0.97774052,0.71874807,1.10998841,11.0062707,-70.1,-98.0,163.45,-41.9,48.9,15752.24166666667,-1061.4,-217.4,333.7,1016.6817,-3.8388553,3727.8,-0.028702968,0.04826769,-0.1328214999999999,-0.0473180537999999,-0.97774052,-0.22378838,57520.0,30374.5,29960.0,481.5,-697.5,-22.5,1,27_ymag_avg_drift_202.47500000000005
2023-01-03 09:27:22,284.87690000000003,0.104000000000002,72.5,1042.5,22767.5,4903.0,98.0,1045.6,279.4,4890.4,69.227528,3.278415,-0.051770562,-0.102189496,-1.145579,57.48,-0.048092506,-0.092794496,-1.1753747999999995,0.7507628599999999,1.1777808,10.7474756,-69.6,60.3,107.9,-37.2,4.1,15954.71666666667,-1046.9,-142.2,341.0,1016.6726,-3.8478514000000006,3728.4,-0.048092506,-0.0215795208,-0.092794496,0.062757482,-1.1753747999999995,-0.15013492,57475.0,29249.0,29915.0,329.5,-767.5,-18.0,1,27_ymag_avg_drift_202.47500000000005
2023-01-03 09:27:23,285.865,0.1044444444444441,72.0,1067.5,22751.5,4888.5,98.0,1068.4444444444443,282.3333333333333,4899.222222222223,69.74314555555556,3.295345777777778,-0.069514935,-0.0602411224999999,-1.2534755,57.4675,-0.0643302875,-0.0530528625,-1.2838102500000002,0.7395309555555556,1.1403249,8.977861222222224,-81.77777777777777,29.0,80.66666666666667,-27.0,0.0,16157.19166666667,-1065.0,-100.44444444444444,327.55555555555554,1016.647,-3.8734546666666665,3729.0,-0.0643302875,-0.0088871747499999,-0.0530528625,0.02594392525,-1.2838102500000002,-0.09669381,57460.0,28580.0,29900.0,240.5,-805.5,-11.0,1,27_ymag_avg_drift_202.47500000000005
2023-01-03 09:27:24,286.85689999999994,0.1039999999999963,72.0,1092.5,22744.5,4880.0,98.0,1092.2,285.4,4893.9,70.193228,3.311461,-0.070836954,-0.03336345,-1.3347668,57.476,-0.0649987579999999,-0.026394634,-1.3652488000000005,0.76028206,1.25177458,7.444552300000001,-77.45,20.05,59.1,-29.1,18.15,16359.66666666667,-1041.9,-67.55,320.35,1016.62215,-3.898515449999999,3729.2,-0.0649987579999999,0.0007612374,-0.026394634,0.022291194,-1.3652488000000005,-0.070359942,57490.0,28093.0,29930.0,188.5,-833.0,-14.0,1,27_ymag_avg_drift_202.47500000000005
2023-01-03 09:27:25,287.845,0.1044444444444441,72.0,1162.5,22742.5,4894.5,98.0,1108.5555555555557,288.3333333333333,4890.222222222223,70.58560444444444,3.327168333333333,-0.00663602624,-0.1769193839999999,-1.4665826,57.512,-0.0003478515999999,-0.168302268,-1.496025,0.7082634666666667,1.1869283555555556,6.541647777777778,-76.88888888888889,-249.66666666666663,14.77777777777778,-16.88888888888889,130.66666666666666,16562.141666666674,-1054.7777777777778,-217.66666666666663,358.0,1016.6172222222224,-3.903168444444444,3730.0,-0.0003478515999999,0.12174341,-0.168302268,-0.222109472,-1.496025,-0.231651186,57510.0,27550.0,29950.0,115.0,-832.0,-11.0,1,27_ymag_avg_drift_202.47500000000005
2023-01-03 09:27:26,288.833,0.104000000000002,72.0,1245.5,22704.5,4874.0,98.0,1202.0,291.7,4890.4,70.936584,3.3464662,-0.05274771,-0.2060417199999999,-1.77056,57.534000000000006,-0.0448294279999999,-0.19785594,-1.7995308,0.7061605700000001,1.1576661,6.1025923,-69.45,79.4,-55.75,-12.2,-7.4,16764.616666666672,-1063.85,-288.1,384.75,1016.59185,-3.92879285,3730.4,-0.0448294279999999,0.0094922755999999,-0.19785594,0.09800651,-1.7995308,-0.27292968,57525.0,26173.0,29965.0,-73.5,-791.5,-19.5,1,27_ymag_avg_drift_202.47500000000005
2023-01-03 09:27:27,289.879,0.104000000000002,72.0,993.0,22714.0,4878.5,98.0,1037.1,294.9,4891.4,71.279264,3.3678114,-0.08339451,-0.1199733999999999,-1.9806356,57.604,-0.0732143859999999,-0.1170942,-2.0069378,0.92892194,1.26387039,7.4297983,-82.1,33.3,-104.4,-1.2,19.1,16967.09166666667,-1031.2,-154.0,358.9,1016.5887,-3.9317578000000006,3730.9,-0.0732143859999999,0.0428556157999999,-0.1170942,0.03765831042,-2.0069378,-0.1404481,57580.0,24775.0,30020.0,-255.0,-759.5,-18.0,1,27_ymag_avg_drift_202.47500000000005
2023-01-03 09:27:28,290.89700000000005,0.0999999999999999,72.0,1052.0,22708.5,4891.5,98.0,1088.2,297.8,4892.0,71.645994,3.3886456000000003,-0.066216092,-0.09885826,-2.0940834,57.604,-0.0553769418,-0.0963647619999999,-2.117755,0.96899316,1.2698962,10.1749589,-103.8,-12.9,-138.6,-4.9,77.5,167.3,-1043.3,-79.1,357.4,1016.5538,-3.9666406,3731.4,-0.0553769418,0.1289759458,-0.0963647619999999,-0.0616073099999999,-2.117755,-0.0868575219999999,57600.0,24003.0,30040.0,-357.0,-748.5,-23.5,0,None
2023-01-03 09:27:29,291.895,0.0999999999999999,72.0,995.5,22723.0,4898.5,98.0,985.7,300.6,4893.0,71.992652,3.4072774000000003,0.0375451902,-0.29779794,-2.3067082,57.65200000000001,0.0461585524,-0.2926875399999999,-2.3275778000000003,0.92609038,1.246874,14.170528,-57.6,-208.1,-208.6,19.5,109.7,82.2,-1042.7,-308.2,352.0,1016.5843,-3.9361951,3732.0,0.0461585524,0.084968492,-0.2926875399999999,-0.1564513839999999,-2.3275778000000003,-0.34656454,57645.0,23208.5,30085.0,-436.5,-675.5,-22.0,0,None
2023-01-03 09:27:30,292.865,0.1044444444444441,72.0,1078.0,22717.5,4900.5,98.0,1064.7777777777778,303.3333333333333,4897.111111111111,72.32718555555556,3.4280657777777783,-0.09012112,-0.299755125,-2.6519625,57.6125,-0.077022895,-0.297557425,-2.66928,1.0138753666666669,1.3844197777777776,13.44489,-88.44444444444444,96.55555555555556,-231.3333333333333,14.0,-20.0,-16.11111111111111,-1082.6666666666667,-390.8888888888889,364.55555555555554,1016.5039999999998,-4.016579777777778,3732.222222222222,-0.077022895,-0.0198400312499999,-0.297557425,0.107016905,-2.66928,-0.376522875,57610.0,21131.5,30050.0,-585.5,-414.0,-28.5,0,None
2023-01-03 09:27:31,293.855,0.1039999999999963,72.0,955.0,22743.5,4889.5,98.0,1029.6,306.4,4897.9,72.63619,3.4533538,-0.14193036,-0.17838054,-2.898652,57.664,-0.1273406,-0.1830634399999999,-2.9094172,1.05684085,1.3803542,11.324777999999998,-111.55,62.6,-228.3,28.45,57.0,-41.1,-1033.5,-162.05,372.3,1016.4737,-4.04682015,3732.75,-0.1273406,0.0769469814,-0.1830634399999999,0.0480791692,-2.9094172,-0.16669228,57660.0,19418.0,30100.0,-715.0,-228.5,-31.5,0,None
2023-01-03 09:27:32,294.875,0.0999999999999999,72.0,1001.0,22744.5,4889.0,98.0,986.4,309.2,4886.0,72.92923599999997,3.4797408000000005,-0.1187256,-0.1262478199999999,-3.0150708,57.722,-0.1060297819999999,-0.1321979,-3.02048,1.07603389,1.5295352,8.7975818,-118.9,22.6,-242.3,27.3,44.8,-74.8,-1057.0,-74.3,343.1,1016.4987,-4.0217499000000005,3733.2,-0.1060297819999999,0.0439192,-0.1321979,0.0175056653399999,-3.02048,-0.077193694,57730.0,18735.5,30170.0,-784.5,-145.5,-39.0,0,None
2023-01-03 09:27:33,295.883,0.1020000000000038,72.0,940.0,22749.0,4902.0,98.0,953.2,311.9,4894.2,73.182632,3.506602,-0.100878062,-0.0991080179999999,-3.071274,57.678,-0.087985182,-0.104926314,-3.0761386,1.0223603,1.4945632999999998,11.562397400000002,-102.3,14.4,-248.1,33.2,21.2,-63.0,-1038.4,-17.4,351.4,1016.5357,-3.984828100000001,3733.6,-0.087985182,0.0210914057999999,-0.104926314,0.014211309,-3.0761386,-0.021673585,57690.0,18397.0,30130.0,-805.5,-93.0,-37.0,0,None
2023-01-03 09:27:34,296.89700000000005,0.0999999999999999,72.0,1072.0,22730.5,4893.0,98.0,1022.3,314.6,4890.3,73.361978,3.533561,-0.066981828,-0.2013094659999999,0.6141012000000001,57.564,-0.054950864,-0.203139252,0.6103354000000002,1.02793724,1.4645349,10.8498084,-125.3,-187.1,-259.0,5.2,61.3,-106.6,-1043.5,-175.7,335.4,1016.5311,-3.9895545,3734.0,-0.054950864,0.067247244,-0.203139252,-0.167448694,0.6103354000000002,-0.166132454,57580.0,18001.0,30020.0,-802.0,-35.0,-31.0,0,None
2023-01-03 09:27:35,297.895,0.0999999999999999,72.0,1039.5,22712.0,4889.0,98.0,1123.3,317.6,4893.9,73.423372,3.5595190000000003,-0.12235193,-0.2273303599999999,2.898332,57.552,-0.109374198,-0.22905934,2.898362,0.9045256700000002,1.3307683,8.9768688,-137.1,73.6,-220.3,41.6,-13.1,-176.5,-1057.2,-202.2,323.1,1016.4085,-4.1119298,3734.3,-0.109374198,-0.01997796,-0.22905934,0.067083384,2.898362,-0.19794638,57540.0,16694.0,29980.0,-754.5,141.0,-28.0,0,None
2023-01-03 09:27:36,298.895,0.0999999999999999,71.0,1230.0,22685.5,4894.0,98.0,1191.5,320.8,4896.9,73.401008,3.586864,-0.15284724,-0.14623466,2.7649524,57.678,-0.13957848,-0.15124858,2.7716248,0.9584798199999998,1.2677954,9.7077597,-149.6,48.7,-199.2,47.7,0.9,-188.1,-1050.2,-85.6,346.0,1016.3631,-4.1573045,3735.0,-0.13957848,0.01045788742,-0.15124858,0.049407832,2.7716248,-0.098121978,57670.0,15921.0,30110.0,-733.5,263.5,-41.0,0,None
2023-01-03 09:27:37,299.84944444444443,0.1022222222222176,71.0,971.5,22704.0,4890.0,97.66666666666669,1091.6666666666667,324.0,4891.777777777777,73.35528888888888,3.6144377777777774,-0.15175716,-0.103918146,2.6965542,57.752,-0.1399658,-0.109213136,2.7061514,0.9762629555555556,1.2822586666666669,9.383700555555556,-126.77777777777776,15.11111111111111,-190.77777777777777,63.66666666666666,-9.0,-190.66666666666663,-1038.4444444444443,-47.66666666666666,347.8888888888889,1016.394222222222,-4.126180555555556,3735.222222222222,-0.1399658,0.006944774,-0.109213136,0.0015438057999999,2.7061514,-0.063095198,57750.0,15534.0,30190.0,-729.0,322.5,-43.0,0,None
2023-01-03 09:27:38,300.81499999999994,0.0999999999999999,71.0,978.0,22716.5,4895.5,97.0,1025.0,326.6666666666667,4892.0,73.281756,3.6422134,-0.1436774,-0.087540566,2.6528564,57.67,-0.1326407799999999,-0.09200039,2.6625318,1.14189571,1.4203155,10.3554072,-141.6,13.7,-183.8,17.5,29.8,-196.7,-1015.2,-26.2,350.8,1016.5392,-3.9814375,3735.9,-0.1326407799999999,0.022065728,-0.09200039,0.0361134988,2.6625318,-0.038132318,57690.0,15268.5,30130.0,-739.0,360.0,-43.5,0,None
2023-01-03 09:27:39,301.81699999999995,0.0999999999999999,71.0,937.5,22756.5,4885.0,97.0,952.6,329.4,4897.9,73.16063399999999,3.666582,-0.12525856,-0.066034376,2.639116,57.448,-0.11552812,-0.069604558,2.6488416,1.1633492,1.8420536000000003,9.5053919,-142.6,36.3,-188.8,39.3,13.8,-200.2,-1080.8,5.3,334.1,1016.6301,-3.8903984,3736.0,-0.11552812,0.0206046874,-0.069604558,0.0389109979999999,2.6488416,0.0016882262,57460.0,15174.0,29900.0,-743.0,393.0,-19.5,0,None
2023-01-03 09:27:40,302.819,0.1020000000000038,71.0,924.0,22730.5,4888.0,97.0,907.6,332.0,4900.6,72.98904399999999,3.6868114,-0.12568952,-0.0541097579999999,2.6405009999999995,57.312,-0.1177500599999999,-0.058095798,2.6491644,1.1674203999999997,1.9458367000000003,10.3004426,-159.0,-7.1,-190.2,51.7,10.4,-186.3,-1049.9,-8.3,352.5,1016.6206999999998,-3.8996641,3736.8,-0.1177500599999999,0.0005413539999999,-0.058095798,-0.0095215659999999,2.6491644,0.0124551959999999,57315.0,15181.5,29755.0,-744.5,394.0,-12.5,0,None
2023-01-03 09:27:41,303.839,0.1019999999999981,71.0,929.0,22723.0,4898.0,97.0,962.0,334.8,4895.9,72.78993,3.7024256,-0.11033095,-0.130316534,2.6062324,57.266,-0.103111464,-0.13200954,2.6145082000000004,1.1730926,2.0341403,10.5355205,-146.15,-131.75,-188.35,51.95,44.5,-204.8,-1039.45,-76.65,341.55,1016.5944,-3.92610935,3737.0,-0.103111464,0.057071962,-0.13200954,-0.1346862828,2.6145082000000004,-0.0977311164,57270.0,15041.0,29710.0,-731.5,403.0,-8.0,0,None
2023-01-03 09:27:42,304.883,0.104000000000002,71.0,1085.5,22717.0,4893.0,97.0,1115.2,337.8,4888.3,72.577934,3.7141998,-0.14223856,-0.17387492,2.4404378,57.36800000000001,-0.13441442,-0.1755123,2.4510582,1.0889785899999995,1.3210478,8.5171198,-172.8,34.8,-155.5,32.0,-29.0,-269.4,-1023.1,-160.8,291.1,1016.4060000000002,-4.1144607,3737.3,-0.13441442,-0.05087009,-0.1755123,0.0401829739999999,2.4510582,-0.16356678,57345.0,14135.0,29785.0,-631.5,484.0,-21.0,0,None
2023-01-03 09:27:43,305.865,0.1044444444444441,71.0,1007.0,22732.5,4889.0,97.0,1023.2222222222222,340.55555555555554,4900.666666666667,72.34792888888889,3.7261826666666655,-0.1734334,-0.1141263674999999,2.3290015,57.51333333333333,-0.1639994,-0.1160366733333333,2.3408646666666666,1.2850123333333334,1.6221976666666664,8.242422333333334,-155.11111111111111,43.77777777777778,-113.44444444444444,32.0,12.666666666666666,-265.1111111111111,-1021.8888888888888,-73.66666666666667,324.6666666666667,1016.5013333333332,-4.019227444444444,3738.0,-0.1642607,0.018994784,-0.11998933,0.0714452975,2.34245625,-0.0787210875,57510.0,13420.5,29950.0,-557.5,567.5,-37.5,0,None
2023-01-03 09:27:44,306.87299999999993,0.1060000000000002,71.0,1057.5,22715.0,4885.0,97.0,1104.8,343.6,4892.9,72.13081600000001,3.738065,-0.1810872,-0.067112338,2.2787188000000005,57.422,-0.17332394,-0.07378406,2.2953146,1.1962847,1.5944428,9.5168871,-223.95,36.2,-101.9,33.95,-5.1,-264.7,-1020.9,-46.95,326.05,1016.4757,-4.04483565,3738.0,-0.17332394,0.012570146,-0.07378406,-0.0104628332,2.2953146,-0.0509047091999999,57420.0,13111.0,29860.0,-534.0,619.0,-22.5,0,None
2023-01-03 09:27:45,307.8918888888889,0.1088888888888845,71.0,1000.5,22732.5,4900.0,97.0,1024.6666666666667,346.6666666666667,4898.333333333333,71.91783777777779,3.749222777777778,-0.18813968,-0.0469955779999999,2.2385818,57.424,-0.18159162,-0.054870902,2.2577326,1.2692523333333334,1.818458222222222,8.560164333333333,-211.22222222222223,-11.055555555555555,-91.27777777777776,46.44444444444444,3.388888888888889,-262.27777777777777,-1068.0,-39.388888888888886,331.22222222222223,1016.4799444444444,-4.040442611111111,3738.777777777778,-0.18159162,0.01829924,-0.054870902,-0.0246304044,2.2577326,-0.034006082,57430.0,12918.5,29870.0,-541.5,637.5,-24.5,0,None
2023-01-03 09:27:46,308.8773,0.1020000000000038,71.0,922.5,22734.5,4896.0,97.0,978.3,349.4,4894.8,71.739568,3.7580612,-0.18208776,-0.062958626,2.2032904,57.444,-0.17619826,-0.069998824,2.2229968,1.419485111111111,2.2322817777777777,10.164405,-192.9,-3.9,-81.0,34.4,9.4,-271.5,-1045.4,-26.9,323.2,1016.5268,-3.9936249,3738.9,-0.17619826,-0.0346330319999999,-0.069998824,0.0171678514,2.2229968,-0.04735086,57450.0,12720.5,29890.0,-538.0,655.5,-24.5,0,None
2023-01-03 09:27:47,309.8695555555555,0.1044444444444441,71.0,997.0,22724.5,4893.0,97.0,1046.6666666666667,352.0,4893.555555555556,71.54877777777779,3.765862,-0.174039,-0.056778242,2.1914384,57.378,-0.16824486,-0.0637236499999999,2.2120758,1.349342222222222,1.8558492222222225,9.985203222222223,-191.22222222222223,-10.666666666666666,-80.11111111111111,29.33333333333333,24.22222222222222,-259.77777777777777,-1123.3333333333333,-23.0,341.8888888888889,1016.5092222222224,-4.011119777777777,3739.1111111111113,-0.16824486,0.078672034,-0.0637236499999999,-0.0089485886,2.2120758,-0.0122593617799999,57370.0,12662.5,29810.0,-533.5,680.0,-18.5,0,None
2023-01-03 09:27:48,310.8171,0.0980999999999994,71.0,985.5,22717.0,4890.0,97.0,922.0,354.6,4890.1,71.35434,3.7719872,-0.14746572,-0.118093746,2.1547732,57.384,-0.143303,-0.123653872,2.1757834000000003,1.2933779,2.2180592,11.861952399999998,-183.9,-158.7,-83.0,20.9,65.8,-278.3,-1006.5,-56.1,322.9,1016.5147,-4.0057499,3739.6,-0.143303,0.073105246,-0.123653872,-0.155343244,2.1757834000000003,-0.0847123656,57385.0,12426.0,29825.0,-503.5,699.0,-16.0,0,None
2023-01-03 09:27:49,311.8311,0.1019000000000005,71.0,949.5,22725.5,4893.0,97.0,933.3,357.4,4894.5,71.14769799999999,3.7757908,-0.14841586,-0.2146468399999999,1.9761454,57.32000000000001,-0.14435528,-0.21619122,1.9975042000000005,1.4547269,1.7109449,10.9048336,-168.0,15.9,-46.0,-8.1,-2.2,-328.4,-1016.4,-210.0,261.7,1016.6218,-3.898539,3740.0,-0.14435528,-0.003864654,-0.21619122,0.0304098442,1.9975042000000005,-0.20236656,57305.0,11328.5,29745.0,-334.5,757.0,-6.5,0,None
2023-01-03 09:27:50,312.8371,0.0999999999999999,71.0,1115.0,22683.5,4894.5,97.0,1127.6,360.2,4896.2,70.90819200000001,3.7770452,-0.19198346,-0.110558862,1.811536,57.322,-0.18771868,-0.116315454,1.8335052,1.1688609,1.8042486,11.0720927,-212.5,78.5,11.6,-2.2,1.8,-323.7,-964.4,-119.5,280.5,1016.3942,-4.1263125,3740.3,-0.18771868,-0.010085228,-0.116315454,0.07124227,1.8335052,-0.1106430059999999,57340.0,10439.0,29780.0,-213.0,803.5,-10.5,0,None
