00000_Time_epoch,00000_Time_boot_sec,00000_Span_Time_boot_sec,1_battery_remaining_avg,1_current_battery_avg,1_voltage_battery_avg,125_Vcc_avg,147_battery_remaining_avg,147_current_battery_avg,147_current_consumed_avg,165_Vcc_avg,168_direction_avg,168_speed_avg,178_pitch_avg,178_roll_avg,178_yaw_avg,182_altitude_avg,182_pitch_avg,182_roll_avg,182_yaw_avg,241_vibration_x_avg,241_vibration_y_avg,241_vibration_z_avg,27_xacc_avg,27_xgyro_avg,27_xmag_avg,27_yacc_avg,27_ygyro_avg,27_ymag_avg,27_zacc_avg,27_zgyro_avg,27_zmag_avg,29_press_abs_avg,29_press_diff_avg,29_temperature_avg,30_pitch_avg,30_pitchspeed_avg,30_roll_avg,30_rollspeed_avg,30_yaw_avg,30_yawspeed_avg,33_alt_avg,33_hdg_avg,33_relative_alt_avg,33_vx_avg,33_vy_avg,33_vz_avg,label,diagnosis
2022-12-21 12:58:08,263.449,-0.0571428571428539,100.0,85.0,24741.0,4875.0,99.0,91.66666666666669,66.0,4893.0,33.284955714285715,0.7438298285714285,0.0112379366666666,0.0475568133333333,-1.2817553333333336,43.75,0.0208415933333333,0.06135061,-1.2853463333333333,0.0254910899999999,0.0246322583333333,0.038237945,-1.0,5.666666666666667,53.0,-65.0,7.166666666666667,279.1666666666667,-1046.5,-0.5,315.3333333333333,1011.7523333333334,-0.0659895833333333,3413.1666666666665,0.0208415933333333,0.0080411113333333,0.06135061,0.0061155696666666,-1.2853463333333333,-0.0006464919333333,43780.0,28636.0,-80.0,8.0,24.0,-37.0,0,None
2022-12-21 12:58:09,264.305,0.1019999999999981,100.0,88.0,24741.5,4896.0,99.0,87.1,66.0,4890.6,33.921865999999994,0.60828218,0.011349008,0.04856981,-1.2823752,43.63199999999999,0.020783422,0.0613176399999999,-1.2857150000000002,0.0269145209999999,0.0263676969999999,0.0365914559999999,-0.9,5.6,53.3,-65.5,7.1,278.9,-1047.6,-0.4,315.9,1011.7537,-0.064539062,3414.6,0.020783422,0.007833374,0.0613176399999999,0.006523811,-1.2857150000000002,-0.00079796134,43665.0,28634.5,-195.0,7.0,24.0,-38.5,0,None
2022-12-21 12:58:10,265.347,0.104000000000002,100.0,111.0,24730.0,4890.333333333333,99.0,173.0,66.3,4882.1,33.243738,0.6797431800000002,0.011472966,0.0485945659999999,-1.2827162,43.540000000000006,0.020750796,0.061502762,-1.2862672,0.196142018,0.198200292,1.079723891,8.1,3.95,56.25,-64.75,8.45,275.6,-1047.2,25.2,312.2,1011.78345,-0.0348281224999999,3417.0,0.020750796,0.0064746958,0.061502762,0.0088215598,-1.2862672,-0.032751712,43555.0,28630.5,-305.0,8.0,24.0,-39.0,0,None
2022-12-21 12:58:11,266.3245555555556,0.1044444444444441,100.0,1884.0,24134.0,4891.0,99.0,1218.2222222222222,68.0,4882.0,32.39318,0.8279463777777778,0.0140052562,0.0033305899999999,-1.2817356,43.602,0.0233297959999999,0.0161157696,-1.2841076,0.2922045144444444,0.9278366222222222,3.9624106222222224,-9.555555555555555,-99.22222222222224,45.888888888888886,-39.0,13.555555555555555,253.22222222222223,-1174.888888888889,16.333333333333332,264.77777777777777,1012.0223333333332,0.2042534777777777,3418.777777777778,0.0233297959999999,0.0157171919999999,0.0161157696,-0.0831795136,-1.2841076,-0.0054471429999999,43550.0,28643.5,-310.0,7.5,25.5,-16.0,0,None
2022-12-21 12:58:12,267.343,0.1079999999999983,100.0,1685.0,24164.0,4897.666666666667,99.0,1696.0,72.4,4887.5,33.380274,0.9743625,-0.01778844826,-0.00538750852,-1.2755514,44.99,-0.0085340342,0.0075985905999999,-1.2767606,0.32544763,1.1375721499999998,2.4853758,-12.4,56.55,55.5,-22.7,-32.75,243.8,-1207.8,7.9,296.35,1011.68185,-0.1365156219999999,3420.9,-0.0085340342,-0.0273257748,0.0075985905999999,0.057680046,-1.2767606,0.018054806,44620.0,28673.0,760.0,-13.0,23.5,139.5,0,None
2022-12-21 12:58:13,268.3467777777778,0.1044444444444441,100.0,1681.0,24118.0,4895.0,99.0,1706.2222222222222,77.22222222222223,4887.555555555556,34.383225555555555,1.0608285555555557,-0.015307093,0.019788305,-1.268217,47.657500000000006,-0.00530540375,0.0312275875,-1.2737625,0.5516800222222221,0.5510899888888888,2.236353888888889,-14.333333333333334,-3.4444444444444446,61.66666666666666,-14.11111111111111,39.22222222222222,245.66666666666663,-1124.888888888889,-6.222222222222222,273.1111111111111,1011.3501111111112,-0.4682465222222222,3423.0,-0.00530540375,0.036711541475,0.0312275875,0.00745268125,-1.2737625,-0.00881801225,47480.0,28712.0,3620.0,8.0,2.0,273.0,0,None
2022-12-21 12:58:14,269.3415,0.104000000000002,100.0,1273.3333333333333,24239.0,4901.666666666667,99.0,1250.2,81.5,4893.9,33.583266,1.1217962,0.0008509621999999,-0.0001150611999999,-1.2811568000000002,50.678,0.01086925746,0.0136576897999999,-1.2876136,0.5631842499999999,0.7197948200000001,2.4796161000000003,-11.85,-11.8,55.75,-13.25,-0.9,246.3,-924.85,-23.1,302.25,1010.96615,-0.852113285,3425.0,0.01086925746,-0.0014906617999999,0.0136576897999999,-0.0068867090399999,-1.2876136,-7.167479999999945e-05,50835.0,28621.0,6975.0,24.0,4.5,270.5,0,None
2022-12-21 12:58:15,270.361,0.0999999999999999,100.0,1139.5,24283.0,4901.0,99.0,1083.1,84.6,4889.9,32.765656,1.157177,0.00732898492,-0.0071961518,-1.288237,52.84,0.0181701632,0.0059627929999999,-1.2942466,0.85127185,0.6951240399999999,2.0276045,-14.6,11.1,52.2,-9.3,43.5,247.4,-911.6,-4.0,319.7,1010.7195,-1.0987734,3427.2,0.0181701632,0.036082408,0.0059627929999999,0.0098840454,-1.2942466,-0.00914064824,52910.0,28585.0,9050.0,22.0,8.5,93.5,0,None
2022-12-21 12:58:16,271.35900000000004,0.0999999999999999,100.0,1166.5,24267.0,4896.0,99.0,1172.8,87.8,4887.4,32.54102000000001,1.1613380000000002,0.020757303,-0.0112695646,-1.2852484,53.56999999999999,0.0307317579999999,0.0014994904,-1.2898752000000002,0.5960468800000001,0.56458322,3.0883068,-10.5,5.8,48.9,-3.5,-19.3,243.0,-1000.5,10.5,312.0,1010.6219,-1.1963983,3429.1,0.0307317579999999,0.0079149023999999,0.0014994904,0.0076068074,-1.2898752000000002,0.0122962646,53595.0,28612.5,9735.0,13.5,26.5,12.5,0,None
2022-12-21 12:58:17,272.3113333333333,0.1023333333333324,100.0,1164.0,24272.0,4906.0,99.0,1169.7777777777778,91.0,4891.222222222223,33.17318333333334,1.143455,-0.0061935066,-0.00098239598,-1.2838424,53.88,0.0041520036,0.0118695424,-1.2864584,0.4811215777777778,0.6175843111111112,3.584371222222222,-10.666666666666666,15.444444444444445,56.888888888888886,-16.77777777777778,0.4444444444444444,252.3333333333333,-1032.3333333333333,-4.888888888888889,318.55555555555554,1010.5783333333334,-1.2397915555555556,3431.222222222222,0.0041520036,-0.0039691779999999,0.0118695424,0.021834808,-1.2864584,-0.0084939109199999,53890.0,28630.5,10030.0,9.5,30.0,-15.5,0,None
2022-12-21 12:58:18,273.31609999999995,0.1039999999999963,100.0,1212.0,24236.0,4886.0,99.0,1207.8,94.2,4896.6,34.01903600000001,1.1179678,-0.137303848,0.0009842817999999,-1.2874118,54.016,-0.1259782679999999,0.011953525,-1.2885368,0.52716929,0.5397963,3.0505154000000005,-20.7,9.0,93.9,-10.0,-187.3,256.8,-1053.1,7.6,299.6,1010.5686,-1.2497578,3433.5,-0.1259782679999999,-0.178362272,0.011953525,0.0203411732,-1.2885368,0.0071080399999999,54020.0,28615.0,10160.0,29.0,-25.5,-28.0,0,None
2022-12-21 12:58:19,274.3211111111111,0.1088888888888909,100.0,1205.5,24236.5,4901.0,99.0,1186.3333333333333,97.66666666666669,4891.222222222223,35.032619999999994,1.0919518888888888,-0.17713338,-0.004935452508,-1.2849374,54.09,-0.167119,0.00407968118,-1.2842078,0.4029516222222222,0.8134206555555555,5.810170888888889,-36.833333333333336,-10.944444444444445,111.33333333333331,-8.722222222222221,46.333333333333336,245.0,-1057.611111111111,0.3888888888888889,285.0,1010.5326666666666,-1.2854599444444446,3435.555555555556,-0.167119,0.0416429172,0.00407968118,0.0038011876,-1.2842078,-0.0190361922,54090.0,28647.5,10230.0,85.0,-198.5,-32.0,0,None
2022-12-21 12:58:20,275.31449999999995,0.1040999999999996,100.0,1090.5,24248.5,4898.0,99.0,1110.1,100.5,4888.1,35.66836,1.0450334,-0.16160766,-0.0099961892,-1.2921792,54.12600000000001,-0.1554707599999999,-0.0008702839,-1.2912332000000002,0.77905656,1.00376714,7.5292107,-58.6,-0.2,108.3,-7.3,16.7,245.0,-1059.1,-13.0,292.0,1010.5978,-1.2204373999999998,3437.4,-0.1554707599999999,0.00894420836,-0.0008702839,-0.0129515648,-1.2912332000000002,0.0026445656,54125.0,28595.0,10265.0,122.0,-329.5,-36.5,0,None
2022-12-21 12:58:21,276.3478,0.104000000000002,100.0,1082.3333333333333,24262.33333333333,4891.0,99.0,1018.9,103.9,4888.9,35.318994,0.98914428,-0.010937308,-0.018191108,-1.2973148,54.054,-0.0069102467999999,-0.008578306,-1.2966326,0.96432889,1.18203612,7.557589399999999,-81.1,11.2,74.45,-11.8,289.75,251.85,-1052.55,-5.65,323.9,1010.64625,-1.1719101,3440.2,-0.0069102467999999,0.280673404,-0.008578306,0.0059654678,-1.2966326,-0.013918057,54050.0,28568.5,10190.0,131.5,-389.0,-25.5,0,None
2022-12-21 12:58:22,277.34233333333333,0.1022222222222176,100.0,1070.0,24265.0,4901.0,99.0,1125.2222222222222,106.66666666666669,4891.0,33.89387333333333,0.9296339222222222,0.1120404875,-0.0019772439,-1.2978170000000002,53.99250000000001,0.1130663475,0.009361919175,-1.2975775,0.8888802111111109,1.537021888888889,6.782031888888889,-61.77777777777778,47.77777777777778,21.33333333333333,-31.77777777777778,-36.22222222222222,237.3333333333333,-1057.2222222222222,-5.777777777777778,327.8888888888889,1010.6015555555556,-1.2168663333333332,3441.777777777778,0.1130663475,-0.034803315,0.009361919175,0.0442425025,-1.2975775,0.0027659437499999,53995.0,28568.0,10135.0,85.0,-250.5,-25.5,0,None
2022-12-21 12:58:23,278.321,0.1020000000000038,100.0,1134.0,24227.5,4898.5,99.0,1104.9,109.6,4896.1,31.791594000000003,0.87685674,0.07424662,0.0038589633999999,-1.3081842,54.056,0.0797376579999999,0.01456786848,-1.3071586,0.79003317,1.17247504,7.6407097,-40.6,-19.5,30.4,2.4,6.3,258.9,-1045.1,-16.8,322.4,1010.5133,-1.3050389999999998,3443.9,0.0797376579999999,0.020040152,0.01456786848,-0.0034833465999999,-1.3071586,-0.031760544,54090.0,28490.0,10230.0,60.5,-128.5,-33.5,0,None
2022-12-21 12:58:24,279.3459,0.1040999999999996,100.0,1127.0,24227.0,4900.666666666667,99.0,1134.6,113.0,4892.7,29.406364000000004,0.8318941599999998,0.0522716674,0.060959213,-1.3064442,54.182,0.060820052,0.072411903,-1.3033188,0.7062322799999999,0.93531113,6.8750559,-27.7,179.6,34.8,-12.05,-85.5,268.8,-1044.95,15.05,291.85,1010.48935,-1.3290312500000003,3446.2,0.060820052,-0.06365824,0.072411903,0.189734026,-1.3033188,0.01102807,54200.0,28550.0,10340.0,67.0,-35.0,-43.5,0,None
2022-12-21 12:58:25,280.362,0.0999999999999999,100.0,1185.5,24208.0,4903.0,99.0,1175.1,116.2,4892.2,27.259328,0.7928183599999998,0.0166757011999999,-0.0062870598,-1.2915613999999995,54.216,0.0257758669999999,0.0044074367,-1.2859328,0.5223645999999998,0.81175253,5.779664500000001,-28.9,-317.2,53.7,-13.2,50.3,234.8,-1053.2,28.8,308.6,1010.523,-1.2953594000000002,3448.4,0.0257758669999999,0.051731798,0.0044074367,-0.337420406,-1.2859328,0.0214462144,54210.0,28671.5,10350.0,114.0,3.5,-46.5,0,None
2022-12-21 12:58:26,281.3655,0.1022999999999967,100.0,1236.0,24184.0,4896.0,99.0,1188.3,119.5,4882.5,24.80332600000001,0.7632483400000001,0.115927296,-0.0514762914,-1.2846184,54.194,0.124066228,-0.03697245,-1.2777249999999998,0.5521096,0.7013444000000001,7.034013800000001,-14.9,187.9,19.3,-17.3,119.9,225.9,-1064.6,-25.2,331.5,1010.5348,-1.2834921,3450.5,0.124066228,0.150082078,-0.03697245,0.230269476,-1.2777249999999998,-0.0168110274,54190.0,28649.5,10330.0,8.5,59.0,-46.0,0,None
2022-12-21 12:58:27,282.36833333333334,0.1044444444444441,100.0,1281.0,24138.0,4896.0,99.0,1167.111111111111,122.66666666666669,4895.888888888889,22.43368222222222,0.7273684666666667,-0.041653648,0.004680296682,-1.2985006,54.162,-0.031917704,0.0136208103999999,-1.2927964,0.4439812888888889,0.6753009888888889,4.475645666666667,-17.666666666666668,-23.666666666666668,73.33333333333333,-1.7777777777777777,-279.1111111111111,252.88888888888889,-1046.2222222222222,41.888888888888886,302.3333333333333,1010.545888888889,-1.2723436666666663,3452.555555555556,-0.031917704,-0.25155928,0.0136208103999999,-0.0145083058,-1.2927964,0.0127467124399999,54160.0,28617.5,10300.0,5.5,96.5,-42.0,0,None
2022-12-21 12:58:28,283.3261111111111,0.1066666666666707,100.0,1188.5,24169.5,4900.5,99.0,1182.4444444444443,125.88888888888889,4886.666666666667,20.80958,0.7008148333333333,0.0039827219999999,-0.013641238,-1.2836876,54.13199999999999,0.0136700816799999,-0.0053853969999999,-1.27726,0.5316096333333333,0.6214324777777777,6.089330666666665,-12.22222222222222,1.7777777777777777,53.77777777777778,-10.11111111111111,130.72222222222223,231.8333333333333,-1061.1666666666667,3.7222222222222223,315.6666666666667,1010.5568333333334,-1.2614757222222222,3454.722222222222,0.0122946356799999,0.134995976,-0.0054441238,0.0063760556,-1.2773100000000002,-0.0002434127999999,54130.0,28682.0,10270.0,17.0,39.0,-38.0,0,None
2022-12-21 12:58:29,284.3368,0.1079999999999983,100.0,1170.0,24171.0,4899.0,99.0,1179.4,129.3,4894.0,18.789781,0.67375319,0.0071994759799999,-0.009593941,-1.2709888,54.11,0.0139989248,-0.0015668503,-1.2665802,0.45756038,0.6850772299999999,5.658881699999999,-13.5,11.55,59.35,-5.65,-28.65,249.45,-1041.6,13.65,323.55,1010.55855,-1.25956625,3456.5,0.0139989248,-0.03058744,-0.0015668503,0.00881713994,-1.2665802,0.00390523208,54115.0,28726.0,10255.0,5.5,50.5,-36.0,0,None
2022-12-21 12:58:30,285.3437777777778,0.1044444444444441,100.0,1191.0,24181.0,4896.0,99.0,1180.0,132.66666666666666,4888.111111111111,17.025804444444447,0.6445623111111112,-0.0054333117499999,-0.0095904645,-1.26707025,54.105,0.0020051315,-0.001958720025,-1.2648035,0.5014384555555557,0.6411396111111111,3.819816666666666,-3.888888888888889,-4.222222222222222,67.33333333333333,0.1111111111111111,5.777777777777778,246.22222222222223,-1069.2222222222222,1.5555555555555556,312.44444444444446,1010.567111111111,-1.2511371111111111,3458.8888888888887,0.0020051315,0.006709755,-0.001958720025,-0.00662970865,-1.2648035,-0.0055937652499999,54105.0,28761.5,10245.0,3.5,46.5,-36.5,0,None
2022-12-21 12:58:31,286.355,0.1079999999999983,100.0,1182.0,24170.33333333333,4889.0,99.0,1178.2,135.7,4887.1,15.474172,0.6154712800000001,-0.003209442,-0.01052416,-1.2773754,54.09000000000001,0.0037228637999999,-0.0027270288,-1.2769772,0.33248405,0.76434958,4.485808400000001,-9.5,13.1,60.5,-11.35,9.6,248.2,-1071.2,-3.65,322.25,1010.57935,-1.2388751,3460.7,0.0037228637999999,0.0140914683999999,-0.0027270288,0.017246058,-1.2769772,-0.0163813,54090.0,28688.5,10230.0,3.5,36.5,-34.5,0,None
2022-12-21 12:58:32,287.3638888888889,0.1044444444444441,100.0,1185.0,24152.0,4896.0,99.0,1192.7777777777778,139.0,4892.555555555556,13.928992222222222,0.5849601777777776,-0.001307094478,-0.0051269874,-1.2803910000000005,54.082,0.0060074239999999,0.0029535019999999,-1.2818714,0.641440888888889,0.4985515888888889,5.050823444444445,-12.0,9.11111111111111,57.22222222222222,-12.444444444444445,3.6666666666666665,245.66666666666663,-1048.2222222222222,-7.555555555555555,313.3333333333333,1010.5573333333332,-1.2608764444444445,3462.777777777778,0.0060074239999999,0.0178087324,0.0029535019999999,0.02017886,-1.2818714,-0.0041266027999999,54080.0,28658.5,10220.0,3.5,32.0,-33.5,0,None
2022-12-21 12:58:33,288.32166666666666,0.1066666666666707,100.0,1178.5,24151.5,4898.0,99.0,1191.4444444444443,142.33333333333334,4888.111111111111,12.57831111111111,0.5574294111111111,-0.0113586212,-0.0070940966,-1.282647,54.1,-0.00343528616,0.00086940068,-1.286012,0.6414064555555554,0.4959154333333334,4.959402777777778,-16.11111111111111,4.666666666666667,61.94444444444444,-5.444444444444445,5.944444444444445,244.16666666666663,-1055.888888888889,-2.9444444444444446,314.94444444444446,1010.5653333333332,-1.2529511666666666,3464.6666666666665,-0.00340035936,0.01095498572,0.00085827212,0.0083746932,-1.2859834,-0.0039349298,54100.0,28633.0,10240.0,8.0,27.5,-34.5,0,None
2022-12-21 12:58:34,289.33090000000004,0.1079999999999983,100.0,1201.0,24144.0,4897.333333333333,99.0,1196.8,145.6,4888.8,11.029993,0.52827967,-0.0076483872,-0.0060684522,-1.2863282000000005,54.092000000000006,-5.898000000007649e-08,0.0026652394,-1.2917262,0.4111734100000001,0.65555671,5.6359665,-13.25,8.85,60.4,-9.2,15.1,244.75,-1034.1,-9.05,312.15,1010.55835,-1.2600076999999996,3466.7,-5.898000000007649e-08,0.0046886942,0.0026652394,-0.00061900678,-1.2917262,-0.0016075093,54090.0,28602.5,10230.0,12.5,17.0,-35.5,0,None
2022-12-21 12:58:35,290.3394444444445,0.1044444444444441,100.0,1187.0,24140.0,4904.0,99.0,1201.0,149.0,4893.111111111111,9.179597,0.5001092777777778,-0.0031509208999999,-0.003876393,-1.2938675000000002,54.11,0.0045774052499999,0.0044894345,-1.3011055,0.4076560333333334,0.7598022111111111,6.182505,-23.11111111111111,10.0,54.44444444444444,2.555555555555556,-5.777777777777778,243.3333333333333,-1049.0,-2.6666666666666665,306.3333333333333,1010.556111111111,-1.2620399999999998,3468.555555555556,0.0045310955,-0.0014333366749999,0.0045754715,0.0120677294999999,-1.30107725,-0.009857923,54110.0,28545.5,10250.0,14.0,14.5,-34.5,0,None
2022-12-21 12:58:36,291.3509,0.1079999999999983,100.0,1520.6666666666667,24021.33333333333,4894.0,99.0,1536.1,152.9,4884.5,7.0818548,0.47195152,-0.1223706159999999,-0.00671496302,-1.2890448,54.29799999999999,-0.1124336079999999,0.0014786694,-1.2981692,0.40198239,1.2250327199999995,5.913462900000001,-19.3,-13.7,95.15,-2614.2000000000007,-139.15,242.9,-1186.45,15.85,296.25,1010.5228,-1.2954337000000002,3470.7,-0.1124336079999999,-0.16808132,0.0014786694,-0.00968416994,-1.2981692,0.0043565514,54380.0,28571.0,10520.0,37.0,-47.5,40.0,1,27_yacc_avg_drift_-93.45555555555558
2022-12-21 12:58:37,292.3594444444445,0.1066666666666706,100.0,1471.0,24022.0,4888.0,99.0,1486.111111111111,157.22222222222223,4885.666666666667,6.0210930000000005,0.4380170777777777,-0.17536116,-0.040223348,-1.278936,55.714,-0.1655905999999999,-0.03210146,-1.2900014,0.4450415666666668,1.0479812666666666,6.2316864444444455,-25.444444444444443,-33.0,117.66666666666669,-2707.655555555556,47.22222222222222,240.3333333333333,-1112.111111111111,16.555555555555557,301.55555555555554,1010.366111111111,-1.4522048888888888,3472.555555555556,-0.1655905999999999,0.051753148,-0.03210146,-0.022406794,-1.2900014,-0.0021517074,55960.0,28619.5,12100.0,82.0,-237.0,145.0,1,27_yacc_avg_drift_-93.45555555555558
2022-12-21 12:58:38,293.351,0.1039999999999963,100.0,1479.6666666666667,24025.0,4891.333333333333,98.6,1483.0,161.3,4890.2,5.4566810000000014,0.4031925,-0.17546004,-0.059867234,-1.2728128,57.616,-0.16867452,-0.050886736,-1.2867424,0.48151902,1.03402079,7.7010749,-67.2,4.25,115.0,-2801.1111111111118,-26.3,230.7,-1059.85,15.7,310.65,1010.1114999999998,-1.70677725,3474.7,-0.16867452,-0.012711212,-0.050886736,0.0004030215999999,-1.2867424,0.002589986,57860.0,28623.5,14000.0,93.5,-378.5,146.5,1,27_yacc_avg_drift_-93.45555555555558
2022-12-21 12:58:39,294.3572222222222,0.1044444444444441,100.0,1552.0,24002.0,4864.0,98.0,1582.111111111111,165.44444444444446,4884.333333333333,3.692602555555556,0.3643256777777777,-0.2140132599999999,-0.070467348,-1.2763494000000002,59.604,-0.20782056,-0.061677436,-1.2920396,0.6121678222222221,1.3361992222222223,8.741400555555556,-96.66666666666669,-5.0,122.0,-2894.566666666667,-20.11111111111111,224.0,-1037.3333333333333,-12.88888888888889,304.3333333333333,1009.7984444444446,-2.019817555555556,3476.555555555556,-0.20729228,0.0095174359999999,-0.061712858,-0.036290892,-1.2921728,-0.0104772619999999,59845.0,28596.5,15985.0,104.5,-513.5,139.0,1,27_yacc_avg_drift_-93.45555555555558
2022-12-21 12:58:40,295.37080000000003,0.108000000000004,100.0,1348.6666666666667,24052.0,4885.333333333333,98.0,1565.8,170.1,4886.7,-0.33996286,0.32273366,-0.2313095399999999,-0.0507654119999999,-1.2716809999999998,61.666,-0.22550058,-0.0410626979999999,-1.2896462,0.67843121,1.4850183,11.2835961,-122.55,37.05,134.5,-2988.022222222223,17.75,232.1,-1055.6,5.7,287.6,1009.55405,-2.26413665,3478.35,-0.22550058,0.054727582,-0.0410626979999999,0.023506865,-1.2896462,-0.0113769008,61930.0,28613.5,18070.0,118.5,-648.0,135.5,1,27_yacc_avg_drift_-93.45555555555558
2022-12-21 12:58:41,296.37722222222226,0.1066666666666643,100.0,1297.5,24051.5,4892.0,98.0,1429.6666666666667,174.11111111111111,4886.111111111111,-7.378153666666666,0.2835451444444444,-0.22008625,-0.044711445,-1.26876,63.5,-0.2157983,-0.0345547,-1.2878969999999998,0.7479200777777778,1.2855194111111112,9.088812555555556,-135.83333333333334,-1.1666666666666667,128.61111111111111,-3081.4777777777786,5.555555555555555,223.72222222222223,-1040.7777777777778,-5.111111111111111,283.3333333333333,1009.3441666666666,-2.474032055555556,3480.277777777778,-0.2157983,0.091380605,-0.0345547,0.0125369432999999,-1.2878969999999998,-0.009715425,63920.0,28613.0,20060.0,154.5,-745.0,124.5,1,27_yacc_avg_drift_-93.45555555555558
2022-12-21 12:58:42,297.3326666666666,0.1044444444444441,100.0,553.0,24278.0,4890.0,98.0,1111.2222222222222,177.77777777777777,4889.888888888889,-17.311723333333333,0.2523062555555555,-0.143575358,-0.065709902,-1.2789984,65.19799599999999,-0.140513626,-0.054832782,-1.2976722,0.8513025444444443,1.7983254444444443,12.476067444444446,-158.33333333333334,2.4444444444444446,110.44444444444444,-3174.933333333334,197.88888888888889,230.44444444444449,-953.6666666666666,-28.666666666666668,315.22222222222223,1009.2888888888888,-2.5291925555555554,3482.0,-0.140513626,0.0800276299999999,-0.054832782,-0.039148514,-1.2976722,-0.01623106624,65390.0,28564.0,21530.0,163.0,-785.0,131.0,1,27_yacc_avg_drift_-93.45555555555558
2022-12-21 12:58:43,298.3061111111111,0.1088888888888908,100.0,706.5,24255.0,4894.0,98.0,713.8888888888889,180.0,4889.666666666667,-29.88572555555556,0.2249955444444444,0.0285363604,-0.0100120136,-1.2905158,66.152,0.0293247421999999,0.0008604588199999,-1.3070336,1.104808822222222,3.029929333333333,16.71587222222222,-118.5,105.11111111111111,49.333333333333336,-3268.3888888888896,115.0,247.5,-1032.111111111111,-7.388888888888889,335.3333333333333,1009.4872222222224,-2.331228277777778,3483.777777777778,0.0293247421999999,0.020888188,0.0008604588199999,0.0957959859999999,-1.3070336,0.014746118,66170.0,28492.0,22310.0,127.0,-711.0,34.5,1,27_yacc_avg_drift_-93.45555555555558
2022-12-21 12:58:44,299.32300000000004,0.1079999999999983,100.0,1120.3333333333333,24135.33333333333,4897.666666666667,98.0,1013.5,182.4,4895.1,-37.995378,0.18282877,0.096758564,0.0094221851999999,-1.2959928,65.798,0.099525078,0.019480692,-1.307848,0.99897526,1.6838584,11.243862800000002,-83.55,-6.0,24.7,-3361.844444444445,36.55,251.1,-1126.75,-22.85,324.35,1009.35715,-2.4611523500000003,3485.6,0.099525078,0.0100439299999999,0.019480692,-0.0019601468,-1.307848,-0.0378957238,65825.0,28524.0,21965.0,119.0,-552.0,-0.5,1,27_yacc_avg_drift_-93.45555555555558
2022-12-21 12:58:45,300.3304444444445,0.1044444444444441,100.0,1002.0,24162.0,4903.0,98.0,1024.0,185.3333333333333,4895.222222222223,-46.03289333333333,0.1401626555555555,0.08151026,-0.0003548225249999,-1.31675875,65.9325,0.0867502875,0.010348917,-1.3238555,0.9182631888888888,1.3325518888888888,12.46532222222222,-66.22222222222223,-7.333333333333333,22.666666666666668,-3455.3000000000006,6.0,251.22222222222223,-1030.111111111111,-19.22222222222222,320.3333333333333,1009.209,-2.609175222222222,3487.555555555556,0.0867502875,-0.0091889749999999,0.010348917,-0.0258632325,-1.3238555,-0.0218436274999999,65910.0,28420.0,22050.0,104.0,-385.5,0.5,1,27_yacc_avg_drift_-93.45555555555558
2022-12-21 12:58:46,301.343,0.1079999999999983,100.0,1107.0,24119.33333333333,4896.333333333333,98.0,1092.2,188.2,4895.2,-59.131894,0.1059996219999999,0.1118556483333333,-0.0076026116666666,-1.3256465,66.13666666666667,0.1183656699999999,0.0027889819666666,-1.32763,0.8922296299999999,1.2904669,10.9145197,-50.2,17.85,11.95,-3548.7555555555564,23.8,243.9,-1055.25,-8.05,327.15,1009.1758999999998,-2.64240225,3489.65,0.1183656699999999,0.0069709902166666,0.0027889819666666,0.022611325,-1.32763,0.0045357659833333,66135.0,28398.5,22275.0,78.5,-246.0,-18.5,1,27_yacc_avg_drift_-93.45555555555558
2022-12-21 12:58:47,302.35266666666666,0.1044444444444441,100.0,1162.0,24127.0,4908.0,98.0,1182.111111111111,191.3333333333333,4894.888888888889,-76.71640444444444,0.0872136755555555,0.1114045249999999,0.011800360025,-1.3071105,66.2424975,0.1182807999999999,0.020102601,-1.30654975,0.5768741888888889,1.0865131222222224,9.490820555555556,-17.77777777777778,19.666666666666668,12.77777777777778,-3642.2111111111117,27.0,259.22222222222223,-1026.6666666666667,35.111111111111114,317.1111111111111,1009.1257777777778,-2.6925085555555555,3491.222222222222,0.1182807999999999,0.0272593175,0.020102601,0.00806950775,-1.30654975,0.04054669625,66235.0,28497.0,22375.0,54.0,-113.5,-34.0,1,27_yacc_avg_drift_-93.45555555555558
2022-12-21 12:58:48,303.3629,0.1079000000000007,100.0,1195.6666666666667,24098.33333333333,4902.333333333333,98.0,1184.7,194.8,4892.7,-98.776102,0.080835362,0.105518942,-0.0015323776799999,-1.2873058,66.312,0.11188232,0.00711946446,-1.2858404,0.42248874,1.3097221499999998,10.3498699,-2.0,-26.25,20.3,-3735.6666666666674,-66.3,245.25,-1023.3,-1.75,315.65,1009.14815,-2.6701600999999995,3493.25,0.11201531,-0.0535747459999999,0.00731661246,-0.034249384,-1.2857886,-0.0114714956,66315.0,28639.0,22455.0,44.5,4.0,-38.5,1,27_yacc_avg_drift_-93.45555555555558
2022-12-21 12:58:49,304.37055555555554,0.1067777777777791,100.0,1118.5,24110.0,4899.0,98.0,1146.2222222222222,198.0,4897.111111111111,-120.93664444444444,0.0837717355555555,0.04905551,-0.024538596,-1.2896006,66.33,0.056760772,-0.01689511,-1.2884844,0.4467352777777778,1.1990122111111112,9.22479888888889,-6.833333333333333,-2.7777777777777777,37.16666666666666,-3829.122222222223,2.4444444444444446,239.88888888888889,-1041.7222222222222,-2.055555555555556,327.44444444444446,1009.1433888888888,-2.674882777777777,3495.0,0.056760772,-0.0011375588,-0.01689511,-0.017566722,-1.2884844,-0.00958170908,66325.0,28619.0,22465.0,26.5,54.5,-37.5,1,27_yacc_avg_drift_-93.45555555555558
2022-12-21 12:58:50,305.3261111111111,0.1022222222222239,100.0,1159.0,24093.0,4901.0,98.0,1135.2222222222222,201.11111111111111,4893.222222222223,-142.28544444444444,0.0961015777777777,0.0339992599999999,-0.0348385925,-1.288693,66.33,0.0409892549999999,-0.02806082,-1.290006,0.4416126777777778,1.243511,9.869577111111113,-10.444444444444445,8.333333333333334,43.0,16.666666666666668,-26.33333333333333,241.5555555555556,-1067.2222222222222,-2.0,329.44444444444446,1009.1558888888889,-2.6623784444444447,3496.777777777778,0.0409892549999999,-0.035853065,-0.02806082,0.0026637374999999,-1.290006,0.01568333125,66325.0,28608.5,22465.0,0.5,74.0,-40.5,0,None
2022-12-21 12:58:51,306.337,0.1079999999999983,100.0,1175.6666666666667,24115.33333333333,4894.666666666667,98.0,1158.4,204.3,4886.4,-157.71855999999997,0.12212346,0.0071965242,-0.0119156082,-1.2894692,66.30600000000001,0.0140078338,-0.006163426,-1.2935063999999998,0.4176504399999999,1.11886545,8.144418400000001,-0.4,15.4,55.05,-4.6,-7.9,250.85,-1060.3,-8.05,320.25,1009.15115,-2.6669295,3498.4,0.0140078338,-0.0079159501999999,-0.006163426,0.0160297579999999,-1.2935063999999998,0.0053434002,66305.0,28580.0,22445.0,-3.5,68.0,-36.5,0,None
2022-12-21 12:58:52,307.3481111111111,0.1044444444444441,100.0,1208.0,24080.0,4888.0,98.0,1184.0,207.66666666666663,4892.888888888889,-165.8741888888889,0.1485664333333333,0.0060320786,-0.0219734799999999,-1.2840172,66.30199999999999,0.011412617,-0.015389072,-1.2892552,0.3840529888888888,1.1345388222222224,8.378007222222223,-5.777777777777778,18.0,53.11111111111112,6.555555555555555,9.0,244.88888888888889,-1071.7777777777778,32.77777777777778,326.77777777777777,1009.1351111111112,-2.683072888888889,3500.333333333333,0.011412617,0.0022647799999999,-0.015389072,0.015862483,-1.2892552,0.00456018146,66305.0,28640.0,22445.0,-3.0,57.0,-38.5,0,None
2022-12-21 12:58:53,308.35900000000004,0.1079999999999983,100.0,1219.6666666666667,24066.666666666668,4899.666666666667,98.0,1225.2,211.1,4888.2,-171.4867,0.17774206,0.0027661618,-0.0124665662,-1.2702064000000002,66.326,0.008300735,-0.00609557148,-1.2768512,0.4891157699999999,1.0634643,8.606521699999998,1.6,-5.4,58.8,-23.85,13.75,254.3,-1044.5,-11.55,315.6,1009.14345,-2.67485135,3502.1,0.008300735,0.0209663562,-0.00609557148,-0.006224289,-1.2768512,-0.0144769675999999,66330.0,28682.0,22470.0,3.0,47.5,-36.0,0,None
2022-12-21 12:58:54,309.36611111111114,0.1044444444444441,100.0,1172.0,24076.0,4901.0,98.0,1184.4444444444443,214.3333333333333,4898.666666666667,-174.99418888888886,0.2049844888888888,-0.0199073534,-0.0176884314,-1.2935689999999995,66.316,-0.0141692338,-0.0103530621999999,-1.3013854,0.421617011111111,0.9104190444444444,6.792410333333333,-9.0,25.55555555555556,57.11111111111112,-16.444444444444443,-33.22222222222222,250.22222222222223,-1041.0,-41.333333333333336,330.0,1009.1476666666669,-2.670685777777778,3503.8888888888887,-0.0141692338,-0.0285183392,-0.0103530621999999,0.02544526,-1.3013854,-0.0262172076,66320.0,28542.0,22460.0,-1.0,40.0,-36.0,0,None
2022-12-21 12:58:55,310.37700000000007,0.108000000000004,100.0,1169.0,24079.33333333333,4900.666666666667,98.0,1182.8,217.8,4897.1,-177.15526000000003,0.22986124,-0.0211627414,-0.0020765621999999,-1.3028302000000005,66.31,-0.01461105022,0.006396432,-1.3123649999999998,0.43274397,1.1726839,6.6828064,-14.15,6.55,55.8,1.95,35.9,250.6,-1052.5,23.9,311.65,1009.14375,-2.6745116,3505.7,-0.01461105022,0.0358295448999999,0.006396432,-0.0017195728,-1.3123649999999998,0.0178546904,66315.0,28453.5,22455.0,5.5,16.5,-37.5,0,None
2022-12-21 12:58:56,311.3861111111112,0.1066666666666643,100.0,1268.0,24055.0,4886.5,98.0,1243.888888888889,221.22222222222223,4894.333333333333,-178.11154444444446,0.2523778333333333,0.001566173375,-0.01218999825,-1.27623575,66.305,0.008160038,-0.00382988875,-1.28657525,0.4177281333333333,0.9661112666666668,8.015455888888889,-17.77777777777778,1.2222222222222223,57.16666666666666,18.33333333333333,13.11111111111111,237.61111111111111,-1044.8333333333333,25.22222222222222,301.6666666666667,1009.1461666666668,-2.6721006111111105,3507.4444444444443,0.0079182785,0.0092919425,-0.00367646875,0.0192939925,-1.28673625,0.0087062975,66305.0,28602.5,22445.0,17.5,2.5,-39.0,0,None
2022-12-21 12:58:57,312.3437777777778,0.1044444444444441,100.0,1243.0,24009.0,4908.0,98.0,1265.2222222222222,224.44444444444449,4898.666666666667,-178.30955555555556,0.2691213333333333,0.00238371944,-0.0082803724,-1.2732342,66.30600000000001,0.009057092,0.0006563184,-1.2856626,0.4294137777777778,1.119097677777778,6.989863000000001,-8.222222222222221,-4.111111111111111,58.77777777777778,-10.77777777777778,11.22222222222222,242.11111111111111,-1048.3333333333333,-3.6666666666666665,312.3333333333333,1009.1408888888892,-2.677291666666666,3509.222222222222,0.009057092,-0.0006496321999999,0.0006563184,0.0003169963999999,-1.2856626,-0.0061628754,66305.0,28635.5,22445.0,24.5,4.5,-37.0,0,None
2022-12-21 12:58:58,313.3549,0.1079999999999983,100.0,1276.3333333333333,24042.666666666668,4904.333333333333,98.0,1278.6,228.1,4895.2,-178.3762,0.2862469799999999,0.0127889232,-0.01848856,-1.2729406,66.29400000000001,0.020190958,-0.0085595272,-1.2841436,0.42198151,0.98396255,7.7801061,-3.8,10.45,45.55,7.1,15.45,240.05,-1043.6,4.15,308.8,1009.1367,-2.6814726,3510.9,0.020190958,0.0355317844,-0.0085595272,0.0178668931999999,-1.2841436,0.0066578933999999,66295.0,28642.5,22435.0,23.5,3.0,-34.5,0,None
2022-12-21 12:58:59,314.3615555555555,0.1044444444444441,100.0,1318.0,24047.0,4908.0,98.0,1283.3333333333333,231.5555555555556,4901.777777777777,-178.6601333333333,0.3027795888888889,0.024642054,-0.0176887599999999,-1.2832948,66.30199999999999,0.03264995,-0.0082534176,-1.294215,0.3838947,1.1406305444444444,8.006030444444443,-10.0,-4.111111111111111,44.11111111111112,9.555555555555555,24.33333333333333,245.88888888888889,-1029.6666666666667,-8.88888888888889,323.1111111111111,1009.1275555555554,-2.690468777777778,3512.555555555556,0.03264995,0.0156753098,-0.0082534176,-0.0077867161999999,-1.294215,-0.014339052,66300.0,28587.5,22440.0,23.0,14.0,-35.5,0,None
2022-12-21 12:59:00,315.3729,0.108000000000004,100.0,1304.3333333333333,24029.33333333333,4904.0,98.0,1301.7,235.2,4896.7,-107.571,0.32013268,0.0149289844,-0.022773188,-1.2787153999999998,66.32,0.0236918,-0.0132929375999999,-1.2895858,0.4072125300000001,0.8280441100000001,7.178766400000001,-23.4,7.35,49.5,19.15,-5.8,239.7,-1044.85,17.65,325.85,1009.12415,-2.69416005,3514.6,0.0236918,-0.0071378496,-0.0132929375999999,0.012500811,-1.2895858,0.025673956,66320.0,28603.5,22460.0,12.0,35.5,-36.5,0,None
2022-12-21 12:59:01,316.38366666666667,0.1066666666666643,99.0,1130.5,24063.0,4903.5,98.0,1234.5555555555557,238.77777777777777,4896.333333333333,179.41819999999996,0.3394055666666667,-0.011263268975,-0.01629921,-1.2746115,66.35000000000001,-0.00210118975,-0.00741086825,-1.28537725,0.4438177777777777,1.0463126,9.725634111111113,-30.05555555555556,6.0,61.27777777777778,22.944444444444443,-18.5,244.27777777777777,-1051.1666666666667,10.38888888888889,314.1111111111111,1009.1052777777778,-2.7129687222222225,3516.277777777778,-0.00210118975,-0.0191506275,-0.00741086825,0.023972908,-1.28537725,-0.0054138425,66350.0,28636.0,22490.0,10.5,49.0,-36.5,0,None
2022-12-21 12:59:02,317.3393333333333,0.1065555555555559,99.0,1075.0,24068.0,4903.0,98.0,1112.2222222222222,242.0,4892.444444444444,178.9635,0.3567969888888889,-0.03265965,-0.025703998,-1.2908922,66.398,-0.0229185859999999,-0.016617184,-1.301069,0.5847598555555555,1.159100788888889,12.042029777777778,-22.444444444444443,-21.22222222222222,64.77777777777777,5.111111111111111,-10.666666666666666,248.0,-1052.2222222222222,-21.666666666666668,322.44444444444446,1009.0771111111112,-2.7411286666666665,3517.777777777778,-0.022716338,-0.0032906168,-0.016409896,-0.0082937862,-1.3007094,-0.0243460322,66405.0,28531.5,22545.0,23.5,41.0,-44.0,0,None
2022-12-21 12:59:03,318.351,0.1060999999999978,99.0,1178.3333333333333,24064.666666666668,4899.0,98.0,1182.7,245.2,4892.9,179.17546,0.3755078599999999,-0.030816656,-0.0506382259999999,-1.297126,66.41199999999999,-0.0218859959999999,-0.0414701559999999,-1.3069376,0.5690968000000001,1.2065176,11.7389769,-35.9,2.4,63.45,27.75,10.2,236.1,-1068.55,23.05,328.65,1009.08685,-2.7314491500000004,3519.55,-0.02177937,0.0231209972,-0.0413496239999999,0.0026464532,-1.3071546,0.0133773353641999,66410.0,28517.5,22550.0,18.5,21.5,-47.5,0,None
2022-12-21 12:59:04,319.3571111111111,0.1043333333333356,99.0,1124.0,24078.0,4908.0,98.0,1132.888888888889,248.3333333333333,4899.777777777777,-19.87943333333332,0.3964832,-0.0241516079999999,-0.045203306,-1.3005226,66.396,-0.015708468,-0.036184838,-1.3099896,0.6212899777777777,1.1890983333333334,12.141866666666663,-42.333333333333336,9.22222222222222,57.0,25.55555555555556,15.444444444444445,236.3333333333333,-1033.3333333333333,-9.666666666666666,335.22222222222223,1009.0996666666668,-2.7186544444444447,3521.555555555556,-0.015708468,0.006816786,-0.036184838,0.0273281763999999,-1.3099896,-0.0182333089999999,66395.0,28484.0,22535.0,5.0,12.5,-45.5,0,None
2022-12-21 12:59:05,320.337,0.1040999999999996,99.0,1187.0,24068.0,4895.0,98.0,1177.9,251.6,4897.7,-178.28774,0.4197863599999999,-0.030880822,-0.021245996,-1.300509,66.378,-0.02217095,-0.0129189298,-1.3095852,0.57156083,1.1669037000000002,11.6136633,-36.35,36.45,60.6,14.85,6.45,242.45,-1051.4,6.4,325.75,1009.08235,-2.73600785,3522.8,-0.02217095,0.0195510952,-0.0129189298,0.0251739682,-1.3095852,0.0170478614,66380.0,28506.5,22520.0,3.5,8.0,-42.5,0,None
2022-12-21 12:59:06,321.33500000000004,0.1044444444444441,99.0,1161.0,24051.0,4906.0,98.0,1099.2222222222222,254.77777777777777,4891.777777777777,-176.2271333333333,0.4434499333333332,-0.01171923925,-0.01395423275,-1.2959,66.3925,-0.00355735575,-0.005804981,-1.3042055,0.6702225555555555,1.2611526666666668,13.321376666666668,-53.0,1.3333333333333333,55.55555555555556,26.55555555555556,24.666666666666668,254.11111111111111,-1017.0,-8.88888888888889,334.3333333333333,1009.1143333333332,-2.703897444444445,3524.555555555556,-0.00355735575,0.01905901385,-0.005804981,-0.0253240075,-1.3042055,-0.0002318479999999,66385.0,28509.0,22525.0,14.5,16.5,-39.0,0,None
2022-12-21 12:59:07,322.33500000000004,0.1060000000000002,99.0,1112.6666666666667,24064.0,4902.333333333333,98.0,1104.9,257.7,4896.9,-174.20305,0.46303367,-0.026551915,-0.0267432016666666,-1.3028561666666667,66.355,-0.0174282983333333,-0.0188392333333333,-1.309480166666667,0.7521736600000001,1.3008951000000002,12.1966341,-39.6,-3.1,55.1,40.7,-16.55,254.3,-1045.7,1.45,333.8,1009.1269,-2.69133975,3526.25,-0.0174282983333333,-0.0119925353333333,-0.0188392333333333,-0.0089184706666666,-1.309480166666667,-0.0071763713333333,66340.0,28502.0,22480.0,21.0,16.5,-42.0,0,None
2022-12-21 12:59:08,323.33700000000005,0.1044444444444441,99.0,1125.0,24066.0,4908.0,98.0,1131.6666666666667,261.0,4898.222222222223,-171.99094444444444,0.4816931444444444,-0.0139733835,-0.0287378925,-1.30234275,66.3125,-0.0050650537499999,-0.0201939875,-1.3082892499999998,0.6483764000000001,1.344797111111111,12.880441111111113,-25.666666666666668,6.222222222222222,58.333333333333336,40.888888888888886,29.11111111111111,242.77777777777777,-1048.2222222222222,-8.0,324.77777777777777,1009.1445555555556,-2.673706555555556,3527.8888888888887,-0.0050650537499999,0.031156675,-0.0201939875,0.0068325145,-1.3082892499999998,0.00068603575,66320.0,28502.0,22460.0,24.0,7.0,-35.0,0,None
2022-12-21 12:59:09,324.34489999999994,0.1079999999999983,99.0,1198.0,24045.0,4906.333333333333,98.0,1168.6,264.1,4900.2,-169.71405,0.50085437,0.0057430938999999,-0.034102016,-1.2979388,66.262,0.0139618146,-0.025415776,-1.3035419999999998,0.6185619200000001,1.3840412,11.871439,-29.0,1.85,51.15,48.25,2.4,233.55,-1005.9,5.25,322.65,1009.1732,-2.6451719500000004,3529.65,0.0139868525999999,0.00632595402,-0.02557706,0.01953675714,-1.303639,0.027371488,66270.0,28518.5,22410.0,19.5,15.0,-36.0,0,None
2022-12-21 12:59:10,325.35266666666666,0.1044444444444441,99.0,1134.0,24054.0,4908.0,98.0,1152.7777777777778,267.3333333333333,4900.111111111111,-167.87600000000003,0.5215562666666665,-0.0080963628,-0.030806366,-1.292367,66.25,0.00058038704,-0.022232812,-1.297351,0.571854788888889,1.2112245555555556,11.109259444444444,-28.444444444444443,17.0,59.22222222222222,12.22222222222222,-0.2222222222222222,250.11111111111111,-1033.111111111111,-17.0,328.3333333333333,1009.1656666666668,-2.652473888888889,3531.222222222222,0.00058038704,0.00910778,-0.022232812,0.025007336,-1.297351,-0.0076162554,66250.0,28568.0,22390.0,7.5,26.5,-30.0,0,None
2022-12-21 12:59:11,326.36490000000003,0.108000000000004,99.0,1128.0,24071.666666666668,4902.333333333333,98.0,1119.9,270.7,4898.8,-166.2045,0.5445089399999999,-0.00597619004,-0.016963348,-1.2944778,66.28,0.0025282288,-0.0090652242,-1.2991396000000002,0.6398406699999999,1.2567788000000002,12.0633868,-26.15,-2.3,55.2,20.1,-3.15,239.5,-1051.35,-9.05,311.05,1009.1346999999998,-2.6834453000000003,3532.8,0.0025282288,-0.0003410989999999,-0.0090652242,-0.0047019845999999,-1.2991396000000002,0.0053893225999999,66270.0,28559.5,22410.0,7.5,35.0,-31.0,0,None
2022-12-21 12:59:12,327.375,0.1066666666666643,99.0,1124.5,24040.5,4902.0,98.0,1127.0,273.625,4897.777777777777,-164.70773333333332,0.5641900888888889,-0.0225180979999999,-0.030213902,-1.2948138,66.312,-0.0140081734,-0.02159168,-1.2986726,0.660436011111111,1.3674591111111112,11.782840222222225,-13.166666666666666,10.22222222222222,61.16666666666666,30.27777777777778,-2.333333333333333,238.5,-1028.8333333333333,20.444444444444443,311.22222222222223,1009.143,-2.675342944444444,3534.6666666666665,-0.0140081734,-0.018484481,-0.02159168,0.0035370467999999,-1.2986726,0.0010359719999999,66310.0,28548.0,22450.0,17.5,39.5,-36.5,0,None
2022-12-21 12:59:13,328.3827,0.104000000000002,99.0,1178.0,24036.5,4899.5,98.0,1148.5,276.9,4891.3,-163.20448000000002,0.5838134399999999,-0.0082644074,-0.03265318,-1.2835438,66.3,0.0002889827999999,-0.0246355819999999,-1.286422,0.5693719899999999,1.2432688100000002,12.614447,-27.2,-3.0,63.1,30.7,46.0,240.3,-1018.2,-0.3,327.8,1009.1449,-2.6731642,3536.5,0.0002889827999999,0.060593864,-0.0246355819999999,0.0102745919999999,-1.286422,-0.0071445587999999,66300.0,28633.5,22440.0,18.5,25.0,-31.5,0,None
2022-12-21 12:59:14,329.37488888888885,0.1066666666666643,99.0,1192.5,24031.5,4901.0,98.0,1137.2222222222222,280.1111111111111,4896.777777777777,-161.82734444444446,0.6035132888888888,-0.01938281,-0.0355468975,-1.2999969999999998,66.31,-0.01140412,-0.0272576475,-1.30268475,0.628650511111111,1.2392706666666666,12.679616666666668,-33.166666666666664,12.22222222222222,60.94444444444444,3.611111111111111,-35.666666666666664,241.0555555555556,-1002.8333333333334,-23.11111111111111,329.5,1009.1115555555556,-2.7067273888888885,3537.777777777778,-0.011754275,-0.05550646,-0.027600215,0.0220382925,-1.30267675,-0.03331647,66305.0,28549.0,22445.0,9.5,34.0,-37.0,0,None
2022-12-21 12:59:15,330.32800000000003,0.1044444444444441,99.0,1301.0,24024.0,4911.0,98.0,1279.111111111111,283.3333333333333,4892.666666666667,-160.5191222222222,0.6247520333333333,-0.03858256,-0.036671444,-1.2859456,66.31,-0.029924514,-0.028462622,-1.2879348,0.524674011111111,1.1400698,10.095545666666666,-16.0,14.555555555555555,71.66666666666667,5.222222222222222,17.22222222222222,238.11111111111111,-1039.3333333333333,18.55555555555556,325.1111111111111,1009.1554444444446,-2.6628992222222223,3539.222222222222,-0.029924514,0.0266669248,-0.028462622,0.02260514,-1.2879348,0.0201431912,66310.0,28623.5,22450.0,13.0,18.5,-39.5,0,None
2022-12-21 12:59:16,331.3389,0.1079000000000007,99.0,1280.0,24000.666666666668,4904.333333333333,98.0,1297.3,286.9,4900.3,-159.01156,0.6489289,-0.0050543765999999,-0.033959838,-1.2799086,66.276,0.002531571,-0.025340846,-1.281262,0.4769088099999999,1.00663479,8.7238996,-27.85,3.85,61.6,24.25,18.95,241.8,-1045.85,-7.65,322.9,1009.1521,-2.6661561,3540.8,0.002531571,0.0181910199999999,-0.025340846,0.0013731832,-1.281262,0.0183836382,66275.0,28660.0,22415.0,13.0,11.0,-34.0,0,None
2022-12-21 12:59:18,333.35900000000004,0.1079999999999983,99.0,1331.0,23987.0,4900.0,98.0,1338.1,294.4,4898.6,-156.40258,0.69461226,0.0043536734,-0.01169242,-1.2946356,66.242,0.0131351782,-0.0031701254,-1.2956215999999998,0.45234652,0.96364866,6.001342599999999,-21.15,4.95,51.3,0.7,18.9,241.3,-1052.5,-10.6,314.6,1009.1822,-2.6360038999999995,3544.25,0.0131351782,0.0164970448,-0.0031701254,-0.0044694209999999,-1.2956215999999998,-0.005742232,66235.0,28568.0,22375.0,8.0,16.0,-29.0,0,None
2022-12-21 12:59:19,334.36833333333334,0.1044444444444441,99.0,1321.0,23958.0,4909.0,98.0,1326.0,298.22222222222223,4903.222222222223,-155.3853,0.7120065555555556,0.00122761422,0.0003112934,-1.2864412,66.236,0.01006247,0.0091174191,-1.2865816,0.4284954222222222,0.844930011111111,6.240559111111111,-23.11111111111111,17.77777777777778,52.66666666666666,8.555555555555555,-7.888888888888889,254.11111111111111,-1041.111111111111,25.77777777777778,317.55555555555554,1009.181,-2.6373696666666664,4234.990555555481,0.01006247,0.0037117926,0.0091174191,0.025615028,-1.2865816,0.0197155654,66235.0,28653.5,22375.0,12.5,30.0,-30.0,1,29_temperature_avg_drift_9.86772222222115
2022-12-21 12:59:20,335.37890000000004,0.108000000000004,98.66666666666669,1294.3333333333333,23996.666666666668,4906.333333333333,98.0,1284.2,301.8,4895.8,-154.51286,0.7252348600000001,-0.0068887969999999,-0.0064706045999999,-1.2886496,66.24199999999999,0.002421306,0.00235265308,-1.2874580000000002,0.4380100899999999,0.8895132700000001,6.452704,-10.15,-4.6,59.95,-15.45,14.25,246.8,-1040.5,-27.8,314.35,1009.1699,-2.64841015,4244.858277777702,0.0026862078,0.011946702,0.00247334168,0.0102019296,-1.287508,-0.0207485725999999,66250.0,28600.0,22390.0,20.5,32.5,-29.5,1,29_temperature_avg_drift_9.86772222222115
2022-12-21 12:59:21,336.38822222222217,0.1066666666666643,98.0,1262.0,23982.0,4902.0,98.0,1269.2222222222222,305.44444444444446,4901.111111111111,-153.6945222222222,0.7354196222222222,-0.00476750096,-0.0161812819999999,-1.2931532,66.27000000000001,0.0045771867,-0.0060537198,-1.2919062,0.4486707333333333,0.7871901333333334,6.497049111111113,-30.77777777777778,5.0,61.16666666666666,14.444444444444445,0.3888888888888889,249.94444444444449,-1035.611111111111,20.444444444444443,323.3333333333333,1009.1607222222224,-2.657612777777778,4254.725999999922,0.0045771867,0.0032827406,-0.0060537198,0.0158049160199999,-1.2919062,0.0094699316,66270.0,28593.0,22410.0,19.0,34.0,-33.0,1,29_temperature_avg_drift_9.86772222222115
2022-12-21 12:59:22,337.39700000000005,0.1060000000000002,98.0,1253.0,23989.0,4901.5,98.0,1256.7,308.8,4897.4,-152.95598,0.74417836,-0.0118344,-0.0114274458,-1.2860956,66.284,-0.00263883442,-0.00180457802,-1.2852868000000002,0.46650848,0.7359535,6.4324919000000005,-15.0,4.9,63.3,-7.5,2.7,244.4,-1044.7,-20.8,314.3,1009.1456000000002,-2.6726094,4264.593722222144,-0.00263883442,-0.001365134,-0.00180457802,0.0003215053999999,-1.2852868000000002,-0.0087095252,66280.0,28646.5,22420.0,17.5,32.0,-33.0,1,29_temperature_avg_drift_9.86772222222115
2022-12-21 12:59:23,338.40833333333336,0.1066666666666643,98.0,1271.0,23996.0,4902.0,98.0,1254.888888888889,312.55555555555554,4896.555555555556,-152.2282,0.752263177777778,-0.0110913032499999,-0.02065767,-1.28332875,66.305,-0.0017130189999999,-0.01053137075,-1.282528,0.5204017666666667,0.6373948666666667,5.667591555555556,-20.22222222222222,19.38888888888889,63.94444444444444,-7.611111111111111,22.38888888888889,237.38888888888889,-1032.0,17.5,305.55555555555554,1009.1377777777776,-2.680590333333333,4274.461444444365,-0.0017130189999999,0.0279945664999999,-0.01053137075,0.0096717375,-1.282528,0.02461975,66300.0,28637.5,22440.0,16.0,27.5,-35.5,1,29_temperature_avg_drift_9.86772222222115
2022-12-21 12:59:24,339.3616666666667,0.1044444444444441,98.0,1300.0,23968.0,4896.0,98.0,1295.6666666666667,315.8888888888889,4901.444444444444,-151.62094444444446,0.7591937111111111,-0.0127673195999999,-0.0069384496,-1.2706336,66.308,-0.0044007896,0.0035327156,-1.2695034,0.3724240333333333,0.7145436888888888,5.100431777777778,-22.11111111111111,5.0,64.77777777777777,-2.0,-11.11111111111111,244.22222222222223,-1044.6666666666667,2.7777777777777777,299.3333333333333,1009.1438888888888,-2.67454,4284.329166666586,-0.0042933384,-0.0087518484,0.003526642,0.0107082677999999,-1.2695418,0.002906284,66310.0,28729.0,22450.0,10.0,27.5,-38.5,1,29_temperature_avg_drift_9.86772222222115
2022-12-21 12:59:25,340.3749,0.108000000000004,98.0,1268.6666666666667,23984.666666666668,4901.666666666667,98.0,1336.9,319.6,4899.0,-150.93671999999998,0.76628268,-0.0184351029199999,-0.010669066,-1.2822888,66.31400000000001,-0.0101155884,0.0007195552599999,-1.2810456,0.42918647,0.7763961499999998,3.6611311,-27.9,45.35,66.5,-18.25,28.9,244.55,-1037.35,-8.85,312.0,1009.10055,-2.71765245,4294.196888888808,-0.0100275964,0.0133331819999999,0.00133214526,0.039626438,-1.2809368,-0.012308399,66315.0,28666.5,22455.0,5.0,19.0,-37.0,1,29_temperature_avg_drift_9.86772222222115
2022-12-21 12:59:26,341.3861111111112,0.1066666666666643,98.0,1202.5,24010.0,4903.0,97.88888888888889,1248.5555555555557,323.22222222222223,4900.666666666667,-150.17985555555555,0.772973011111111,-0.0230652884,0.019154304,-1.2647144,66.378,-0.0151373462999999,0.029158456,-1.2634006000000002,0.6591636777777778,0.7283015666666667,5.677852777777778,-44.27777777777778,-25.55555555555556,70.77777777777777,-12.333333333333334,-23.83333333333333,254.61111111111111,-1035.111111111111,7.666666666666667,310.22222222222223,1009.106,-2.712282833333333,4304.064611111029,-0.0151373462999999,-0.03668547712,0.029158456,-0.0181712241999999,-1.2634006000000002,0.0133280658,66375.0,28757.5,22515.0,10.5,29.0,-41.5,1,29_temperature_avg_drift_9.86772222222115
2022-12-21 12:59:27,342.33933333333334,0.1044444444444441,98.0,1389.0,23953.0,4901.0,97.0,1218.7777777777778,326.3333333333333,4898.555555555556,-149.4010222222222,0.7776621777777778,-0.0407590725,0.00231103175,-1.26657325,66.37,-0.0328095474999999,0.01300991425,-1.2650845,0.5047854111111111,0.7709134888888889,6.194148111111111,-35.333333333333336,11.666666666666666,78.33333333333333,-5.111111111111111,5.777777777777778,252.77777777777777,-1044.888888888889,-6.888888888888889,307.77777777777777,1009.087888888889,-2.730399222222222,4313.9323333332495,-0.0328095474999999,-0.007843347,0.01300991425,-0.01134138125,-1.2650845,-0.0001891075,66375.0,28743.5,22515.0,27.0,26.0,-41.0,1,29_temperature_avg_drift_9.86772222222115
2022-12-21 12:59:28,343.351,0.1079999999999983,98.0,1216.3333333333333,24014.666666666668,4907.0,97.0,1258.7,329.8,4896.6,-148.35886,0.78297021,-0.032445032,-0.0119972938,-1.2878322,66.38399999999999,-0.024382198,-0.0012973026799999,-1.2865576,0.53184644,0.7743569499999999,5.8784920000000005,-37.05,-9.95,67.6,-6.1,32.6,241.3,-1043.2,-12.85,309.3,1009.08535,-2.73280465,4323.800055555471,-0.024382198,0.0296349006,-0.0012973026799999,-0.01548367,-1.2865576,-0.0155915443999999,66385.0,28614.5,22525.0,32.0,15.5,-47.5,1,29_temperature_avg_drift_9.86772222222115
2022-12-21 12:59:29,344.3594444444445,0.1066666666666706,98.0,1141.0,24042.0,4903.0,97.0,1152.6666666666667,333.3333333333333,4904.0,-147.2707777777778,0.7894084222222222,-0.018443188,-0.01702567,-1.2910939999999995,66.39199999999998,-0.0103486576,-0.0058567214,-1.2896224,0.5494919333333333,0.7846316777777779,7.275936333333334,-32.0,10.666666666666666,61.77777777777778,-6.555555555555555,10.22222222222222,248.3333333333333,-1050.4444444444443,-3.0,317.0,1009.064,-2.7542446666666667,4333.667777777692,-0.0103486576,0.023220531,-0.0058567214,0.0159388727999999,-1.2896224,-0.0028773756,66395.0,28608.5,22535.0,24.0,7.0,-41.0,1,29_temperature_avg_drift_9.86772222222115
2022-12-21 12:59:30,345.37300000000005,0.1060000000000002,98.0,1067.3333333333333,24041.33333333333,4903.333333333333,97.0,1104.9,336.5,4903.0,-146.20458,0.79705026,-0.00367025918,-0.020139652,-1.3020904,66.424,0.0048235074,-0.0101367827999999,-1.3012038,0.6872651300000001,0.9387658,9.791232,-39.15,6.05,52.45,-11.5,11.35,242.8,-1028.75,-20.8,316.75,1009.07705,-2.7411016,4343.535499999914,0.0048235074,0.0069108274,-0.0101367827999999,-0.0057608379999999,-1.3012038,-0.0275489924,66430.0,28528.5,22570.0,11.0,16.5,-45.0,1,29_temperature_avg_drift_9.86772222222115
2022-12-21 12:59:31,346.37944444444446,0.1066666666666643,98.0,1030.5,24066.0,4892.5,97.0,1087.888888888889,339.44444444444446,4898.555555555556,-145.35569999999998,0.8043188555555556,-0.0061765948,-0.0159492342,-1.3195606000000002,66.39200000000001,0.0026237329399999,-0.00527325634,-1.31808,0.8616259111111112,1.3397963333333331,9.978401555555555,-53.0,27.72222222222222,52.44444444444444,-31.88888888888889,-5.833333333333333,248.8333333333333,-1051.7777777777778,-4.777777777777778,322.94444444444446,1009.1619444444444,-2.656367055555556,4353.403222222134,0.0026237329399999,0.003528586,-0.00527325634,0.03406122,-1.31808,0.0020866219999999,66385.0,28451.5,22525.0,-7.0,36.5,-40.0,1,29_temperature_avg_drift_9.86772222222115
2022-12-21 12:59:32,347.389,0.1060000000000002,98.0,1104.5,24022.5,4901.0,97.0,1145.2,342.5,4893.9,-144.55996,0.81184174,-0.064453126,0.0100649782,-1.3022824000000002,66.251998,-0.055995814,0.020230632,-1.3015926000000002,0.95648992,1.4193984,6.2685765,-34.4,35.5,73.8,18.6,-85.5,255.6,-1073.0,38.9,319.9,1009.2369,-2.5815469,4363.270944444355,-0.055438446,-0.021413024,0.020599572,0.040170738,-1.3017346,0.0236763822,66230.0,28563.0,22370.0,-7.0,39.5,-31.0,1,29_temperature_avg_drift_9.86772222222115
2022-12-21 12:59:33,348.3972222222222,0.1066666666666643,98.0,1084.5,24028.5,4899.0,97.0,1088.0,345.77777777777777,4893.444444444444,-143.54034444444446,0.8185399,-0.0828667525,0.0071006473499999,-1.2835975,66.1425,-0.0742516949999999,0.01736670225,-1.28252725,0.7014215333333333,1.2673210777777777,9.14736488888889,-65.88888888888889,11.72222222222222,83.88888888888889,-11.72222222222222,46.61111111111112,255.22222222222223,-1059.2222222222222,8.88888888888889,307.77777777777777,1009.2343333333332,-2.5838497222222228,3567.4444444444443,-0.0742516949999999,0.0398704425,0.01736670225,-0.0087217715,-1.28252725,-0.003799817,66135.0,28676.5,22275.0,10.5,0.5,-20.5,0,None
2022-12-21 12:59:34,349.3526666666667,0.1044444444444441,98.0,1170.0,23994.0,4901.0,97.0,1139.7777777777778,348.6666666666667,4894.888888888889,-142.14468888888885,0.8258049444444446,-0.040045988,0.0275747743999999,-1.2682168,66.13199999999999,-0.033172776,0.038110774,-1.267381,0.9062444444444444,0.9115702777777778,8.255465111111112,-48.333333333333336,-13.0,72.33333333333333,-15.77777777777778,23.22222222222222,258.55555555555554,-1023.7777777777778,13.22222222222222,300.22222222222223,1009.1801111111112,-2.6381684444444446,3568.555555555556,-0.033172776,0.018143178,0.038110774,0.017371968,-1.267381,0.0234948867999999,66130.0,28741.0,22270.0,29.0,0.0,-21.0,0,None
2022-12-21 12:59:35,350.369,0.108000000000004,98.0,1169.0,24014.33333333333,4894.333333333333,97.0,1143.1,352.0,4898.2,-140.56991999999997,0.8343638800000001,-0.0170364908,0.0032462847999999,-1.2631216,66.21399799999999,-0.0099161681999999,0.0141222197999999,-1.2623174,0.59524691,0.96692537,7.454393400000001,-38.3,-17.0,69.1,-7.9,32.35,254.25,-1027.55,-36.7,318.55,1009.0965,-2.7216563,3570.1,-0.0102216868,0.02805529,0.0136511398,-0.019421095,-1.262205,-0.0171166976,66190.0,28789.5,22330.0,40.5,2.0,-27.0,0,None
2022-12-21 12:59:36,351.37488888888885,0.1066666666666643,98.0,1357.5,23961.0,4899.5,97.0,1221.6666666666667,355.22222222222223,4897.777777777777,-139.3802,0.8413460888888888,-0.00145354098,-0.038050154,-1.2938037999999998,66.338,0.0052624978,-0.026092602,-1.2932326,0.6410138333333334,0.9538458444444444,8.346324000000001,-50.05555555555556,-26.444444444444443,57.11111111111112,9.5,38.0,235.5555555555556,-1025.888888888889,3.611111111111111,310.94444444444446,1009.0848888888888,-2.733341944444444,3571.6666666666665,0.0052624978,0.001884152,-0.026092602,-0.033328526,-1.2932326,0.0054889029999999,66325.0,28588.5,22465.0,43.0,20.0,-36.5,0,None
2022-12-21 12:59:37,352.3849,0.1060000000000001,98.0,1400.5,23929.0,4906.5,97.0,1273.3,358.6,4897.0,-138.43936,0.8487818600000001,-0.043243585,-0.0410930325,-1.285348,66.38199999999999,-0.03895627,-0.0268427531999999,-1.285038,0.53298972,0.97563701,8.960250499999997,-68.5,24.3,68.8,9.8,-46.7,235.9,-1056.4,-7.2,311.2,1009.1045,-2.7139608,3573.0,-0.03895627,-0.0521040194,-0.0268427531999999,0.0293255944,-1.285038,-0.014479492,66380.0,28642.0,22520.0,10.5,50.0,-44.5,0,None
2022-12-21 12:59:38,353.3927777777778,0.1066666666666643,98.0,1205.0,23989.0,4908.0,97.0,1263.0,362.22222222222223,4901.111111111111,-137.6620888888889,0.8594459555555556,-0.0594437119999999,-0.0312772979999999,-1.285603,66.36200000000001,-0.050974724,-0.020750877,-1.2858763999999998,0.5222616777777778,0.8213462666666668,7.497467777777778,-56.333333333333336,17.166666666666668,77.61111111111111,0.9444444444444444,20.38888888888889,243.5,-1038.8333333333333,1.7222222222222223,307.05555555555554,1009.1308333333332,-2.687487055555556,3574.722222222222,-0.050974724,0.0164246766,-0.020750877,0.0545641959999999,-1.2858763999999998,-0.0035944622,66360.0,28634.5,22500.0,-2.5,33.5,-42.5,0,None
2022-12-21 12:59:39,354.3527777777778,0.1044444444444441,98.0,1082.0,24024.0,4911.0,97.0,1150.888888888889,365.3333333333333,4901.777777777777,-136.78705555555555,0.8729970888888888,-0.0284863549999999,-0.0150526635,-1.285578,66.3325,-0.0213551775,-0.0038157405,-1.28668525,0.6075252333333334,0.9626939444444448,9.418732333333333,-47.11111111111112,16.77777777777778,67.88888888888889,-0.5555555555555556,40.333333333333336,241.22222222222223,-1024.7777777777778,-11.444444444444445,301.44444444444446,1009.1452222222224,-2.673116444444444,3575.777777777778,-0.0213551775,0.0100668899999999,-0.0038157405,0.0092440999999999,-1.28668525,-0.021317135,66340.0,28634.0,22480.0,-6.0,20.5,-36.5,0,None
2022-12-21 12:59:40,355.35290000000003,0.1060000000000002,98.0,1102.0,24024.33333333333,4907.333333333333,97.0,1073.1,368.6,4905.4,-135.73448000000002,0.8868566400000001,-0.027389572,-0.0007280877999999,-1.2972956,66.306,-0.021043336,0.0103415172,-1.2989616,0.90424605,1.3062058,10.1991121,-63.05,32.0,59.9,-1.55,-18.5,247.25,-1054.3,-0.65,307.25,1009.17635,-2.64166405,3577.4,-0.021043336,-0.0138258909999999,0.0103415172,0.0128317824,-1.2989616,-0.0011004304,66305.0,28557.0,22445.0,-2.5,31.5,-35.0,0,None
2022-12-21 12:59:41,356.37044444444444,0.1088888888888908,98.0,1189.5,23982.5,4909.5,97.0,1076.3333333333333,371.44444444444446,4901.222222222223,-134.74014444444444,0.8981753666666665,-0.041469622,-0.0071007578,-1.2970842,66.24600000000001,-0.033747142,0.0030923158103999,-1.29846,0.9377786333333332,1.3345755555555556,10.856949444444446,-31.0,-56.55555555555556,64.27777777777777,3.7222222222222223,32.833333333333336,247.77777777777777,-1017.9444444444443,-18.27777777777778,309.22222222222223,1009.1956666666669,-2.622699666666667,3578.6666666666665,-0.033747142,0.0167063219999999,0.0030923158103999,-0.0434653434,-1.29846,-0.013073412,66250.0,28562.0,22390.0,14.5,25.5,-28.5,0,None
2022-12-21 12:59:42,357.3809,0.1060000000000002,98.0,1121.5,24027.0,4911.0,97.0,1181.7,374.8,4894.1,-133.66904,0.91069736,-0.036564916,-0.0129181478,-1.317674,66.193998,-0.0292347791999999,-0.0022436719999999,-1.320128,1.06890626,1.3424564,6.337263500000001,-13.8,81.5,58.0,16.6,-49.8,247.7,-1065.1,1.7,319.2,1009.1899,-2.6283906,3579.9,-0.031797539,-0.055512305,0.000312245,0.1133870999999999,-1.3206185,-0.0058325772499999,66190.0,28432.5,22330.0,-5.5,18.5,-27.0,0,None
2022-12-21 12:59:43,358.3948888888889,0.1066666666666643,98.0,1047.0,24031.5,4906.5,97.0,1075.4444444444443,377.8888888888889,4897.222222222223,-132.65965555555556,0.923063388888889,-0.05382657,0.0292471061999999,-1.3107706,66.22,-0.0455296139999999,0.038473866,-1.3137687999999998,0.9010428111111112,1.309177111111111,10.924215666666669,-62.0,-22.166666666666668,66.77777777777777,-10.77777777777778,45.77777777777778,267.1666666666667,-1043.888888888889,2.555555555555556,306.3333333333333,1009.1736111111107,-2.6445875,3581.5,-0.0455296139999999,0.0486245941999999,0.038473866,-0.037610824,-1.3137687999999998,0.0005824862,66220.0,28486.0,22360.0,36.5,-0.5,-25.0,0,None
2022-12-21 12:59:44,359.3461111111111,0.1022222222222239,98.0,1068.0,24025.0,4901.0,97.0,1079.6666666666667,380.6666666666667,4900.444444444444,-131.78936666666667,0.9339657111111112,-0.00324938925,-0.042727895,-1.32668075,66.2525,0.00385002325,-0.03175134,-1.3296774999999998,0.8508259777777778,1.2623376666666666,10.404949444444446,-42.11111111111112,-39.888888888888886,48.333333333333336,-2.2222222222222223,50.44444444444444,248.88888888888889,-1023.7777777777778,-23.0,330.55555555555554,1009.151,-2.667213666666666,3582.777777777778,0.00385002325,0.0625956037499999,-0.03175134,-0.0375157575,-1.3296774999999998,-0.00502592075,66255.0,28363.0,22395.0,39.5,5.0,-32.5,0,None
2022-12-21 12:59:45,360.359,0.1079999999999983,98.0,1095.0,24013.0,4904.333333333333,97.0,1116.0,383.8,4892.8,-131.01363999999998,0.94627558,-0.0034388756,-0.02701669,-1.336184,66.262,0.0039316608399999,-0.0160685941999999,-1.3404554,0.8129706500000001,1.4286129,9.0186842,-41.5,28.2,43.6,-3.55,-10.55,239.25,-1039.25,-14.9,315.65,1009.1383,-2.67994915,3584.0,0.0039316608399999,0.0148492139999999,-0.0160685941999999,0.040587386,-1.3404554,-0.0198130308,66265.0,28301.0,22405.0,11.0,24.5,-32.5,0,None
2022-12-21 12:59:46,361.3989,0.1039000000000043,98.0,1138.5,24022.0,4906.5,97.0,1116.0,386.9,4901.1,-130.509,0.95702764,-0.015875038,0.0032226897999999,-1.3399664000000002,66.28600000000002,-0.0076989796,0.01296329498,-1.3448204,0.68593649,2.1256659,10.3065024,-30.3,25.3,42.3,-3.7,15.1,258.4,-1032.6,20.5,319.1,1009.1543,-2.6638907000000005,3585.4,-0.0076989796,0.0069546937999999,0.01296329498,0.046958346,-1.3448204,0.0163633208,66290.0,28308.0,22430.0,12.5,31.5,-37.5,0,None
