00000_Time_epoch,00000_Time_boot_sec,00000_Span_Time_boot_sec,1_battery_remaining_avg,1_current_battery_avg,1_voltage_battery_avg,125_Vcc_avg,147_battery_remaining_avg,147_current_battery_avg,147_current_consumed_avg,165_Vcc_avg,168_direction_avg,168_speed_avg,178_pitch_avg,178_roll_avg,178_yaw_avg,182_altitude_avg,182_pitch_avg,182_roll_avg,182_yaw_avg,241_vibration_x_avg,241_vibration_y_avg,241_vibration_z_avg,27_xacc_avg,27_xgyro_avg,27_xmag_avg,27_yacc_avg,27_ygyro_avg,27_ymag_avg,27_zacc_avg,27_zgyro_avg,27_zmag_avg,29_press_abs_avg,29_press_diff_avg,29_temperature_avg,30_pitch_avg,30_pitchspeed_avg,30_roll_avg,30_rollspeed_avg,30_yaw_avg,30_yawspeed_avg,33_alt_avg,33_hdg_avg,33_relative_alt_avg,33_vx_avg,33_vy_avg,33_vz_avg,label,diagnosis
2023-01-02 12:35:48,210.5882222222222,-0.0200000000000007,83.0,81.0,23327.5,4868.0,99.0,79.75,47.75,4863.666666666667,167.6284111111111,0.1256465222222222,0.004366485,-0.00824102925,-1.21842575,35.71,0.0112228075,-0.00753821025,-1.2212285,0.0241697975,0.02576729875,0.03806285875,-7.5,0.125,78.125,-8.375,5.25,258.25,-1056.0,-0.75,335.0,1020.96025,-0.29362305,2955.375,0.0112228075,0.00562460125,-0.00753821025,-0.000412410475,-1.2212285,-0.000701458425,35680.0,29003.5,140.0,-5.0,12.0,33.0,0,None
2023-01-02 12:35:49,211.5193333333333,0.1044444444444441,83.0,77.0,23321.0,4871.0,99.0,78.33333333333333,48.0,4870.666666666667,169.67033333333333,0.1140729333333333,0.0047502474,-0.0079875388,-1.218046,35.946,0.0114468359999999,-0.007629827,-1.2214264,0.0265313888888888,0.02505896,0.0352453322222222,-7.555555555555555,0.1111111111111111,77.88888888888889,-8.777777777777779,4.888888888888889,258.55555555555554,-1055.4444444444443,-0.5,335.94444444444446,1020.9745,-0.2792491222222222,2957.277777777778,0.0114468359999999,0.0056241764,-0.007629827,-1.6215939999999974e-05,-1.2214264,-0.00087230088,35950.0,29002.5,410.0,-5.0,12.0,34.5,0,None
2023-01-02 12:35:50,212.498,0.102000000000001,83.0,132.5,23284.5,4878.0,99.0,154.8,48.0,4863.2,170.464,0.13616814,0.0051295722,-0.0078389308,-1.2183422,36.136,0.01190052,-0.007371156,-1.2217264,0.120577562,0.230521039,1.281332318,-11.2,-0.4,74.7,-9.6,5.3,257.4,-1058.2,11.5,330.7,1020.9929,-0.2609140399999999,2959.4,0.01190052,0.0117820726,-0.007371156,0.00441696342,-1.2217264,0.0018712756,36135.0,29001.0,595.0,-5.0,13.0,35.5,0,None
2023-01-02 12:35:51,213.4771111111111,0.1022222222222208,83.0,2052.0,22741.0,4866.0,99.0,1388.6666666666667,49.77777777777778,4873.555555555556,170.36616666666666,0.1696550777777777,0.0241477045,-0.00601640675,-1.22008225,36.322500000000005,0.031275085,-0.0056233375,-1.222363,0.3424009444444444,1.2008136555555555,4.139311,-8.444444444444445,4.0,50.77777777777778,-1.4444444444444444,15.77777777777778,253.22222222222223,-1203.2222222222222,20.22222222222222,284.77777777777777,1021.2353333333334,-0.0187847199999999,2961.6666666666665,0.031275085,0.0077908594999999,-0.0056233375,0.01382735625,-1.222363,-0.02571151795,36400.0,29004.0,860.0,-10.5,26.5,93.0,0,None
2023-01-02 12:35:52,214.4685,0.1061000000000006,81.66666666666667,1815.0,22749.33333333333,4879.666666666667,99.0,1852.6,54.9,4876.6,167.87457,0.24049406,-0.02013404,0.0006302461999999,-1.2283422000000002,37.73800000000001,-0.0129346169999999,0.0017297134,-1.2269398,0.39379624,1.4630462999999998,5.8144158,-18.0,-40.6,62.75,-7.1,-86.05,246.05,-1217.8,-15.7,247.6,1020.81915,-0.4346718750000001,2964.0,-0.0129346169999999,-0.075628833,0.0017297134,-0.01663396,-1.2269398,-0.0254265604,38205.0,28947.0,2665.0,-8.0,33.5,300.0,0,None
2023-01-02 12:35:53,215.5136,0.1040999999999996,81.0,1482.0,22808.5,4878.5,99.0,1598.0,60.0,4868.3,167.70456,0.29828312,-0.044332262,-0.029234242,-1.2258546,40.688,-0.035594992,-0.02849912,-1.252865,0.35086546,1.7567073999999998,5.5161097,-11.1,76.6,77.8,-2.2,123.9,241.2,-1047.9,47.6,275.0,1020.406,-0.84785935,2966.4,-0.035594992,0.115879174,-0.02849912,0.02618037882,-1.252865,0.0528758999999999,41260.0,28883.5,5720.0,-2.0,-21.5,332.0,0,None
2023-01-02 12:35:54,216.4993333333333,0.1022222222222208,80.0,1598.0,22783.0,4877.0,99.0,1262.5555555555557,63.888888888888886,4874.333333333333,171.5164,0.3291423888888889,-0.141854728,0.029937154,-1.2094026000000002,43.61800000000001,-0.1320016279999999,0.0295306799999999,-1.234765,0.4022945111111111,1.0940303111111112,6.566206111111111,9.77777777777778,4.333333333333333,103.44444444444444,-9.11111111111111,-326.1111111111111,258.0,-917.0,12.666666666666666,238.88888888888889,1020.0414444444446,-1.2123264444444444,2968.777777777778,-0.1320016279999999,-0.322608056,0.0295306799999999,0.009217484,-1.234765,0.04447345,43510.0,28872.0,7970.0,26.0,-29.0,249.0,0,None
2023-01-02 12:35:55,217.508,0.1080000000000012,79.66666666666667,1309.3333333333333,22836.0,4877.666666666667,99.0,1386.5,67.6,4873.1,172.23901999999998,0.3790475599999999,-0.203072116,-0.036775544,-1.0548528,45.582,-0.190627164,-0.035181088,-1.0807694,0.32382232,1.4630159400000005,6.6625858,-7.7,3.15,176.75,-34.65,178.65,234.7,-1120.55,136.25,246.15,1019.8738500000002,-1.3799687,2971.1,-0.190627164,0.21195698,-0.035181088,0.0667379122,-1.0807694,0.1239854619999999,45480.0,29678.33333333333,9940.0,134.0,-263.6666666666667,205.3333333333333,0,None
2023-01-02 12:35:56,218.53799999999995,0.0999999999999999,79.0,1347.5,22805.0,4873.0,99.0,1388.4,71.4,4874.4,171.76784,0.43191362,-0.038530414,0.035165769,-0.91941824,47.534000000000006,-0.034987814,0.0369364153,-0.94868348,0.4802415299999999,1.7728388,11.5145782,-25.2,130.9,160.8,-66.2,41.0,239.1,-1053.5,184.3,260.1,1019.6254,-1.6284453,2973.5,-0.034987814,0.02610573,0.0369364153,0.042196918,-0.94868348,0.18776004,47940.0,30750.0,12400.0,160.0,-401.0,232.5,0,None
2023-01-02 12:35:57,219.51766666666668,0.1045555555555558,78.0,1441.0,22766.0,4875.0,99.0,1484.6666666666667,75.55555555555556,4879.222222222223,167.09115555555553,0.4664864777777778,-0.0855660075,0.0865002775,-0.823690525,49.515,-0.08200257,0.0882749175,-0.853582575,0.4628254111111112,2.053650222222222,10.69006211111111,-19.55555555555556,0.8888888888888888,198.61111111111111,-69.05555555555556,-13.055555555555555,247.8333333333333,-1076.1666666666667,35.77777777777778,250.94444444444449,1019.4078888888888,-1.845959111111111,2975.4444444444443,-0.08200257,-0.0227396285,0.0882749175,-0.008759975875,-0.853582575,-0.0001091267499999,49630.0,31128.0,14090.0,214.0,-409.0,244.0,0,None
2023-01-02 12:35:58,220.479,0.0999999999999999,78.0,1466.5,22746.5,4860.0,99.0,1505.7,79.7,4873.3,158.14618000000004,0.4872389599999999,-0.076777598,0.0704005299999999,-0.82542434,51.532,-0.073186434,0.075336608,-0.85664768,0.5124168100000001,2.0343483000000004,11.130162899999998,-25.4,13.0,198.8,-87.2,25.7,234.0,-1060.2,-22.3,248.4,1019.1202,-2.1335157,2978.0,-0.073186434,0.065283062,0.075336608,0.0539629142,-0.85664768,-0.023670101,51290.0,31106.0,15750.0,266.0,-434.0,253.5,0,None
2023-01-02 12:35:59,221.513,0.1039999999999991,77.0,1704.6666666666667,22657.33333333333,4860.666666666667,99.0,1784.2,84.3,4869.2,144.94114,0.51662486,-0.0454916959999999,0.09396826,-0.85300488,53.836,-0.04172427,0.1006012179999999,-0.8856667399999999,0.53055121,1.6086947000000005,9.2477001,-24.4,17.4,176.6,-100.9,40.8,241.9,-1045.1,-6.4,238.3,1018.8223,-2.4316327000000006,2980.4,-0.04172427,-0.017158608,0.1006012179999999,0.092673268,-0.8856667399999999,-0.0124409019999999,53550.0,30916.0,18010.0,299.5,-473.0,246.0,0,None
2023-01-02 12:36:00,222.48922222222225,0.1067777777777791,76.0,1652.0,22674.0,4872.0,99.0,1623.3333333333333,88.77777777777777,4872.888888888889,129.2259,0.5908884888888889,-0.0172418164,0.1041746979999999,-0.8575867,56.246,-0.012290081,0.111749242,-0.89083624,0.5693304555555555,1.923731333333333,10.324905666666666,-29.33333333333333,27.33333333333333,168.44444444444446,-109.94444444444444,-13.38888888888889,243.22222222222223,-1059.611111111111,-42.05555555555556,240.0555555555556,1018.5939444444444,-2.659934833333333,2982.4444444444443,-0.012092849,-0.048438808,0.111743962,0.018584168,-0.8907729999999999,-0.04208417,55945.0,30932.5,20405.0,312.5,-477.5,260.0,0,None
2023-01-02 12:36:01,223.511,0.1038999999999987,75.66666666666667,1675.6666666666667,22643.33333333333,4879.666666666667,99.0,1515.8,93.3,4870.0,114.74363999999998,0.75758498,-0.0272799428,0.1078249459999999,-0.8747409000000002,58.566,-0.0198226678,0.11408202,-0.90786446,0.5185466099999998,2.0026062,11.825500599999998,-18.8,-19.2,169.7,-103.6,61.7,246.3,-1049.8,-12.9,245.2,1018.3507,-2.9030858000000004,2984.9,-0.0198226678,0.053048018,0.11408202,-0.0055584877999999,-0.90786446,-0.011317212,58275.0,30798.5,22735.0,334.5,-472.5,256.5,0,None
2023-01-02 12:36:02,224.531,0.102000000000001,75.0,1200.0,22764.0,4868.0,99.0,1232.7,97.2,4876.1,105.11062,0.97798984,0.103732234,0.073497988,-0.9138415,60.638,0.109577846,0.0806903759999999,-0.94532232,0.47516941,1.6581591099999995,12.2372207,-11.8,-40.3,122.2,-102.1,-28.7,249.2,-950.3,-86.2,298.6,1018.1411,-3.1127733,2987.1,0.109577846,-0.0143520199999999,0.0806903759999999,-0.051959254,-0.94532232,-0.0810923099999999,60415.0,30657.5,24875.0,330.0,-430.5,232.5,0,None
2023-01-02 12:36:03,225.539,0.0999999999999999,75.0,1255.5,22743.5,4878.5,99.0,1112.8,100.3,4874.4,98.770984,1.2207599999999998,-0.031387102,0.0294451079999999,-1.03030252,61.682,-0.0190455329999999,0.035122128,-1.0594738,0.4548963199999999,1.6370692999999996,13.951988,8.7,16.4,136.6,-65.6,-9.0,250.5,-1002.2,-131.2,281.8,1018.0634,-3.1905703,2989.3,-0.0190455329999999,-0.0279357371999999,0.035122128,-0.0049795699999999,-1.0594738,-0.1256551699999999,61610.0,30023.0,26070.0,282.5,-411.5,121.5,0,None
2023-01-02 12:36:04,226.5003333333333,0.1022222222222208,75.0,1091.0,22764.0,4883.0,99.0,1168.111111111111,103.33333333333331,4883.333333333333,95.14664999999998,1.469390111111111,0.0012871401999999,0.0220748364,-1.1099674,62.008,0.0140905778,0.024859402,-1.1386936,0.4582648111111111,1.4932461111111113,12.118406666666669,17.555555555555557,-38.66666666666666,112.11111111111111,-83.55555555555556,57.0,253.5555555555556,-1034.2222222222222,-38.44444444444444,285.8888888888889,1017.9721111111112,-3.2815796666666666,2992.0,0.0140905778,0.031132086,0.024859402,-0.0915940646,-1.1386936,-0.0387167999999999,61980.0,29504.5,26440.0,283.5,-468.0,71.0,0,None
2023-01-02 12:36:05,227.4793,0.104000000000002,74.33333333333333,1187.0,22757.666666666668,4886.0,99.0,1155.3,106.6,4883.2,93.34807200000002,1.708032,0.03737504,0.0266177879999999,-1.1466244,62.152,0.049001608,0.027688774,-1.176306,0.5027594,1.3514366,11.5803193,21.6,24.2,90.85,-44.1,1.05,257.65,-1072.55,-7.0,294.7,1017.9617,-3.29237095,2993.9,0.049057788,-0.007820636,0.027571046,0.0464156159999999,-1.1765234,0.0014578579999999,62140.0,29253.5,26600.0,265.0,-489.0,53.0,0,None
2023-01-02 12:36:06,228.5116,0.1020999999999986,74.0,1187.5,22742.0,4869.5,99.0,1182.6,109.9,4875.6,92.692932,1.932946,0.050395742,0.0148660054,-1.1451471999999998,62.208000000000006,0.060540416,0.015781342,-1.1759336,0.4926684,1.29018319,9.4418918,10.1,-18.0,81.6,-59.2,22.7,252.8,-1045.2,-29.3,294.6,1017.9382,-3.3157109000000005,2996.3,0.060540416,0.0267163279999999,0.015781342,-0.0559123386,-1.1759336,-0.02101445436,62205.0,29280.5,26665.0,246.5,-486.0,43.0,0,None
2023-01-02 12:36:07,229.4812222222222,0.1022222222222208,74.0,1090.0,22768.0,4859.0,99.0,1101.6666666666667,113.0,4876.111111111111,92.53063222222222,2.1362696666666663,0.0135868252999999,0.0367965679999999,-1.1635760000000002,62.246,0.0242076302,0.036717524,-1.1955472,0.4695927666666666,1.3256626666666669,9.447561666666669,19.22222222222222,22.77777777777778,84.55555555555556,-43.55555555555556,-47.66666666666666,259.0,-1078.5555555555557,-5.0,286.22222222222223,1017.933,-3.320841777777778,2998.333333333333,0.0242076302,-0.002537932,0.036717524,0.0088043539999999,-1.1955472,-0.000970606,62245.0,29153.5,26705.0,227.5,-477.5,37.5,0,None
2023-01-02 12:36:08,230.4708,0.1041000000000024,74.0,1068.0,22757.0,4874.0,99.0,1140.6,116.1,4872.3,92.664959,2.3480125,0.0246410179,0.0198286222,-1.1441764,62.174,0.035011498,0.0196273236,-1.177183,0.44353805,1.5515580999999998,8.5619124,14.45,-33.25,85.85,-27.75,40.2,260.25,-1064.25,34.85,291.0,1017.94415,-3.3097617500000007,3000.6,0.035011498,0.074803662,0.0196273236,-0.023083534,-1.177183,0.046121072,62190.0,29235.0,26650.0,248.0,-500.0,31.0,0,None
2023-01-02 12:36:09,231.5163,0.1058999999999997,73.66666666666667,1260.3333333333333,22716.33333333333,4866.666666666667,99.0,1219.1,119.5,4868.7,92.94633,2.5499344,0.05145179,0.031070028,-1.1032626,62.09400000000001,0.059943878,0.03261736,-1.137427,0.5043399500000001,1.25024054,11.348776699999998,11.5,29.5,88.5,-53.7,-29.9,258.6,-1060.9,26.6,294.6,1017.9166,-3.3373280000000003,3003.0,0.059943878,-0.0056118632,0.03261736,0.03839645,-1.137427,0.0252849284,62105.0,29463.5,26565.0,223.0,-489.5,30.0,0,None
2023-01-02 12:36:10,232.50144444444445,0.1022222222222207,73.0,1271.0,22709.0,4874.0,99.0,1246.888888888889,122.88888888888889,4875.666666666667,93.25494333333336,2.739934666666666,0.035960695,-0.089872245,-1.1910185,62.0575,0.0449098275,-0.08815065725,-1.2252945,0.3909629888888888,1.5002643333333334,9.156804,16.77777777777778,-214.0,85.11111111111111,-44.77777777777778,15.88888888888889,227.77777777777777,-1078.0,-231.11111111111111,295.44444444444446,1017.9353333333336,-3.318671777777778,3004.8888888888887,0.0449098275,0.0167660384999999,-0.08815065725,-0.264262285,-1.2252945,-0.2779743375,62055.0,29019.0,26515.0,177.0,-489.0,33.5,0,None
2023-01-02 12:36:11,233.4925,0.1060000000000002,73.0,1193.3333333333333,22709.0,4863.0,99.0,1216.7,126.5,4876.9,93.480826,2.9257376,0.00423265458,-0.12116766,-1.4523004000000002,62.004,0.0133043119999999,-0.12187428,-1.4873916,0.41840766,1.33665996,4.4650146,4.85,37.65,12.75,-31.25,26.95,227.2,-1078.15,-188.95,326.5,1017.9641,-3.28981235,3007.4,0.0133043119999999,0.02591307234,-0.12187428,0.05558530848,-1.4873916,-0.201691988,61995.0,27389.5,26455.0,31.0,-529.0,34.0,0,None
2023-01-02 12:36:12,234.5207,0.1001000000000004,73.0,1237.0,22714.5,4880.0,99.0,1213.1,129.8,4874.1,93.662216,3.1012768,0.0126479442,-0.0402736926,-1.621298,61.896,0.02027978,-0.0447069072,-1.6558818000000002,0.38545266,1.362466,5.7462155,-0.9,103.3,-39.6,-12.4,0.8,246.7,-1060.3,-155.7,305.3,1017.9652999999998,-3.2885233,3009.6,0.02027978,0.0030493793999999,-0.0447069072,0.1061126299999999,-1.6558818000000002,-0.1584982399999999,61895.0,26450.0,26355.0,-59.5,-542.5,37.5,0,None
2023-01-02 12:36:13,235.523,0.102000000000001,72.5,1334.0,22671.0,4885.0,99.0,1277.6,133.3,4874.8,93.756298,3.2644378,0.0013941927999999,-0.0443245778,-1.7407142,61.794,0.008396677,-0.048957386,-1.7737188,0.50028185,1.02164293,4.592393700000001,-13.6,-92.9,-69.9,12.1,19.1,240.7,-1060.9,-88.8,306.6,1017.9537,-3.3001251000000003,3011.8,0.008396677,0.0220160552,-0.048957386,-0.0946540556,-1.7737188,-0.079581658,61795.0,25809.0,26255.0,-71.0,-554.0,37.0,0,None
2023-01-02 12:36:14,236.5429,0.0999999999999999,72.0,1316.0,22650.5,4885.0,99.0,1341.0,136.9,4877.8,93.805464,3.4155988000000006,0.0110583299999999,-0.062113224,-1.8142748,61.738,0.0180041686,-0.0636789859999999,-1.8477870000000003,0.39910453,0.99615142,5.9068341,-4.1,47.7,-94.9,11.0,-8.7,233.1,-1054.5,-23.6,310.4,1017.9287,-3.3251876,3013.8,0.0180041686,-0.0097970096,-0.0636789859999999,0.033392426,-1.8477870000000003,-0.0308709099999999,61740.0,25394.0,26200.0,-114.5,-543.5,38.0,0,None
2023-01-02 12:36:15,237.54100000000005,0.0999999999999999,72.0,1223.0,22695.0,4870.0,99.0,1285.1,140.5,4880.1,93.883506,3.5564942000000004,-0.0029177015,-0.047253836,-1.8064744,61.792,0.004764651,-0.047821218,-1.8388012,0.4020198777777777,1.085928911111111,6.986111222222222,-16.0,38.4,-90.4,13.4,-3.9,228.7,-1053.1,24.1,301.4,1017.913,-3.3409609,3016.0,0.004764651,0.019186586,-0.047821218,0.070009312,-1.8388012,0.0235024636,61800.0,25464.5,26260.0,-140.0,-542.0,38.0,0,None
2023-01-02 12:36:16,238.54300000000003,0.0999999999999999,72.0,1140.5,22712.5,4871.0,99.0,1161.3,143.8,4877.8,93.97607,3.6882452,-0.0102004104,-0.032125002,-1.783398,61.87199999999999,-0.002226528,-0.0322207527999999,-1.8182062,0.61111537,0.95741315,9.0982285,0.0,-48.0,-78.2,10.6,51.9,236.9,-1043.2,24.5,310.2,1017.8631999999998,-3.3905861,3017.9,-0.002226528,0.063938446,-0.0322207527999999,-0.040801262,-1.8182062,0.0188636203999999,61880.0,25595.0,26340.0,-139.0,-565.0,29.0,1,27_xacc_avg_constant_0
2023-01-02 12:36:17,239.54100000000005,0.0999999999999999,72.0,1255.0,22654.5,4882.0,99.0,1251.9,147.2,4877.0,94.03971599999998,3.8084536,0.02883946,-0.15358486,-1.8610466,61.914,0.03502068,-0.151203866,-1.8983234,0.5012196666666667,1.1340572444444446,9.145341555555556,0.0,-181.9,-105.1,32.0,43.1,207.7,-1107.6,-205.6,335.6,1017.8641,-3.3896716000000007,3020.1,0.03502068,0.027193411,-0.151203866,-0.198674368,-1.8983234,-0.184722858,61915.0,25047.0,26375.0,-177.0,-526.5,28.5,1,27_xacc_avg_constant_0
2023-01-02 12:36:18,240.5021111111112,0.1022222222222208,72.0,1194.0,22682.0,4880.0,99.0,1319.888888888889,150.66666666666666,4879.222222222223,94.1657288888889,3.9185476666666665,-0.03458838,-0.19083566,-2.1231404,61.93399999999999,-0.0252257179999999,-0.19042346,-2.1576368,0.5058560333333333,1.1509988444444443,8.966050555555556,0.0,107.33333333333331,-154.33333333333334,71.44444444444444,-42.22222222222222,145.33333333333334,-1088.3333333333333,-250.44444444444449,334.6666666666667,1017.836777777778,-3.417143888888889,3022.222222222222,-0.0252257179999999,-0.041294124,-0.19042346,0.09763963,-2.1576368,-0.2184963999999999,61935.0,23547.5,26395.0,-316.5,-438.5,33.0,1,27_xacc_avg_constant_0
2023-01-02 12:36:19,241.461,0.0999999999999999,72.0,1009.5,22703.5,4866.5,99.0,1023.1,153.8,4880.2,94.376911,4.019693299999999,-0.04041426,-0.11651138,-2.2871804,62.05800000000001,-0.030715374,-0.12281916,-2.3175374,0.79373933,1.4043787,10.0897486,0.0,16.5,-182.5,63.6,43.4,154.2,-1064.9,-133.6,344.6,1017.804,-3.4498516,3024.1,-0.030715374,-0.0136283448,-0.12281916,-0.0395077848,-2.3175374,-0.13481923,62065.0,22664.5,26525.0,-388.5,-419.0,32.0,1,27_xacc_avg_constant_0
2023-01-02 12:36:20,242.461,0.0999999999999999,71.0,1022.5,22739.5,4868.5,99.0,1045.8,156.7,4877.7,94.676038,4.125869100000001,-0.0406947399999999,-0.11136712,-2.3880354000000006,62.114,-0.0318042439999999,-0.1169537,-2.4151314,0.8301428399999999,1.4446884999999998,10.576680199999998,0.0,2.8,-203.2,54.8,20.8,127.7,-1047.8,-83.4,347.4,1017.7966,-3.4571481,3026.2,-0.0318042439999999,-0.0081161068,-0.1169537,-0.020396564,-2.4151314,-0.07780529,62115.0,22129.5,26575.0,-423.0,-400.5,19.5,1,27_xacc_avg_constant_0
2023-01-02 12:36:21,243.4635,0.1001000000000004,71.0,1130.0,22674.5,4877.5,99.0,1129.6,159.6,4884.8,94.982194,4.222316600000001,-0.0393154499999999,-0.10552457,-2.4502602,62.13,-0.030866558,-0.110645604,-2.4761283999999995,0.7912722666666667,1.5714165555555557,12.018976444444444,0.0,11.2,-224.5,79.1,-11.7,115.4,-1136.1,-24.5,321.5,1017.7899,-3.4638905,3028.1,-0.030866558,-0.031363378,-0.110645604,-0.0057987638,-2.4761283999999995,-0.03523915272,62135.0,21812.5,26595.0,-437.5,-379.5,21.5,1,27_xacc_avg_constant_0
2023-01-02 12:36:22,244.4647,0.1001000000000004,71.0,975.0,22716.5,4880.5,98.3,1023.1,162.9,4884.7,95.275548,4.310961399999999,-0.02565938,-0.098070972,-2.4771288,62.16600000000001,-0.017209008,-0.102885556,-2.5017764,0.7473237499999998,1.5688638,11.4488954,0.0,-6.6,-224.7,66.1,27.4,116.5,-1050.6,-25.8,336.3,1017.8474,-3.4066174000000005,3030.2,-0.017209008,0.0446209624,-0.102885556,0.0133706231999999,-2.5017764,-0.04360760322,62165.0,21655.0,26625.0,-445.0,-360.5,32.0,1,27_xacc_avg_constant_0
2023-01-02 12:36:23,245.4653,0.0999999999999999,71.0,781.0,22782.0,4882.0,98.0,879.8,165.3,4882.2,95.509838,4.3939448,-0.041449606,-0.079127424,-2.4693062,62.11600000000001,-0.03168605,-0.08253647,-2.4939278,0.63608084,1.8166495000000005,10.912094,0.0,27.5,-220.4,61.1,-9.4,124.9,-1106.1,36.8,347.7,1017.9424,-3.3115233,3032.1,-0.03168605,-0.0203222339999999,-0.08253647,0.041144112,-2.4939278,0.0290442262199999,62110.0,21729.0,26570.0,-449.0,-336.5,33.0,1,27_xacc_avg_constant_0
2023-01-02 12:36:24,246.46519999999995,0.0999999999999999,71.0,1011.0,22713.5,4870.0,98.0,806.1,167.5,4883.4,95.65084,4.4679658,-0.0306256439999999,-0.048174094,-2.442259,62.028,-0.020714508,-0.051094052,-2.46722,0.6789328333333334,1.9080877777777776,11.08860411111111,0.0,27.9,-217.3,31.8,17.5,137.8,-1074.3,23.2,340.3,1017.9847000000002,-3.2692265,3034.1,-0.020714508,0.008570258,-0.051094052,0.068920194,-2.46722,0.03024572254,62025.0,21879.5,26485.0,-464.5,-345.0,42.0,1,27_xacc_avg_constant_0
2023-01-02 12:36:25,247.4672,0.0999999999999999,71.0,1178.5,22692.0,4881.5,98.0,1128.6,170.2,4883.8,95.679084,4.528364,0.0446015632,-0.212357736,-2.5189898,61.946000000000005,0.0515158143999999,-0.214167518,-2.5435566,0.72045258,1.5115994999999998,11.482791699999998,0.0,-250.5,-248.5,66.1,115.8,96.2,-1048.8,-183.0,311.5,1017.8596,-3.394289,3036.0,0.0515158143999999,0.15054497,-0.214167518,-0.280545064,-2.5435566,-0.231694162,61945.0,21342.0,26405.0,-454.0,-299.5,41.5,1,27_xacc_avg_constant_0
2023-01-02 12:36:26,248.4632,0.0999999999999999,71.0,1105.0,22711.0,4885.0,98.0,1236.9,173.9,4884.2,95.67037,4.5831992,-0.02181045,-0.30596192,-2.8869816,62.16,-0.011353914,-0.30951578,-2.9023668,0.61831115,1.23958586,10.408824999999998,0.0,36.5,-277.3,92.9,-1.5,-33.6,-1070.3,-427.5,318.0,1017.7021,-3.5518045000000003,3037.9,-0.011353914,-0.040364272,-0.30951578,0.0424896379999999,-2.9023668,-0.41804226,62185.0,19205.0,26645.0,-449.0,-82.0,36.5,1,27_xacc_avg_constant_0
2023-01-02 12:36:27,249.4651,0.1019999999999981,71.0,1083.5,22699.0,4884.0,98.0,1140.5,176.8,4887.8,95.644552,4.647918799999999,-0.1572565,-0.17526164,1.81216,62.352,-0.14514208,-0.18995212,1.8123784,0.7737145400000001,1.4387207,10.8777444,0.0,68.6,-236.6,76.9,-37.6,-91.8,-1018.4,-246.7,331.2,1017.8034999999998,-3.4503516,3040.0,-0.14514208,0.0169891379999999,-0.18995212,0.118065338,1.8123784,-0.22061978,62350.0,17499.5,26810.0,-470.5,40.5,12.0,1,27_xacc_avg_constant_0
2023-01-02 12:36:28,250.4738,0.1001000000000004,71.0,1445.5,22579.0,4873.5,98.0,1390.3,180.7,4885.8,95.63677799999998,4.7210464000000005,-0.16947202,-0.1138546539999999,2.996191,62.298,-0.15928486,-0.13161592,3.0034862,0.70694261,1.5136865,11.9228455,0.0,54.75,-229.1,75.25,9.85,-103.3,-1010.2,-18.65,338.6,1017.7893,-3.4645038,3041.9,-0.15928486,0.041214272,-0.13161592,-0.0043841199999999,3.0034862,-0.0062174249999999,62295.0,17211.0,26755.0,-518.5,69.0,18.0,1,27_xacc_avg_constant_0
2023-01-02 12:36:29,251.496,0.1039999999999991,71.0,1166.3333333333333,22664.33333333333,4880.0,98.0,1142.3,184.2,4883.9,95.68337800000002,4.795718199999999,-0.1480277,-0.11571327,2.9509921999999995,62.304,-0.14031696,-0.13145454,2.95761,0.7476084100000001,1.4876979999999995,10.6037915,0.0,-9.1,-231.2,37.4,33.4,-101.7,-1008.8,-42.1,336.3,1017.8508,-3.4031171,3043.6,-0.14031696,-0.0121140166,-0.13145454,-0.0079608303999999,2.95761,-0.05882668,62305.0,16919.5,26765.0,-558.5,98.0,22.5,1,27_xacc_avg_constant_0
2023-01-02 12:36:30,252.508,0.0999999999999999,71.0,1097.0,22668.0,4879.5,98.0,1001.7,187.0,4878.1,95.73762000000002,4.865910111111112,-0.1250455399999999,-0.133446608,2.9095928,62.206,-0.11850212,-0.146831,2.9149658,0.99897016,1.5779084,10.732654900000002,-137.1,-113.0,-239.2,62.6,40.7,-114.4,-1047.4,-62.2,339.6,1017.9555,-3.2983358000000003,3045.6,-0.11850212,0.08239106,-0.146831,-0.076920656,2.9149658,-0.0868293388,62195.0,16669.0,26655.0,-569.5,130.0,32.0,0,None
2023-01-02 12:36:31,253.5028888888889,0.1111111111111111,71.0,1032.5,22685.5,4864.0,98.0,1049.888888888889,189.88888888888889,4876.5,95.74614833333332,4.927456944444445,-0.1159812099999999,-0.21633874,2.6945244,62.09400000000001,-0.1118589,-0.22656168,2.7017870000000004,0.9021067555555558,1.4234996666666668,10.894507444444445,-163.94444444444446,-22.0,-221.5,103.77777777777776,28.166666666666668,-192.77777777777777,-1105.3333333333333,-281.1111111111111,307.55555555555554,1017.876,-3.377816777777777,3047.277777777778,-0.1118589,0.01433354946,-0.22656168,0.039026436,2.7017870000000004,-0.29497404,62095.0,15362.5,26555.0,-515.0,227.5,39.5,0,None
2023-01-02 12:36:32,254.508,0.0999999999999999,71.0,976.0,22682.5,4883.0,98.0,1030.0,192.9,4882.444444444444,95.624336,4.9846226,-0.139570562,-0.14405662,2.5046592,62.122,-0.1343668979999999,-0.15620846,2.5196798,0.9790291444444444,1.5340513333333332,10.28319,-148.0,29.6,-177.0,58.9,80.5,-216.0,-1044.1,-72.5,310.1,1017.9261,-3.3279297,3049.2,-0.1343668979999999,0.107200704,-0.15620846,0.051742076,2.5196798,-0.0630217372,62125.0,14398.5,26585.0,-468.0,311.0,39.0,0,None
2023-01-02 12:36:33,255.51844444444447,0.1111111111111111,71.0,890.0,22740.0,4887.5,98.0,905.7777777777778,195.44444444444449,4879.833333333333,95.33617777777778,5.032376,0.0638309469199999,-0.1240941679999999,2.4989884,62.076,0.0661901178,-0.134544704,2.5170182,1.0281787111111111,1.7779952222222224,11.488098666666668,-152.88888888888889,46.0,-240.5555555555556,64.22222222222223,187.77777777777777,-218.22222222222223,-1087.4444444444443,31.77777777777778,277.0,1018.0352222222222,-3.2186456666666667,3050.6666666666665,0.0661901178,0.10462597,-0.134544704,0.0537756338,2.5170182,0.012089532,62070.0,14425.5,26530.0,-352.0,302.0,49.0,0,None
2023-01-02 12:36:34,256.52600000000007,0.1020000000000038,71.0,822.5,22730.0,4882.5,98.0,772.9,197.9,4879.8,94.823146,5.0613014,0.063559508,-0.040260056,2.4959772,61.952,0.06840684,-0.049497568,2.5152402,0.8660241899999999,2.2969237,14.409789999999996,-97.7,67.8,-253.5,59.5,-23.7,-196.2,-1086.2,0.1,292.0,1018.0990000000002,-3.1547263,3052.4,0.06840684,0.01846462552,-0.049497568,0.122829952,2.5152402,-0.0093686979999999,61945.0,14414.0,26405.0,-203.5,214.5,54.5,0,None
2023-01-02 12:36:35,257.544,0.0999999999999999,71.0,867.0,22734.5,4875.0,98.0,885.9,200.2,4879.2,94.34322799999998,5.0728086,0.09768367,-0.00316917094,2.50641,61.89399999999999,0.10353396,-0.0119740157,2.520948,0.93620513,1.7652268000000002,11.3195435,-78.0,14.0,-261.2,21.9,52.5,-173.9,-1084.6,2.8,299.1,1017.9857,-3.2681328,3054.0,0.10353396,0.054541522,-0.0119740157,-0.011241214,2.520948,-0.009093612,61895.0,14439.0,26355.0,-104.5,101.5,58.5,0,None
2023-01-02 12:36:36,258.4944444444444,0.1001111111111059,71.0,774.0,22749.0,4890.0,98.0,832.3333333333334,202.5555555555556,4884.444444444444,94.11503,5.063609111111109,0.091327645,-0.011311998,2.50338025,61.99249999999999,0.0976135425,-0.0192589725,2.51193825,0.7581312777777777,1.876789888888889,12.534423333333333,-58.22222222222222,-10.333333333333334,-261.44444444444446,23.11111111111111,-41.55555555555556,-180.66666666666663,-1026.888888888889,5.111111111111111,293.77777777777777,1017.924888888889,-3.328897444444445,3055.555555555556,0.0976135425,-0.0131163013499999,-0.0192589725,0.0206412528249999,2.51193825,0.0098481122499999,62020.0,14400.5,26480.0,-5.5,1.0,47.0,0,None
2023-01-02 12:36:37,259.4648,0.1019000000000005,71.0,913.5,22722.0,4876.0,98.0,876.9,204.8,4885.6,94.03472399999998,5.0395526,0.01925002162,-0.0169949068,2.5019744000000004,62.112,0.02784643264,-0.0258668479999999,2.5056032,0.62814675,1.967498,14.565880000000002,-54.7,8.6,-239.3,-19.0,-61.0,-184.3,-959.6,-13.6,305.5,1017.8911,-3.3629843,3057.2,0.02784643264,-0.072234314,-0.0258668479999999,0.022716608,2.5056032,-0.004972586,62130.0,14333.0,26590.0,48.5,-44.5,34.5,0,None
2023-01-02 12:36:38,260.475,0.1021000000000014,71.0,934.5,22709.0,4881.0,98.0,926.3,207.3,4878.4,93.969256,5.0106036000000005,-0.038743582,-0.0137218859999999,2.5012302,62.176,-0.030143838,-0.025550912,2.4986678,0.58929122,1.5552198,14.989445999999996,-64.35,-31.35,-216.95,23.2,-33.8,-185.05,-1048.0,-3.85,312.9,1017.8532,-3.4007616,3058.9,-0.030143838,-0.0008675705999999,-0.025550912,-0.022579802,2.4986678,0.01245074054,62195.0,14318.5,26655.0,52.0,-56.0,31.0,0,None
2023-01-02 12:36:39,261.52070000000003,0.1059000000000025,71.0,887.6666666666666,22716.33333333333,4885.333333333333,98.0,905.2,210.1,4878.3,93.958752,4.9844762000000005,-0.06178154,-0.03280075,2.508041,62.25,-0.05339647,-0.046342586,2.5019934000000004,0.56989094,1.72851,15.657086,-47.7,3.1,-208.8,9.6,-17.9,-190.3,-1078.3,9.5,313.8,1017.8508000000002,-3.4030546,3060.6,-0.05339647,0.014046766,-0.046342586,-0.0131189846,2.5019934000000004,-0.0027026805999999,62265.0,14345.5,26725.0,39.0,-38.0,30.5,0,None
2023-01-02 12:36:40,262.486,0.1001111111111059,71.0,1156.0,22671.0,4850.0,98.0,948.3333333333334,212.44444444444449,4880.111111111111,93.99324222222222,4.9639644444444455,-0.046498702,-0.044892444,2.5287786,62.27,-0.037784572,-0.059776266,2.5191874000000003,0.7214855222222222,1.6773363333333335,11.169492111111111,-68.0,-33.666666666666664,-214.5555555555556,29.33333333333333,63.66666666666666,-184.0,-1061.6666666666667,15.666666666666666,312.6666666666667,1017.7967777777778,-3.4572048888888887,3062.222222222222,-0.037784572,0.087986134,-0.059776266,-0.0196236868,2.5191874000000003,0.0215911437999999,62270.0,14437.0,26730.0,21.0,-21.0,21.0,0,None
2023-01-02 12:36:41,263.4768,0.1040000000000019,71.0,927.5,22698.0,4882.5,98.0,881.5,215.1,4880.5,94.024534,4.9459858,-0.027822528,-0.065003096,2.5283518000000003,62.294,-0.0196888652,-0.078004226,2.5162568,0.61215022,1.8316961,11.879657999999996,-39.9,-9.15,-227.9,13.45,-9.7,-194.85,-1060.25,-22.75,306.55,1017.836,-3.4178241,3064.1,-0.0196888652,-0.0450333038,-0.078004226,-0.0003706979999999,2.5162568,-0.029393966,62285.0,14444.5,26745.0,30.0,-13.0,21.5,0,None
2023-01-02 12:36:42,264.4888,0.0999999999999999,71.0,945.5,22722.5,4884.5,98.0,847.2,217.6,4885.0,94.001688,4.929346400000002,-0.0243870739999999,-0.047405828,2.5200176,62.268,-0.0157936362,-0.059261792,2.5056562,0.6161018,1.8656126666666664,11.60848611111111,-41.3,25.0,-225.5,26.7,26.2,-186.7,-1070.0,1.5,317.8,1017.8351,-3.418781,3065.8,-0.0157936362,0.0124476092,-0.059261792,0.0373664619999999,2.5056562,0.0018434039999999,62275.0,14353.0,26735.0,45.5,16.0,23.0,0,None
2023-01-02 12:36:43,265.499,0.1060000000000001,71.0,1016.6666666666666,22662.666666666668,4881.0,98.0,1042.5,220.2,4881.0,93.921132,4.914244199999999,-0.01105020174,-0.038388962,2.5294298,62.226,-0.0028943296,-0.049493138,2.5117022,0.6333958,1.6073143,13.9506998,-56.9,7.7,-233.4,11.8,-36.7,-181.0,-1051.3,10.0,316.5,1017.7935,-3.4604376,3067.3,-0.0028943296,-0.0517365179999999,-0.049493138,0.0274310138,2.5117022,-0.0146286856,62240.0,14378.5,26700.0,57.5,14.0,21.5,0,None
2023-01-02 12:36:44,266.5415,0.1000999999999976,71.0,1086.0,22658.0,4877.0,98.0,1083.2,223.2,4881.2,93.83293799999998,4.8980159,-0.061141878,-0.044891054,2.5329618000000003,62.29600000000001,-0.05187209,-0.0546068019999999,2.5110388,0.83867042,1.5181315,12.5341855,-77.2,-16.9,-213.1,23.7,-29.4,-184.7,-1031.0,1.2,309.3,1017.7126,-3.5412733000000003,3068.9,-0.05187209,-0.051329494,-0.0546068019999999,0.0047790959999999,2.5110388,0.0119275372,62260.0,14378.5,26720.0,64.5,-10.0,21.0,0,None
2023-01-02 12:36:45,267.5492,0.1002000000000009,70.5,1265.0,22575.0,4870.5,98.0,1163.0,226.2,4882.2,93.781038,4.8846097,-0.0675534419999999,-0.0623000879999999,2.5468004,62.396,-0.0575475439999999,-0.07063576,2.5213998,0.7133682699999999,1.4409816,12.1765833,-53.2,-10.1,-220.5,58.4,-3.5,-188.0,-1076.6,15.7,319.2,1017.6995,-3.5543516000000004,3070.6,-0.0575475439999999,-0.008619016,-0.07063576,0.00339651914,2.5213998,0.011849073,62380.0,14416.0,26840.0,46.5,-7.0,10.5,0,None
2023-01-02 12:36:46,268.548,0.0999999999999999,70.0,1263.5,22585.0,4888.0,98.0,1170.8,229.5,4879.8,93.751332,4.877622000000001,-0.0540116019999999,-0.063850926,2.5672004,62.464,-0.043868998,-0.07153393,2.5397838,0.62593988,1.3800231999999997,11.419873,-73.6,-7.3,-223.9,87.7,37.3,-193.5,-1020.4,7.7,295.9,1017.6552,-3.5987576,3072.2,-0.043868998,0.0506673424,-0.07153393,0.014748478,2.5397838,0.0057628709399999,62445.0,14536.5,26905.0,31.5,0.0,5.5,0,None
2023-01-02 12:36:47,269.548,0.0999999999999999,70.0,1088.5,22637.0,4886.0,98.0,1074.0,232.6,4883.1,93.738546,4.8766892,-0.051352324,-0.088957474,2.5566332,62.49399999999999,-0.0410159779999999,-0.09695552,2.5267148,0.73529581,1.4928218000000002,10.7080265,-99.2,-10.7,-224.4,26.3,0.0,-200.0,-1027.8,-29.9,291.7,1017.7712,-3.4826484,3073.8,-0.0410159779999999,-0.034317814,-0.09695552,-0.0334016679999999,2.5267148,-0.0316731066,62510.0,14508.5,26970.0,36.0,-4.5,2.5,0,None
2023-01-02 12:36:48,270.548,0.0999999999999999,70.0,1042.5,22638.5,4869.0,98.0,1034.8,235.7,4880.1,93.719418,4.8825914,-0.070381056,-0.059040256,2.5524308,62.346,-0.058614378,-0.067532336,2.5195062,0.8126134199999999,1.5071224,12.1929752,-79.2,38.1,-216.1,74.2,9.9,-191.6,-1094.8,9.9,314.7,1017.8571000000002,-3.396992,3075.5,-0.058614378,-0.017262014,-0.067532336,0.076938992,2.5195062,0.0107705169999999,62375.0,14416.5,26835.0,51.5,7.0,16.0,0,None
2023-01-02 12:36:49,271.548,0.0999999999999999,70.0,955.5,22674.5,4874.5,98.0,955.2,238.4,4880.4,93.714912,4.894429399999999,-0.06196382,-0.055044838,2.5705494,62.208000000000006,-0.050526512,-0.06318376,2.5341988,0.8234966699999999,1.6348193000000002,10.6426311,-62.4,-12.5,-222.3,45.5,10.4,-185.2,-1093.1,-1.0,318.8,1017.911,-3.3429218000000005,3076.7,-0.050526512,0.0053583579999999,-0.06318376,-0.0116646796,2.5341988,-0.00404138384,62240.0,14514.0,26700.0,36.5,10.0,29.5,0,None
2023-01-02 12:36:50,272.548,0.0999999999999999,70.0,1053.5,22610.0,4881.5,98.0,1003.6,241.1,4878.6,93.74211,4.908263,-0.0532321725,-0.0560386875,2.5684855,62.1125,-0.0418551575,-0.0643322725,2.52828125,0.8149678,1.6005125,10.8658036,-76.2,3.8,-223.5,50.2,12.2,-185.7,-1046.5,-7.3,312.7,1017.8652222222222,-3.3887586666666665,3078.4444444444443,-0.0418551575,-0.00241117875,-0.0643322725,0.0356501949999999,2.52828125,-0.018171321,62135.0,14497.0,26595.0,27.5,9.5,35.0,0,None
2023-01-02 12:36:51,273.5091111111112,0.1022222222222239,70.0,969.0,22680.0,4880.0,98.0,1049.888888888889,243.88888888888889,4882.333333333333,93.77373222222222,4.922116999999999,-0.04665573,-0.0721648925,2.57002825,62.14000000000001,-0.0357418925,-0.0799348325,2.5267082499999995,0.8566194333333335,1.6771981111111112,11.069179555555554,-61.11111111111112,-16.77777777777778,-223.66666666666663,73.88888888888889,0.0,-184.66666666666663,-1045.7777777777778,16.0,306.1111111111111,1017.8086666666668,-3.4451909999999994,3079.555555555556,-0.0357418925,-0.02163272525,-0.0799348325,-0.00532901025,2.5267082499999995,-0.0061570902499999,62135.0,14477.0,26595.0,25.5,-3.0,33.5,0,None
2023-01-02 12:36:52,274.494,0.1021000000000014,70.0,980.0,22648.0,4882.5,98.0,1099.2222222222222,246.88888888888889,4882.7,93.78146,4.935915199999999,-0.048328564,-0.0826338299999999,2.5774896000000003,62.228,-0.037049582,-0.089912744,2.530535,0.7997265800000001,1.5170375,11.200834600000002,-43.15,-9.8,-227.1,80.75,10.05,-195.2,-1094.3,18.6,307.25,1017.75145,-3.50230845,3081.2,-0.037049582,-0.0020932176,-0.089912744,-0.0328777566,2.530535,0.0032042476,62225.0,14493.0,26685.0,26.0,-9.0,24.0,0,None
2023-01-02 12:36:53,275.459,0.1066666666666643,70.0,841.0,22702.5,4882.5,98.0,842.2222222222222,249.3333333333333,4884.444444444444,93.75934,4.950824111111111,-0.04838081,-0.077819128,2.5954050000000004,62.318000000000005,-0.03728508,-0.084725216,2.5456666,0.8045615888888888,1.8740502222222224,10.80293411111111,-65.55555555555556,36.44444444444444,-228.11111111111111,22.666666666666668,-9.555555555555555,-194.88888888888889,-1068.888888888889,31.22222222222222,318.0,1017.9137777777778,-3.3401474444444443,3082.555555555556,-0.0375717,-0.010322832,-0.084696996,-0.0038352583999999,2.5455794,0.033097588,62325.0,14569.0,26785.0,37.5,-5.0,29.5,0,None
2023-01-02 12:36:54,276.50539999999995,0.1098000000000013,70.0,723.0,22746.0,4878.0,98.0,783.8,251.8,4883.0,93.71326000000002,4.9681902,-0.024077518,-0.051818684,2.592951,62.138,-0.0127935703999999,-0.0595000699999999,2.5399482,0.79787593,1.9940911,12.607336,-42.55,17.6,-234.95,3.6,24.35,-181.9,-983.8,-17.05,314.7,1018.0047499999998,-3.2490507,3083.9,-0.0127935703999999,-0.014055426,-0.0595000699999999,-0.0093746079999999,2.5399482,-0.01194251034,62150.0,14560.0,26610.0,47.0,18.5,37.5,0,None
2023-01-02 12:36:55,277.5295,0.098199999999997,70.0,750.0,22705.5,4876.0,98.0,826.8,253.9,4881.3,93.651026,4.976466799999999,-0.0229207097,0.005653354,2.5938758,61.996,-0.01176055,-0.0032731552,2.536834,0.8042628900000001,1.9951231,11.2309466,-40.9,47.6,-234.7,23.7,53.3,-158.8,-1076.0,4.6,325.9,1017.9603,-3.2935781000000004,3085.4,-0.01176055,0.0617269279999999,-0.0032731552,0.0063084599999999,2.536834,0.0174669932,62000.0,14538.5,26460.0,40.5,15.5,46.5,0,None
2023-01-02 12:36:56,278.5491,0.1021000000000014,70.0,720.5,22727.0,4879.5,98.0,853.8,256.2,4882.7,93.622816,4.9703584,-0.00655817634,-0.0361190684,2.5730379999999995,62.00599999999999,0.0034093529999999,-0.0441858884,2.5106266,0.6538507499999999,1.9172708,11.7960065,-49.3,-83.8,-239.8,42.4,-31.9,-180.3,-1017.9,-18.6,308.2,1017.9264,-3.3276171,3086.6,0.0034093529999999,-0.0493465238,-0.0441858884,-0.114414612,2.5106266,-0.0111996839999999,62005.0,14377.5,26465.0,29.5,-32.5,46.5,0,None
2023-01-02 12:36:57,279.5237777777777,0.1066666666666643,70.0,885.0,22702.0,4883.5,98.0,1050.7777777777778,258.8888888888889,4887.555555555556,93.6204,4.9566316666666665,-0.055999394,-0.0594969199999999,2.576871,62.028,-0.044238018,-0.0663948519999999,2.5112158,0.6882358111111111,1.5975094444444444,11.423153555555556,-76.0,25.72222222222222,-227.16666666666663,42.77777777777778,-71.38888888888889,-184.0,-1109.7777777777778,-10.61111111111111,308.72222222222223,1017.8887777777776,-3.364973833333333,3088.055555555556,-0.044238018,-0.0149858578,-0.0663948519999999,0.073226404,2.5112158,0.0087556519999999,62030.0,14381.5,26490.0,56.0,-40.5,37.0,0,None
2023-01-02 12:36:58,280.51739999999995,0.1019000000000005,70.0,1119.5,22627.0,4881.0,98.0,958.1,262.0,4878.0,93.613914,4.9460978,-0.09039114,-0.047461368,2.5880412,62.136,-0.077483302,-0.055097492,2.5203612,0.7663132,1.5625928999999998,12.37196,-81.8,-8.4,-211.3,3.1,30.5,-182.0,-1101.0,-1.2,326.9,1017.888,-3.3659219,3089.7,-0.077483302,0.0685504979999999,-0.055097492,0.0051482687999999,2.5203612,0.0019928101999999,62135.0,14440.5,26595.0,40.5,-28.0,43.0,1,27_xgyro_avg_constant_-8.4
2023-01-02 12:36:59,281.55150000000003,0.1021000000000014,70.0,847.5,22704.0,4876.0,98.0,814.0,264.2,4878.0,93.648274,4.9403256,-0.075799978,-0.040512656,2.6007618,62.174,-0.0632842639999999,-0.047883094,2.5310538,0.6988473099999999,1.9207056,11.4291275,-54.9,-8.4,-215.7,14.2,21.2,-180.4,-1009.9,16.3,320.0,1017.9242000000002,-3.329703,3090.6,-0.0632842639999999,0.032272146,-0.047883094,0.0561076606,2.5310538,0.0172762406,62175.0,14499.0,26635.0,11.5,4.0,35.5,1,27_xgyro_avg_constant_-8.4
2023-01-02 12:37:00,282.5373333333333,0.1085555555555528,70.0,674.5,22754.5,4873.0,98.0,871.6666666666666,266.6666666666667,4878.444444444444,93.70418333333336,4.938576888888889,-0.0202925468,-0.043033096,2.6090426,62.122,-0.008938867,-0.050642638,2.5363288,0.7310979999999999,1.8875274444444448,11.870723333333334,-48.5,-8.4,-240.22222222222223,26.11111111111111,50.388888888888886,-173.66666666666666,-1015.6111111111112,20.38888888888889,312.6666666666667,1017.928722222222,-3.3252732222222217,3092.0,-0.008938867,-0.0061660698,-0.050642638,-0.0038500974,2.5363288,0.025588128,62125.0,14519.0,26585.0,5.0,8.0,39.5,1,27_xgyro_avg_constant_-8.4
2023-01-02 12:37:01,283.52900000000005,0.1023000000000024,70.0,870.0,22697.0,4859.5,98.0,893.3,269.0,4875.3,93.719608,4.933157200000001,-0.032394176,-0.046521036,2.6217094000000003,62.116,-0.02140739,-0.052738688,2.5457176,0.78517773,1.6620256999999998,10.1095657,-62.4,-8.4,-238.4,28.4,-4.3,-170.6,-1045.9,2.3,315.7,1017.8693,-3.3846249,3093.5,-0.02140739,-0.0165431742,-0.052738688,-0.0127362844,2.5457176,-0.0133030968,62110.0,14588.5,26570.0,20.5,-14.0,39.0,1,27_xgyro_avg_constant_-8.4
2023-01-02 12:37:02,284.51711111111115,0.1022222222222239,70.0,860.0,22700.5,4874.0,98.0,842.5555555555555,271.44444444444446,4884.222222222223,93.70405555555556,4.924188555555556,-0.0476845699999999,-0.06561017,2.61893775,62.197500000000005,-0.0355134275,-0.07131666,2.5406285,0.7287583555555557,1.774361,10.728164666666665,-53.77777777777778,-8.4,-232.22222222222223,16.77777777777778,-15.0,-184.44444444444449,-1042.0,-2.6666666666666665,320.6666666666667,1017.8618888888888,-3.3919096666666664,3094.6666666666665,-0.0355134275,-0.0013449849999999,-0.07131666,-0.0127097324999999,2.5406285,-0.0083466374999999,62195.0,14548.0,26655.0,24.0,-8.5,34.0,1,27_xgyro_avg_constant_-8.4
2023-01-02 12:37:03,285.48580000000004,0.1039999999999963,70.0,833.0,22711.5,4885.0,98.0,811.7,273.7,4886.1,93.67489,4.917643,-0.029801318,-0.0550414019999999,2.604579,62.224,-0.018422068,-0.061089894,2.5232386,0.66507219,1.8341201000000005,11.3806018,-46.95,-8.4,-233.9,40.75,-9.5,-180.35,-1159.95,-27.25,319.45,1017.8391,-3.4145937500000003,3095.95,-0.018422068,0.0241428204,-0.061089894,-0.0257941659999999,2.5232386,-0.0222162079999999,62225.0,14448.0,26685.0,28.0,2.5,29.0,1,27_xgyro_avg_constant_-8.4
2023-01-02 12:37:04,286.51000000000005,0.0999999999999999,70.0,815.5,22700.0,4877.0,98.0,776.5,276.0,4874.8,93.61358399999996,4.9115848,-0.022266116,-0.0488517059999999,2.5964752,62.252,-0.0121737295999999,-0.0541472239999999,2.5124704,0.79893517,1.9495042,11.8406641,-37.9,-8.4,-235.5,24.0,5.9,-183.2,-1061.8,-0.7,315.9,1017.8306,-3.4234373,3097.1,-0.0121737295999999,0.034176677,-0.0541472239999999,0.042330354,2.5124704,-0.0053692311999999,62260.0,14395.0,26720.0,36.5,7.5,30.5,1,27_xgyro_avg_constant_-8.4
2023-01-02 12:37:05,287.52360000000004,0.1020000000000038,70.0,813.0,22701.5,4873.0,98.0,857.6,278.2,4882.5,93.519644,4.904138,-0.0095640027999999,-0.024137832,2.6047776,62.25600000000001,0.0003911655999999,-0.030360018,2.5174116,0.77201469,1.9695318,11.267318499999998,-30.3,-8.4,-243.0,35.6,45.0,-170.9,-1088.1,-10.8,309.1,1017.84,-3.4139531,3098.6,0.0003911655999999,0.100471438,-0.030360018,0.0078625639999999,2.5174116,0.0030647622,62250.0,14410.0,26710.0,23.5,-8.0,22.5,1,27_xgyro_avg_constant_-8.4
2023-01-02 12:37:06,288.5227777777778,0.108777777777776,70.0,920.0,22692.0,4886.5,98.0,955.5555555555557,280.6666666666667,4889.222222222223,93.42723555555555,4.892216444444445,-0.0137111828719999,-0.060583688,2.5958574000000003,62.248000000000005,-0.0045255138,-0.06592656,2.5043176,0.6733362777777778,1.891282888888889,11.377873444444443,-50.333333333333336,-8.4,-240.3333333333333,40.833333333333336,-47.66666666666666,-180.5555555555556,-1009.2222222222222,0.5555555555555556,308.22222222222223,1017.7648333333332,-3.489088555555556,3099.6666666666665,-0.0045255138,-0.05703324,-0.06592656,-0.0558068559999999,2.5043176,-0.00083509146,62250.0,14354.0,26710.0,41.0,-31.0,20.5,1,27_xgyro_avg_constant_-8.4
2023-01-02 12:37:07,289.5264,0.104000000000002,70.0,1020.0,22637.0,4887.5,98.0,1070.2,283.4,4882.7,93.327408,4.880918200000001,-0.06040185,-0.068528414,2.6124088,62.304,-0.0502888499999999,-0.073937212,2.5181832,0.8077746400000001,1.5272479,12.427381999999998,-72.7,-8.4,-225.5,30.6,-25.1,-183.2,-1038.3,15.7,306.2,1017.7315999999998,-3.5222264,3100.8,-0.0502888499999999,-0.04790893,-0.073937212,-0.0224909026,2.5181832,0.0312177666,62310.0,14432.0,26770.0,44.0,-35.5,18.0,1,27_xgyro_avg_constant_-8.4
2023-01-02 12:37:08,290.512,0.1024444444444409,70.0,1072.0,22621.0,4888.5,98.0,1045.4444444444443,286.22222222222223,4889.555555555556,93.25660666666666,4.874868222222222,-0.0802006449999999,-0.0705862375,2.6120252500000003,62.3725,-0.06934605,-0.0759606975,2.51563,0.7869409333333333,1.5553914444444443,13.49885111111111,-70.0,-8.4,-222.22222222222223,55.333333333333336,-16.555555555555557,-179.22222222222223,-1090.0,-15.666666666666666,327.77777777777777,1017.7676666666669,-3.4863107777777773,3102.222222222222,-0.06934605,-0.017251865,-0.0759606975,0.0167486395,2.51563,-0.00519223075,62380.0,14407.0,26840.0,42.0,-21.0,9.0,1,27_xgyro_avg_constant_-8.4
2023-01-02 12:37:09,291.5143,0.1060000000000002,70.0,869.5,22688.0,4882.5,98.0,914.3,289.0,4884.2,93.214846,4.8739498,-0.07045535,-0.064418724,2.627351,62.348,-0.059237706,-0.069857174,2.5295644000000004,0.6688580299999999,1.8379161,10.534738699999998,-62.15,-8.4,-225.3,41.8,22.0,-171.3,-1038.1,27.0,321.3,1017.8598,-3.3941366000000004,3103.4,-0.059237706,0.008677042,-0.069857174,0.0073972892799999,2.5295644000000004,0.0269579899999999,62370.0,14475.5,26830.0,24.5,-3.0,21.0,1,27_xgyro_avg_constant_-8.4
2023-01-02 12:37:10,292.5098888888889,0.1044444444444441,70.0,856.0,22668.0,4883.5,98.0,874.6666666666666,291.3333333333333,4888.666666666667,93.21770777777778,4.878102666666667,-0.0399708359999999,-0.06655244,2.6500474,62.248000000000005,-0.029847394,-0.07115682,2.5502968000000004,0.782575511111111,1.7994473333333336,10.910548444444446,-52.44444444444444,-8.4,-234.77777777777777,52.77777777777778,60.888888888888886,-173.11111111111111,-1051.0,-1.8888888888888888,315.6666666666667,1017.842777777778,-3.411093555555555,3104.555555555556,-0.029847394,0.0348580622,-0.07115682,-0.02714092,2.5502968000000004,-0.0035440202,62255.0,14606.0,26715.0,13.5,3.5,29.0,1,27_xgyro_avg_constant_-8.4
2023-01-02 12:37:11,293.5009,0.104000000000002,70.0,764.5,22703.0,4881.0,98.0,771.8,293.9,4882.8,93.231328,4.8848256,-0.04047906,-0.066480438,2.6345218,62.214,-0.0314918099999999,-0.0700185419999999,2.5336948,0.8289368399999999,2.1496886,12.287406999999998,-55.35,-8.4,-234.55,42.75,-9.25,-180.2,-1037.5,-1.8,316.2,1017.89605,-3.3579179000000003,3105.8,-0.0314918099999999,0.066639228,-0.0700185419999999,0.028147518,2.5336948,0.0046313228,62225.0,14514.5,26685.0,23.5,12.0,33.5,1,27_xgyro_avg_constant_-8.4
2023-01-02 12:37:12,294.48988888888886,0.1044444444444441,70.0,835.0,22685.0,4879.5,98.0,772.2222222222222,295.8888888888889,4879.0,93.22382333333331,4.890192333333333,-0.0202238849999999,-0.033633355,2.63699325,62.1575,-0.0113485065,-0.037976955,2.53438975,0.8640178124999999,2.027000375,11.38074625,-52.11111111111112,13.22222222222222,-237.66666666666663,37.77777777777778,34.888888888888886,-163.44444444444446,-1042.888888888889,7.666666666666667,318.3333333333333,1017.8872222222222,-3.366736111111111,3107.111111111112,-0.0113485065,-0.0268506775,-0.037976955,-0.0512422649999999,2.53438975,0.0134080297499999,62160.0,14523.5,26620.0,21.5,13.0,31.5,0,None
2023-01-02 12:37:13,295.4808,0.1039999999999963,70.0,994.0,22637.5,4883.5,98.0,892.9,298.0,4886.2,93.191299,4.8903802,-0.0054248672,-0.05057108,2.6399542,62.154,0.00219885416,-0.055048902,2.5345982,0.79995525,2.0045578,10.6100049,-42.75,-17.75,-248.45,63.0,-20.05,-166.4,-1106.2,-14.15,312.6,1017.8408,-3.4129572,3108.0,0.00219885416,0.011085094,-0.055048902,-0.003005438,2.5345982,-0.016872009,62150.0,14519.0,26610.0,26.5,-26.0,30.5,0,None
2023-01-02 12:37:14,296.529,0.1060000000000002,70.0,946.5,22648.0,4884.0,98.0,1001.0,301.0,4880.4,93.133214,4.887089800000001,-0.051288622,-0.053689948,2.6256362,62.19199999999999,-0.04198498,-0.057454982,2.5182162,0.67006801,1.5514887,11.1183543,-40.7,-7.1,-230.2,37.7,-25.0,-178.5,-1071.1,-38.7,311.9,1017.8113,-3.4425155,3109.2,-0.04198498,-0.026126837,-0.057454982,-0.028242758,2.5182162,-0.0301668094,62190.0,14416.0,26650.0,31.0,-26.0,27.5,0,None
2023-01-02 12:37:15,297.532,0.1044444444444441,70.0,1034.5,22624.0,4892.0,98.0,1086.2222222222222,304.0,4892.555555555556,93.06577777777778,4.884384666666667,-0.0396141,-0.050289186,2.6286868,62.234,-0.030051168,-0.055616278,2.5201022,0.7373721777777776,1.457888888888889,11.680368333333332,-46.05555555555556,-2.388888888888889,-238.8333333333333,47.833333333333336,16.38888888888889,-174.61111111111111,-1054.2222222222222,25.166666666666668,299.44444444444446,1017.811277777778,-3.442591333333333,3110.4444444444443,-0.030051168,0.03688016,-0.055616278,0.036494486,2.5201022,0.0342631678,62235.0,14443.5,26695.0,8.5,-17.5,26.0,0,None
2023-01-02 12:37:16,298.52470000000005,0.104000000000002,70.0,1157.5,22575.0,4887.0,98.0,1174.9,307.1,4886.7,93.0075,4.8838292,-0.0179917822,-0.091414488,2.6561354,62.25,-0.0077800388,-0.09654745,2.5461094,0.69801497,1.4794397999999995,11.0555174,-38.8,-33.2,-248.3,52.5,30.9,-182.0,-1031.3,14.1,297.7,1017.7904999999998,-3.4634375,3111.4,-0.0077800388,-0.0088524079999999,-0.09654745,-0.07284908,2.5461094,0.0121742986,62250.0,14596.5,26710.0,1.0,-18.5,21.5,0,None
2023-01-02 12:37:17,299.5427777777778,0.111111111111111,70.0,937.5,22646.5,4885.5,98.0,909.2222222222222,309.8888888888889,4890.111111111111,92.89110222222224,4.884182666666667,0.0005589474,-0.087901158,2.6470004000000005,62.324,0.0114362959999999,-0.092559046,2.5354532,0.7093613333333333,1.6830404444444442,10.323604888888887,-53.05555555555556,22.33333333333333,-250.22222222222223,20.77777777777778,7.722222222222222,-183.0555555555556,-1061.111111111111,-25.61111111111111,304.5,1017.8295555555555,-3.424374777777778,3112.722222222222,0.0114362959999999,-0.020215234,-0.092559046,0.0491898899999999,2.5354532,-0.04283928086,62325.0,14531.5,26785.0,39.5,-3.5,29.5,0,None
2023-01-02 12:37:18,300.5536,0.1021000000000014,70.0,782.0,22694.5,4886.5,98.0,834.1,312.2,4884.6,92.742298,4.885254,-0.036342252,-0.0332065859999999,2.6238894000000004,62.262,-0.0248574192,-0.039458934,2.5109968,0.70680126,1.733372,9.7506972,-35.4,64.9,-229.2,46.4,2.1,-171.7,-1087.8,-17.9,326.7,1017.8911,-3.3627343,3113.6,-0.0248574192,0.04910049,-0.039458934,0.0711959232,2.5109968,-0.007093681,62265.0,14383.0,26725.0,60.5,4.5,22.0,0,None
2023-01-02 12:37:19,301.552,0.0999999999999999,70.0,943.5,22648.5,4882.5,98.0,917.4,314.8,4884.8,92.613338,4.8836718,-0.03170659,-0.0123152874,2.6230012,62.162,-0.0219032,-0.0189232846,2.5076908,0.61313052,1.8272754,11.9661088,-50.3,-11.7,-233.6,43.6,21.0,-163.9,-1068.2,12.4,318.6,1017.8685,-3.3853047,3114.9,-0.0219032,0.0111774979999999,-0.0189232846,-0.076742564,2.5076908,0.001765144,62155.0,14371.5,26615.0,34.0,-12.0,29.5,0,None
2023-01-02 12:37:20,302.552,0.0999999999999999,70.0,891.5,22654.0,4885.5,98.0,931.4,317.2,4885.4,92.553496,4.875537199999999,-0.0384834139999999,-0.067781272,2.6333482,62.16600000000001,-0.0285245859999999,-0.072699756,2.5164552,0.63813739,1.5897960999999998,10.1345947,-53.0,-59.3,-236.3,27.0,5.2,-178.8,-1016.8,-5.4,313.2,1017.8925000000002,-3.3613592,3115.9,-0.0285245859999999,-0.003515646,-0.072699756,-0.0742329479999999,2.5164552,-0.00974959806,62165.0,14417.5,26625.0,22.5,-28.0,31.0,0,None
2023-01-02 12:37:21,303.5131111111112,0.1022222222222239,70.0,1154.5,22577.0,4880.0,98.0,1106.0,320.0,4887.777777777777,92.53206888888889,4.865493333333333,-0.066775615,-0.0330183385,2.6346655,62.11749999999999,-0.0553549925,-0.037642375,2.51562,0.7033810555555555,1.495666222222222,12.074262,-26.77777777777778,2.7777777777777777,-226.66666666666663,49.888888888888886,-21.666666666666668,-170.55555555555554,-1067.7777777777778,4.777777777777778,316.8888888888889,1017.8224444444444,-3.431440888888889,3116.8888888888887,-0.0553549925,0.0149209974999999,-0.037642375,-0.0079237674999999,2.51562,-0.0017590152499999,62125.0,14421.5,26585.0,6.5,-14.0,33.5,0,None
2023-01-02 12:37:22,304.4907999999999,0.1058999999999968,70.0,982.0,22627.0,4882.5,98.0,898.2,322.8,4882.1,92.51841199999998,4.8588708,-0.020988788,-0.074595828,2.6365692,62.260000000000005,-0.0106843146,-0.079269718,2.5165044,0.67609416,1.6471104,11.06992,-45.77777777777778,-4.666666666666667,-238.5555555555556,43.94444444444444,23.61111111111111,-182.5555555555556,-1093.3333333333333,8.277777777777779,310.6666666666667,1017.81945,-3.43436705,3118.05,-0.0106843146,0.0013831642,-0.079269718,-0.0007945598399999,2.5165044,0.017312204,62295.0,14428.0,26755.0,8.5,-3.5,26.5,0,None
2023-01-02 12:37:23,305.54280000000006,0.1021999999999991,70.0,865.0,22664.0,4880.0,97.2,894.9,325.2,4884.5,92.465126,4.853101,-0.009955401,-0.0569185539999999,2.6425218,62.258,0.0008533652,-0.060311246,2.5212242,0.7128769500000001,1.8459797,10.6049837,-37.6,69.4,-244.0,39.2,52.8,-180.1,-1068.0,3.9,315.2,1017.8592999999998,-3.3945232999999995,3119.3,0.0008533652,0.0250874044,-0.060311246,0.126059496,2.5212242,-0.021967434,62225.0,14450.0,26685.0,30.5,10.5,22.0,0,None
2023-01-02 12:37:24,306.5425555555556,0.1066666666666706,70.0,787.0,22669.0,4883.5,97.0,930.2222222222222,327.77777777777777,4885.111111111111,92.36441777777776,4.845429333333334,-0.0160977968,-0.032579496,2.6334048,62.212,-0.0066804285999999,-0.0368290679999999,2.5107786,0.6085121777777779,1.660573111111111,11.790410222222222,-45.388888888888886,-20.83333333333333,-243.38888888888889,38.44444444444444,-12.833333333333334,-167.05555555555554,-1043.888888888889,-9.61111111111111,309.5,1017.8300555555556,-3.4239019444444447,3120.277777777778,-0.0064614106,-0.022056858,-0.036960754,-0.024874964,2.5108302,-0.0035832727999999,62220.0,14368.5,26680.0,40.0,-14.0,24.0,0,None
2023-01-02 12:37:25,307.49633333333327,0.1066666666666643,70.0,822.5,22655.5,4881.0,97.0,860.5555555555555,330.22222222222223,4887.0,92.26938222222222,4.835886666666668,-0.0412157675,-0.0466787475,2.635491,62.235,-0.0300863774999999,-0.0504655175,2.51140225,0.5931668777777778,1.7599727777777778,15.447281111111112,-47.55555555555556,21.77777777777778,-228.77777777777777,15.666666666666666,2.0,-167.33333333333334,-1068.888888888889,27.88888888888889,329.55555555555554,1017.9121111111112,-3.341762111111111,3121.222222222222,-0.0300863774999999,0.0420835034999999,-0.0504655175,-0.0045386482499999,2.51140225,0.0225545132499999,62240.0,14401.0,26700.0,40.0,-5.0,35.0,0,None
2023-01-02 12:37:26,308.52500000000003,0.1079999999999983,70.0,1018.0,22593.5,4886.0,97.0,1018.5,332.8,4888.2,92.18512,4.8249402,-0.044732995,0.003872436,2.6712868333333333,62.16,-0.0344389616666666,-0.0002545183333333,2.546108,0.68188504,1.6468303000000002,10.3072147,-26.9,47.9,-235.65,60.65,14.0,-150.85,-1076.6,46.0,325.5,1017.83465,-3.4193125,3122.6,-0.0344389616666666,0.0175876116666666,-0.0002545183333333,0.0298604019166666,2.546108,0.0370639583333333,62165.0,14532.5,26625.0,29.5,-4.5,32.5,0,None
2023-01-02 12:37:27,309.5447777777778,0.1066666666666706,70.0,773.5,22671.5,4883.5,97.0,868.5555555555555,335.6666666666667,4889.222222222223,92.15334333333334,4.811871111111112,0.00351616825,-0.077363375,2.66230975,62.2225,0.0128930912499999,-0.08111203,2.53605475,0.7624949444444444,1.975522,12.967206666666668,-26.05555555555556,-151.88888888888889,-247.72222222222223,32.611111111111114,14.22222222222222,-162.55555555555554,-1094.0555555555557,-53.66666666666666,312.5,1017.8788888888888,-3.3750606666666667,3123.3888888888887,0.0128930912499999,0.0179882549999999,-0.08111203,-0.124859915,2.53605475,-0.0455106555,62210.0,14597.5,26670.0,-12.5,-31.5,36.0,0,None
2023-01-02 12:37:28,310.5408,0.1039999999999963,70.0,875.0,22656.5,4883.5,97.0,904.1,338.0,4885.8,92.138202,4.7992168,-0.02589984,-0.089066224,2.6451652,62.212,-0.0159593535999999,-0.091684538,2.5181202,0.64659588,1.7523057000000002,11.4306715,-42.7,37.9,-238.2,61.0,-9.9,-187.3,-1042.7,14.4,308.8,1017.8095,-3.4444764999999995,3124.3,-0.0159593535999999,-0.0313004821999999,-0.091684538,0.0379228068,2.5181202,-0.0012285819999999,62205.0,14420.5,26665.0,18.5,-17.0,28.5,0,None
2023-01-02 12:37:29,311.5427777777778,0.1088888888888908,69.5,844.0,22639.5,4877.0,97.0,899.8888888888889,340.44444444444446,4884.333333333333,92.08883222222224,4.788646444444445,-0.021878626,-0.076944058,2.6716740000000003,62.278,-0.011337362,-0.081252764,2.544332,0.7377460666666665,1.834070555555556,12.540264444444444,-46.05555555555556,-18.11111111111111,-239.94444444444449,71.61111111111111,-18.166666666666668,-175.77777777777777,-1135.2222222222222,7.111111111111111,299.72222222222223,1017.7909999999998,-3.4627907222222216,3125.611111111112,-0.011337362,0.028397612,-0.081252764,-0.007368216,2.544332,0.0173245962,62275.0,14567.0,26735.0,19.0,-13.5,24.0,0,None
2023-01-02 12:37:30,312.545,0.111111111111111,69.0,980.5,22611.0,4879.5,97.0,983.2222222222222,343.0,4889.0,92.01008222222222,4.782223999999999,-0.022938298,-0.082612882,2.6713396,62.286,-0.0127820592,-0.087610734,2.5434624,0.7384966222222222,1.6285027777777776,11.362535777777778,-29.666666666666668,-3.2777777777777777,-246.61111111111111,66.05555555555556,-12.61111111111111,-181.0555555555556,-1067.7777777777778,-5.055555555555555,305.3888888888889,1017.8026666666668,-3.4512456111111107,3126.555555555556,-0.0129030252,-0.0187485244,-0.08765868,-0.0052128539999999,2.5434284,-0.0124924943999999,62295.0,14579.0,26755.0,28.5,-12.5,20.0,0,None
2023-01-02 12:37:31,313.5141111111112,0.1066666666666643,69.0,1083.0,22581.0,4884.5,97.0,1106.5555555555557,346.0,4884.333333333333,91.9030422222222,4.778977666666666,-0.041135615,-0.07289004,2.6764315,62.2725,-0.0302520775,-0.0786087749999999,2.54864325,0.798412211111111,1.6700120000000005,11.326414444444444,-25.55555555555556,4.277777777777778,-241.72222222222223,82.55555555555556,2.833333333333333,-178.94444444444446,-1069.7777777777778,22.0,306.44444444444446,1017.7939444444444,-3.4599304444444443,3127.4444444444443,-0.0302018799999999,-0.0031904459999999,-0.0786451324999999,0.0537813825,2.548839,0.0201407549999999,62275.0,14607.5,26735.0,28.0,-7.0,19.5,0,None
2023-01-02 12:37:32,314.5086,0.104000000000002,69.0,1060.0,22561.5,4880.5,97.0,1018.5,349.0,4877.7,91.787584,4.778428799999999,-0.026432874,-0.078103852,2.683851,62.304,-0.015860356,-0.084045736,2.5557000000000003,0.83459623,1.6661732,12.086194,-40.7,-7.4,-241.4,99.6,9.0,-175.4,-1017.5,2.4,308.6,1017.8078,-3.4462265000000003,3128.4,-0.015860356,0.0572699234,-0.084045736,-0.047923452,2.5557000000000003,0.0173176593999999,62305.0,14645.0,26765.0,21.5,-6.0,21.5,0,None
2023-01-02 12:37:33,315.514,0.1088888888888908,69.0,1019.5,22582.5,4880.0,97.0,1053.7777777777778,351.77777777777777,4885.444444444444,91.66773888888888,4.780186777777778,-0.0233748719999999,-0.088626028,2.6724726,62.306,-0.013430989,-0.0946554719999999,2.5440586000000005,0.7807132666666666,1.5640285555555553,12.127945555555556,-59.22222222222222,5.888888888888889,-245.38888888888889,89.33333333333333,-5.944444444444445,-176.72222222222223,-1013.6666666666666,-21.05555555555556,297.55555555555554,1017.7461666666668,-3.507734333333333,3129.333333333333,-0.013430989,-0.013985882,-0.0946554719999999,-0.0012339709999999,2.5440586000000005,-0.0220259484,62305.0,14563.0,26765.0,34.0,-6.0,23.0,0,None
2023-01-02 12:37:34,316.4956666666667,0.1066666666666643,69.0,1021.5,22589.5,4883.5,97.0,1058.4444444444443,354.44444444444446,4882.777777777777,91.53402555555554,4.784056555555555,-0.053788774,-0.070991212,2.6632442,62.366,-0.043172506,-0.077212848,2.5350418,0.8091105444444444,1.5458732222222222,11.202178,-54.66666666666666,13.11111111111111,-234.3333333333333,92.66666666666669,-9.0,-182.88888888888889,-1052.0,1.5555555555555556,304.22222222222223,1017.7446666666668,-3.509297000000001,3130.222222222222,-0.043172506,-0.003692334,-0.077212848,0.0414394352,2.5350418,0.0149310686,62365.0,14520.5,26825.0,35.0,-6.5,12.0,0,None
2023-01-02 12:37:35,317.5028,0.1060000000000002,69.0,1018.0,22591.5,4886.0,97.0,1007.0,357.5,4888.5,91.401406,4.790382,-0.04608469,-0.072080946,2.662845,62.38799999999999,-0.036014738,-0.078133488,2.5346878,0.7668248700000001,1.5900483,11.913035,-58.2,10.65,-235.9,44.1,-5.55,-180.45,-1075.1,-14.9,306.3,1017.7602,-3.4936131,3131.3,-0.036014738,0.047210564,-0.078133488,0.0019040955999999,2.5346878,-0.0040572964,62395.0,14518.0,26855.0,23.0,-9.5,15.0,0,None
2023-01-02 12:37:36,318.5516,0.1021000000000014,69.0,779.5,22637.5,4886.5,97.0,887.5,360.1,4887.5,91.302586,4.7980436,-0.03589278,-0.07076888,2.6623156000000003,62.33399999999999,-0.0255717482,-0.0760915259999999,2.5337874,0.7907197699999999,1.9092645,11.381196399999997,-46.0,12.4,-236.9,46.3,70.6,-173.6,-1083.2,-7.0,314.9,1017.8791,-3.3747812,3132.3,-0.0255717482,0.0504764182,-0.0760915259999999,-0.0018789933999999,2.5337874,-0.0050402379999999,62320.0,14506.0,26780.0,18.0,9.0,24.0,0,None
