00000_Time_epoch,00000_Time_boot_sec,00000_Span_Time_boot_sec,1_battery_remaining_avg,1_current_battery_avg,1_voltage_battery_avg,125_Vcc_avg,147_battery_remaining_avg,147_current_battery_avg,147_current_consumed_avg,165_Vcc_avg,168_direction_avg,168_speed_avg,178_pitch_avg,178_roll_avg,178_yaw_avg,182_altitude_avg,182_pitch_avg,182_roll_avg,182_yaw_avg,241_vibration_x_avg,241_vibration_y_avg,241_vibration_z_avg,27_xacc_avg,27_xgyro_avg,27_xmag_avg,27_yacc_avg,27_ygyro_avg,27_ymag_avg,27_zacc_avg,27_zgyro_avg,27_zmag_avg,29_press_abs_avg,29_press_diff_avg,29_temperature_avg,30_pitch_avg,30_pitchspeed_avg,30_roll_avg,30_rollspeed_avg,30_yaw_avg,30_yawspeed_avg,33_alt_avg,33_hdg_avg,33_relative_alt_avg,33_vx_avg,33_vy_avg,33_vz_avg,label,diagnosis
2022-12-22 10:37:52,640.673,-0.1160000000000081,100.0,71.0,25206.0,4909.0,99.0,70.25,137.0,4902.6,43.502846,0.3988505,0.022905595,0.05134959,-1.4364750000000002,27.585,0.03347642,0.06476444,-1.479301,0.0265691375,0.0244732275,0.03679286,11.0,11.8,11.0,-66.8,12.4,272.6,-1023.4,-3.4,308.4,1012.4418,-0.026281248,4610.0,0.03347642,0.013221495,0.06476444,0.012779905,-1.479301,-0.003919903,27580.0,27525.0,-100.0,19.0,19.0,-30.0,0,None
2022-12-22 10:37:53,641.4161111111111,0.1066666666666706,100.0,77.5,25189.0,4911.5,99.0,80.0,138.0,4910.777777777777,39.65510111111112,0.4440041777777777,0.022801728,0.0508316479999999,-1.4366868000000002,27.496,0.033388896,0.06464856,-1.4794306,0.0267688322222222,0.0248377877777777,0.03473121,11.444444444444445,12.055555555555555,11.88888888888889,-66.27777777777777,12.666666666666666,272.1666666666667,-1023.3333333333334,-3.888888888888889,308.3333333333333,1012.4427222222224,-0.0251562472222222,4611.111111111111,0.033388896,0.013060012,0.06464856,0.012250778,-1.4794306,-0.0040569071999999,27490.0,27524.0,-190.0,19.0,18.5,-31.5,0,None
2022-12-22 10:37:54,642.401,0.1019999999999981,100.0,200.5,25124.5,4899.5,99.0,159.2,138.0,4907.6,36.26428,0.6155998800000001,0.0228399759999999,0.0507716439999999,-1.4374754,27.410000000000004,0.033416458,0.0645275219999999,-1.4793512,0.107566422,0.14460202,0.6263833010000001,7.3,11.9,6.7,-71.3,10.9,269.6,-1026.2,-19.7,304.6,1012.4558,-0.0121406225,4612.4,0.033426938,0.0132112214,0.0645058179999999,0.0108964554,-1.479401,0.0149008457999999,27410.0,27523.5,-270.0,18.5,18.0,-32.0,0,None
2022-12-22 10:37:55,643.4330000000001,0.1039999999999963,100.0,907.0,24849.5,4908.0,99.0,1151.3,139.5,4895.5,35.06244,0.8333007199999999,0.036877836,0.032881166,-1.4346926,27.42,0.046121758,0.046169297,-1.4727532,0.4082715919999999,0.49006405,2.47374164,2.2,-53.6,-9.4,-31.7,20.5,257.8,-1136.8,11.6,286.4,1012.6528999999998,0.185054692,4613.8,0.046121758,0.05689702,0.046169297,-0.050829608,-1.4727532,0.0126064376,27470.0,27573.5,-210.0,26.0,39.0,13.0,0,None
2022-12-22 10:37:56,644.461,0.0999999999999999,100.0,1648.0,24577.5,4906.0,99.0,1715.2,144.0,4901.5,34.807402,1.0174385200000002,-0.048013432,0.0095653602,-1.448207,28.608000000000004,-0.0366413659999999,0.0236494841,-1.4796361999999998,0.35905292,1.1334501600000002,4.2755341,-13.5,34.7,-3.9,-25.8,-88.0,246.5,-1174.2,-12.2,275.3,1012.3542,-0.113570295,4615.1,-0.0366413659999999,-0.081469478,0.0236494841,0.046085756,-1.4796361999999998,-0.01741354,28885.0,27509.0,1205.0,24.5,44.5,178.5,0,None
2022-12-22 10:37:57,645.4524444444445,0.1068888888888876,100.0,2006.0,24402.5,4900.5,99.0,1813.4444444444443,149.22222222222223,4901.888888888889,34.01243666666667,1.123381111111111,-0.0162858402,-0.026983182,-1.4550242,31.554,-0.007132552,-0.0156216926,-1.5573202,0.2633044333333333,1.5234573444444444,5.003965222222223,-11.333333333333334,-5.277777777777778,-5.277777777777778,-29.5,90.5,233.11111111111111,-1106.5,1.3888888888888888,295.6111111111111,1012.0256111111112,-0.44232205,4616.666666666667,-0.007132552,0.077897116,-0.0156216926,-0.040907724,-1.5573202,0.00449016874,31935.0,26784.0,4255.0,9.5,-12.0,289.0,0,None
2022-12-22 10:37:58,646.4269,0.1019999999999981,100.0,1425.0,24587.5,4912.5,99.0,1323.5,153.5,4900.9,33.889166,1.1760072,0.0015253234,0.0150461357999999,-1.4455365999999998,34.919999999999995,0.0115489762,0.0292954974,-1.5945117999999998,0.40145652,1.37299717,5.3083032,-7.3,61.0,0.7,-24.6,11.0,240.7,-873.4,1.9,297.4,1011.6442,-0.82364841,4617.9,0.0115489762,0.0336717174,0.0292954974,0.0753294518,-1.5945117999999998,0.0185675204,35230.0,26868.0,7550.0,-9.5,-12.0,235.0,0,None
2022-12-22 10:37:59,647.4374999999999,0.1001000000000089,100.0,1164.0,24655.5,4909.0,99.0,1131.4,156.6,4906.3,33.753392,1.229206,0.014718034,0.035101006,-1.4610287999999998,36.73,0.025311822,0.0492891459999999,-1.6047995999999998,0.5969271199999999,0.64601633,3.7619015,-4.4,12.7,-1.6,-11.5,24.2,262.7,-889.5,-22.5,304.7,1011.4192,-1.0486407000000002,4619.5,0.025311822,0.041095186,0.0492891459999999,0.007583846,-1.6047995999999998,-0.01823910218,36830.0,26795.5,9150.0,5.0,-10.0,58.0,0,None
2022-12-22 10:38:00,648.419111111111,0.1044444444444378,100.0,1158.5,24664.0,4911.5,99.0,1224.2222222222222,159.66666666666666,4911.111111111111,33.155791111111114,1.2854948888888889,0.037838665,0.00914196175,-1.4669957500000002,37.25,0.045754105,0.0236413172499999,-1.6060767500000002,0.4197316777777777,0.8139322333333333,5.720051777777779,1.9444444444444444,-22.666666666666668,-6.888888888888889,-24.666666666666668,28.666666666666668,261.55555555555554,-1001.7222222222222,-4.277777777777778,301.55555555555554,1011.3228333333332,-1.1449435555555558,4620.888888888889,0.045754105,0.00568953525,0.0236413172499999,-0.035352948625,-1.6060767500000002,0.0051121245,37240.0,26794.0,9560.0,15.0,2.0,8.0,0,None
2022-12-22 10:38:01,649.3799999999999,0.0999999999999999,100.0,1128.5,24653.5,4914.5,98.2,1151.4,162.8,4915.3,32.99078200000001,1.3401791999999997,0.0048693842,0.0234676622,-1.467171,37.488,0.013748012,0.038150936,-1.6024256,0.47301595,1.1137371100000002,8.595963000000001,-9.3,84.7,-3.2,-52.5,-149.5,245.4,-982.6,4.2,291.9,1011.282,-1.1857968,4622.4,0.013748012,-0.127358811,0.038150936,0.094424682,-1.6024256,0.0018751313999999,37455.0,26822.5,9775.0,4.0,23.0,-13.0,0,None
2022-12-22 10:38:02,650.388,0.1019999999999981,100.0,1112.5,24649.0,4914.5,98.0,1125.1,166.3,4915.3,32.991941999999995,1.3996863999999998,-0.0929127219999999,0.05444067,-1.4657002,37.608,-0.0823112683999999,0.064848932,-1.5965074,0.47326887,0.94198587,8.1252423,-22.6,-92.9,34.1,-43.5,213.2,271.0,-1002.6,-5.0,289.4,1011.2651,-1.202867,4623.8,-0.0823112683999999,0.1942973439999999,0.064848932,-0.075281432,-1.5965074,-0.005056854,37590.0,26829.5,9910.0,16.5,-37.0,-24.0,0,None
2022-12-22 10:38:03,651.428,0.1040000000000077,100.0,1114.5,24629.5,4914.0,98.0,1135.6,169.5,4902.2,32.565444,1.4546532,0.038871554,-0.1266868214,-1.4702224,37.648,0.04518924,-0.1112233139999999,-1.5957833999999995,0.52161205,0.9581624,7.027272399999999,-18.8,123.1,-6.6,-34.6,-31.7,199.4,-1029.2,-15.6,347.0,1011.2669,-1.2010703,4625.3,0.04518924,-0.0361502679999999,-0.1112233139999999,0.0756810128,-1.5957833999999995,-0.008496118,37645.0,26877.0,9965.0,-18.0,-58.0,-29.0,0,None
2022-12-22 10:38:04,652.4085555555555,0.1023333333333261,100.0,1244.0,24564.0,4902.0,98.0,1273.6666666666667,172.66666666666666,4912.444444444444,32.02196222222223,1.5081668888888888,0.0057849192,0.2699518399999999,-1.4676584,37.628,0.0131582596,0.2768709,-1.5945442,0.4514343222222222,1.3313637555555555,7.120030777777777,-15.88888888888889,282.55555555555554,-3.555555555555556,-43.888888888888886,-3.7777777777777777,310.22222222222223,-1071.4444444444443,21.444444444444443,230.0,1011.2765555555555,-1.1913542222222222,4626.888888888889,0.0131582596,0.0092376719999999,0.2768709,0.256803998,-1.5945442,0.0156906474,37635.0,26842.5,9955.0,-48.0,-28.5,-29.5,0,None
2022-12-22 10:38:05,653.3770000000001,0.1019999999999981,100.0,1176.0,24613.0,4917.0,98.0,1110.2,175.9,4918.4,31.296326,1.5404795999999998,-0.0030218023999999,0.0081678279999999,-1.4613492,37.68,0.0025018191999999,0.0207682679999999,-1.5832978,0.53230081,1.35757385,8.9908258,-15.35,-454.6,8.85,-31.45,-8.7,263.95,-1060.35,1.0,282.75,1011.24615,-1.2218359,4628.4,0.0025018191999999,-0.00983637074,0.0207682679999999,-0.47514593302,-1.5832978,-0.0043288632,37660.0,26912.0,9980.0,183.5,-18.5,-27.0,0,None
2022-12-22 10:38:06,654.4033999999999,0.1040000000000077,100.0,1184.5,24578.0,4916.0,98.0,1174.5,179.4,4912.3,29.885572000000003,1.5896458,-0.037153034,-0.0794470811999999,-1.4614654,37.708000000000006,-0.0254231796,-0.0601436179999999,-1.5795752,0.52944024,1.63647167,12.3668405,-12.8,260.7,19.1,-36.7,21.0,211.7,-1021.7,-37.5,338.9,1011.2552,-1.2126016,4630.0,-0.0254231796,0.015177806,-0.0601436179999999,0.253409832,-1.5795752,-0.024775596,37710.0,26970.0,10030.0,67.0,-12.0,-33.5,0,None
2022-12-22 10:38:07,655.4454,0.1020999999999957,100.0,1146.5,24590.5,4917.0,98.0,1201.2,182.5,4907.5,28.870454,1.6362454,0.047673702,0.0541421379999999,-1.4883204,37.64,0.059418484,0.065818016,-1.604702,0.46722206,1.0432776899999998,7.0011597000000005,-12.3,-5.7,-5.9,-32.7,87.0,252.8,-1044.6,-18.8,291.4,1011.2934,-1.1745548,4631.5,0.059418484,0.0823059174,0.065818016,-0.007290054,-1.604702,-0.0138876999999999,37660.0,26819.0,9980.0,23.0,-29.5,-31.5,0,None
2022-12-22 10:38:08,656.4011111111109,0.1022222222222176,100.0,1205.0,24566.0,4912.5,98.0,1264.0,185.88888888888889,4912.777777777777,27.893744444444447,1.6858146666666665,0.1181286959999999,0.024999314,-1.4943958,37.6,0.12647457,0.0385251459999999,-1.6078822000000002,0.4104264999999999,1.0930675333333335,6.518036222222222,-0.8888888888888888,-1.0,-44.44444444444444,-34.22222222222222,-8.555555555555555,246.3333333333333,-1044.5555555555557,-1.2222222222222223,300.77777777777777,1011.2982222222222,-1.1696787777777775,4632.888888888889,0.12647457,-0.1151819999999999,0.0385251459999999,0.0112783586,-1.6078822000000002,-0.012089136,37600.0,26793.5,9920.0,41.5,45.0,-25.5,0,None
2022-12-22 10:38:09,657.3700000000001,0.1040000000000077,100.0,1124.5,24611.0,4918.5,98.0,1189.2,189.2,4916.2,27.036895999999995,1.7455686000000004,-0.0731000425,0.050365735,-1.50268975,37.6175,-0.0591032099999999,0.0606422225,-1.6124815,0.45630653,1.0627882,8.1487269,-5.0,31.2,11.95,-31.55,-83.5,266.55,-1024.5,-4.95,305.65,1011.2801666666668,-1.187699611111111,4634.444444444444,-0.0591032099999999,0.0351724899999999,0.0606422225,-0.001889435,-1.6124815,-0.0065879675,37615.0,26756.5,9935.0,37.0,99.0,-22.5,0,None
2022-12-22 10:38:10,658.41,0.1019999999999981,100.0,1273.5,24511.5,4917.5,98.0,1278.5,192.8,4910.8,26.415190000000003,1.7979459999999996,0.0161072552,-0.0739418396,-1.5049157999999998,37.616,0.026214315,-0.0632979024,-1.609526,0.40092631,1.05434386,6.9535218,-10.3,-17.6,-7.5,-19.1,59.7,229.5,-1037.7,7.1,330.3,1011.2928,-1.1750234,4636.1,0.026214315,0.0325847449999999,-0.0632979024,0.022692114,-1.609526,0.0105600862,37620.0,26771.5,9940.0,23.5,38.5,-28.0,0,None
2022-12-22 10:38:11,659.388,0.1044444444444378,100.0,1316.0,24480.5,4917.0,98.0,1348.111111111111,196.3333333333333,4912.666666666667,25.794641111111112,1.839988777777778,0.003332129025,0.2239477999999999,-1.501498,37.6,0.0129038099999999,0.229506025,-1.60673075,0.4682256444444445,1.046462155555555,5.045479888888889,-5.222222222222222,275.3333333333333,-10.11111111111111,-42.55555555555556,16.88888888888889,294.1111111111111,-1045.111111111111,-11.11111111111111,259.44444444444446,1011.3068888888888,-1.1608419999999997,4637.555555555556,0.0128883475,0.01531161675,0.2286008,0.2984362,-1.60684625,-0.00599512,37605.0,26792.5,9925.0,-8.0,44.5,-26.5,0,None
2022-12-22 10:38:12,660.387,0.1041000000000053,100.0,1234.0,24486.5,4916.5,98.0,1228.1,199.9,4916.2,25.170176,1.8707472000000005,-0.1209259979999999,0.0146740339999999,-1.5070442,37.612,-0.1127153439999999,0.022941108,-1.6090817999999998,0.45882174,1.10429573,6.7497378,-15.2,-252.35,35.65,-37.7,-152.95,253.85,-1059.3,-15.75,289.05,1011.26225,-1.2055429,4639.1,-0.1127153439999999,-0.1880216519999999,0.022941108,-0.325545856,-1.6090817999999998,-0.00149660974,37605.0,26784.5,9925.0,141.5,14.5,-22.5,0,None
2022-12-22 10:38:13,661.4309999999999,0.1039999999999963,100.0,1226.5,24502.0,4911.0,98.0,1273.7,203.5,4904.0,24.50014,1.8959684000000003,0.0982328648,-0.0344581654,-1.5231248000000002,37.67,0.1067636977999999,-0.0231978071999999,-1.6234282,0.3845568899999999,1.2813749600000002,10.024156899999998,-10.9,80.3,-26.7,-50.0,389.1,234.4,-1028.2,-0.2,319.7,1011.2672,-1.2007734,4640.6,0.1067636977999999,0.4462683999999999,-0.0231978071999999,0.0875157439999999,-1.6234282,0.0040423896,37675.0,26690.0,9995.0,61.5,-73.0,-33.0,0,None
2022-12-22 10:38:14,662.4113333333332,0.1023333333333387,100.0,1240.5,24488.5,4916.5,98.0,1183.111111111111,206.88888888888889,4914.444444444444,23.91974,1.9088096666666663,-0.019840622,-0.0039891525999999,-1.5174268,37.654,-0.0120394059999999,0.0076325168,-1.6178964,0.4336621,0.8936896444444444,6.793932444444445,8.88888888888889,52.888888888888886,-13.88888888888889,-42.11111111111112,-353.55555555555554,252.5555555555556,-1026.4444444444443,-10.555555555555555,313.77777777777777,1011.2887777777778,-1.179045333333333,4641.777777777777,-0.0120394059999999,-0.3624913758,0.0076325168,0.046916452,-1.6178964,-0.0022182718,37655.0,26735.0,9975.0,29.5,54.5,-28.0,0,None
2022-12-22 10:38:15,663.3797,0.1019999999999981,100.0,1215.5,24521.0,4920.5,98.0,1249.6,210.1,4920.8,23.933395999999995,1.9171888,-0.15824202,0.0205825554,-1.5142992,37.62,-0.14451122,0.028322762,-1.6120692,0.38664825,1.0554507400000002,7.2457975,-18.05,-14.15,45.45,-28.15,25.25,242.75,-1034.65,12.75,285.6,1011.2942,-1.1736092,4643.25,-0.14451122,0.039808434,0.028322762,-0.019976398,-1.6120692,0.0136355848,37625.0,26758.0,9945.0,16.0,-69.0,-30.5,0,None
2022-12-22 10:38:16,664.4024,0.1019999999999981,100.0,1207.0,24515.0,4917.0,98.0,1207.4,213.7,4920.0,24.228939999999994,1.9191202,-0.025182554,-0.0111803837999999,-1.5101206,37.62400000000001,-0.0175823279999999,-0.00290268254,-1.6042332,0.47947071,0.6964630700000001,5.809449,-32.0,-8.6,18.1,-35.3,282.5,248.1,-1025.4,-9.5,309.3,1011.2876,-1.1802889,4644.7,-0.0175823279999999,0.29193265,-0.00290268254,-0.0097675784,-1.6042332,0.0034715329999999,37615.0,26806.0,9935.0,12.0,-197.0,-24.5,0,None
2022-12-22 10:38:17,665.4068,0.1000999999999976,100.0,1212.0,24480.0,4918.0,98.0,1210.1,217.2,4916.0,24.417792,1.9083272,0.15521996,-0.0140452253999999,-1.5128819999999998,37.646,0.1580372,-0.000771119,-1.6048402,0.4643435299999999,0.6706675599999999,4.266419900000001,-20.6,45.2,-46.2,-19.9,-29.6,234.1,-1034.1,-11.4,313.9,1011.298,-1.1698672,4646.4,0.1580372,-0.0268860439999999,-0.000771119,0.0437792526,-1.6048402,-0.003753357,37645.0,26809.0,9965.0,1.0,-107.0,-28.5,0,None
2022-12-22 10:38:18,666.4074,0.1001000000000089,100.0,1196.0,24490.0,4913.5,98.0,1202.4,220.5,4912.4,24.566384000000003,1.8966868,0.0353001342,0.023255932,-1.5224688000000002,37.636,0.042285682,0.037139144,-1.6131192,0.49642293,0.65605201,3.4993567,-2.0,34.9,-14.1,-16.3,-87.3,257.3,-1026.0,5.9,308.6,1011.2958,-1.1721015,4647.7,0.042285682,-0.086854002,0.037139144,0.040331604,-1.6131192,-0.0151436664,37635.0,26760.5,9955.0,0.0,1.5,-26.5,0,None
2022-12-22 10:38:19,667.4075,0.0998999999999909,100.0,1208.5,24480.5,4912.0,98.0,1203.7,223.8,4913.4,24.769184,1.890949400000001,0.0147591238,0.034428176,-1.525104,37.644,0.022387494,0.045277948,-1.6122614000000002,0.4745762800000001,0.6128357000000001,3.1593849999999994,-0.6,9.3,-1.9,-12.3,26.0,259.1,-1037.0,-5.8,301.2,1011.2768999999998,-1.1909999,4649.2,0.022387494,0.026381306,0.045277948,0.0123939206,-1.6122614000000002,-0.0092179664999999,37645.0,26762.5,9965.0,12.5,9.0,-28.0,0,None
2022-12-22 10:38:20,668.4076000000001,0.0999999999999999,100.0,1193.0,24469.0,4912.0,98.0,1204.8,227.2,4910.9,24.917752,1.887544,0.0121318925,0.0316915475,-1.5286065,37.6575,0.0187345224999999,0.0406872199999999,-1.613523,0.4467963299999999,0.62857283,3.2079294000000003,0.0,11.77777777777778,-3.888888888888889,-12.88888888888889,3.6666666666666665,259.3333333333333,-1035.3333333333333,-10.22222222222222,296.44444444444446,1011.2729999999998,-1.1948611111111112,4650.666666666667,0.0187345224999999,0.002069351,0.0406872199999999,0.0136157155,-1.613523,-0.01104359875,37655.0,26759.0,9975.0,26.5,16.5,-30.5,1,27_xacc_avg_constant_0
2022-12-22 10:38:21,669.4077,0.0999999999999999,100.0,1197.0,24472.0,4914.0,98.0,1194.4,230.5,4916.6,25.05186,1.8877716,0.0068103916,0.02448861,-1.5241618,37.668000000000006,0.0133394191999999,0.032605758,-1.6081233999999998,0.4882795111111111,0.7267831888888889,4.501159555555556,0.0,-2.5,-0.1,-12.6,5.3,260.3,-1041.7,20.1,307.8,1011.2772,-1.1907421,4651.9,0.0133394191999999,0.0054345402,0.032605758,0.0020729939999999,-1.6081233999999998,-0.0111857102599999,37665.0,26784.5,9985.0,38.5,18.0,-32.0,1,27_xacc_avg_constant_0
2022-12-22 10:38:22,670.4078,0.1001000000000089,100.0,1250.5,24450.0,4915.5,98.0,1232.8,233.8,4915.6,25.15184,1.8934958,0.0037204451399999,0.020411042,-1.5205878,37.656,0.0104570054,0.02757327,-1.6037724,0.41394685,1.07359975,6.0541245,0.0,-1.4,0.4,-15.6,10.1,251.6,-1057.5,-0.9,301.4,1011.2673,-1.2005546000000002,4653.4,0.00938639925,0.0169960635,0.0272181999999999,-0.0075815629,-1.6036795,-0.0071010699999999,37655.0,26814.0,9975.0,40.0,16.0,-31.0,1,27_xacc_avg_constant_0
2022-12-22 10:38:23,671.4153,0.1019000000000005,100.0,1154.0,24471.5,4916.5,98.0,1175.7,237.2,4911.5,25.314042,1.8943028,0.0050220247999999,-0.0002664675999999,-1.5168339999999998,37.662,0.0126341615999999,0.0066838459999999,-1.6001846,0.37683313,0.8844999799999999,5.6141685,0.0,0.3,2.2,-37.6,17.3,242.7,-1008.5,-2.1,297.5,1011.2753,-1.1925779,4654.7,0.0126341615999999,0.023596314,0.0066838459999999,0.00362547974,-1.6001846,0.0080719402,37660.0,26831.0,9980.0,35.0,14.5,-31.5,1,27_xacc_avg_constant_0
2022-12-22 10:38:24,672.4390999999999,0.1019999999999981,100.0,1161.0,24441.5,4918.0,98.0,1163.0,240.5,4905.5,25.494036,1.8876164,-0.0475965525999999,-0.0223897396,-1.5255236,37.666,-0.0383661696,-0.014266803,-1.6095314000000005,0.50562351,0.74957148,3.7487212,0.0,26.6,10.3,-38.3,-154.4,238.0,-1012.2,-26.8,312.4,1011.2699,-1.1978984,4656.1,-0.0383661696,-0.159657506,-0.014266803,0.0106608979999999,-1.6095314000000005,-0.0431945319999999,37670.0,26795.0,9990.0,7.5,6.5,-30.5,1,27_xacc_avg_constant_0
2022-12-22 10:38:25,673.4436,0.1000999999999976,100.0,1250.5,24420.5,4907.0,98.0,1273.0,243.9,4908.3,25.869464000000004,1.8766794,-0.19671576,0.0125977454,-1.5386196,37.658,-0.1852781,0.017782946,-1.6229792,0.43073605,0.6101595999999999,3.6966382,0.0,3.888888888888889,55.888888888888886,-16.0,-15.22222222222222,247.22222222222223,-1043.2222222222222,17.333333333333332,293.44444444444446,1011.27,-1.1977812,4657.5,-0.1852781,-0.004608784,0.017782946,0.0015862789999999,-1.6229792,0.02302070122,37655.0,26685.5,9975.0,-9.0,-124.0,-31.0,1,27_xacc_avg_constant_0
2022-12-22 10:38:26,674.4440000000001,0.0999999999999999,100.0,1373.0,24385.5,4918.0,98.0,1283.0,247.5,4914.8,26.36148,1.8642948,-0.1650694599999999,-0.0247869914,-1.5126192,37.854,-0.1576883,-0.01862808508,-1.5937445999999995,0.50721396,0.74422912,5.4963429,0.0,-45.1,61.5,-17.0,75.3,245.6,-1067.3,-20.6,307.9,1011.2367,-1.2311251,4658.6,-0.1576883,0.07341583,-0.01862808508,-0.054778788,-1.5937445999999995,-0.0145812372,37815.0,26881.5,10135.0,-5.5,-311.5,3.5,1,27_xacc_avg_constant_0
2022-12-22 10:38:27,675.4036666666666,0.1023333333333387,100.0,1045.0,24495.5,4919.0,98.0,1066.6666666666667,250.5555555555556,4911.111111111111,26.800742222222222,1.8446896666666663,0.0614811775,-0.0624349825,-1.54123175,38.24249999999999,0.0653767425,-0.0521716375,-1.6198825,0.7107172555555556,0.6031420555555556,8.483333888888888,0.0,28.88888888888889,-1.3333333333333333,-13.77777777777778,311.1111111111111,227.3333333333333,-988.5555555555557,-7.0,340.1111111111111,1011.224888888889,-1.2429427777777775,4660.111111111111,0.0653767425,0.333866495,-0.0521716375,0.0299486229999999,-1.6198825,-0.00131844275,38240.0,26721.0,10560.0,-27.0,-367.0,-1.5,1,27_xacc_avg_constant_0
2022-12-22 10:38:28,676.3654,0.0999999999999999,100.0,1193.0,24448.0,4907.5,98.0,1209.7,253.5,4907.1,27.070156,1.8220012,0.0851327828,0.0008189879999999,-1.5373346,38.308,0.0876702426,0.0157374309738,-1.616809,0.44382815,0.6736988,6.6238243,0.0,180.9,-29.1,-3.6,-146.9,239.7,-1017.5,12.9,314.7,1011.1717999999998,-1.2961873000000002,4661.1,0.0876702426,-0.1267272159999999,0.0157374309738,0.155878926,-1.616809,0.0184835,38305.0,26740.0,10625.0,-36.0,-236.5,-31.5,1,27_xacc_avg_constant_0
2022-12-22 10:38:29,677.385,0.1178888888888801,100.0,1176.0,24439.0,4914.5,98.0,1189.2777777777778,257.0,4908.833333333333,27.270421666666664,1.803443666666667,0.03455941,0.0652162378333333,-1.528615,38.31,0.04126172,0.0789796116666666,-1.6074536666666666,0.4033543166666666,0.6889753277777778,6.642769222222222,0.0,-169.72222222222223,-2.7777777777777777,-14.61111111111111,136.66666666666666,267.3333333333333,-1031.4444444444443,-19.11111111111111,283.3333333333333,1011.2009444444444,-1.2670616666666668,4662.666666666667,0.04126172,0.1255331916666666,0.0789796116666666,-0.1167681516666666,-1.6074536666666666,-0.0116082373333333,38310.0,26794.5,10630.0,50.0,-199.0,-30.0,1,27_xacc_avg_constant_0
2022-12-22 10:38:30,678.4261,0.0999999999999999,100.0,1241.0,24399.5,4915.5,98.0,1232.5,260.5,4905.0,27.3349,1.7875321999999998,0.111949376,-0.026856826,-1.539313,38.286,0.1186036299999999,-0.0095286851999999,-1.6116568,0.2808217,0.67884253,4.6349353,0.0,83.6,-39.3,-13.0,-33.3,227.7,-1039.9,-9.5,320.3,1011.2244,-1.2435313999999995,4663.9,0.1186036299999999,-0.0579742315999999,-0.0095286851999999,0.089639694,-1.6116568,-0.009495668,38290.0,26766.0,10610.0,39.5,-89.5,-29.0,1,27_xacc_avg_constant_0
2022-12-22 10:38:31,679.427,0.1000999999999976,100.0,1217.5,24422.5,4919.5,98.0,1229.8,264.2,4914.5,27.365834000000007,1.7730381999999998,0.026565078,0.0437643759999999,-1.5443638,38.260000000000005,0.037149694,0.05536107,-1.6110088,0.59882699,0.61970734,3.4349223,0.0,21.5,-12.7,-18.1,-25.7,257.0,-1025.2,-7.4,291.6,1011.2337,-1.2342501,4665.3,0.037149694,-0.0070153295999999,0.05536107,-0.0058315919999999,-1.6110088,-0.0086158878,38260.0,26770.0,10580.0,30.0,-6.5,-26.5,1,27_xacc_avg_constant_0
2022-12-22 10:38:32,680.429,0.1020000000000095,100.0,1230.0,24410.5,4921.5,98.0,1222.1,267.5,4914.4,27.386034,1.7610239999999997,0.020086524,0.026488196,-1.547262,38.244,0.03031721,0.03488561,-1.6097384,0.4518300199999999,0.71290949,3.7272052,0.0,-3.8,-8.7,-19.6,12.3,260.3,-1025.8,4.7,303.7,1011.2256,-1.2422970000000002,4666.4,0.03031721,0.00688899574,0.03488561,-0.0084685604,-1.6097384,0.0025886826,38245.0,26778.5,10565.0,47.5,9.5,-23.0,1,27_xacc_avg_constant_0
2022-12-22 10:38:33,681.4126666666666,0.106666666666658,100.0,1193.0,24422.0,4922.0,98.0,1197.0,270.6666666666667,4920.444444444444,27.39246555555556,1.753286222222222,0.022199698,0.026085558,-1.5546074,38.272000000000006,0.032010146,0.033209796,-1.6168922,0.3947230666666667,0.6673857,4.207560777777778,0.0,19.5,-11.055555555555555,-33.77777777777778,11.444444444444445,253.44444444444449,-1008.8333333333334,-8.61111111111111,294.6111111111111,1011.2168333333334,-1.251050277777778,4667.444444444444,0.032010146,0.0031597317999999,0.033209796,0.0125991675999999,-1.6168922,-0.00719791306,38270.0,26739.5,10590.0,51.5,22.5,-24.5,1,27_xacc_avg_constant_0
2022-12-22 10:38:34,682.3951,0.0999999999999999,100.0,1200.0,24420.5,4924.5,98.0,1199.0,273.9,4923.8,27.47359,1.7456332,0.0072261944599999,0.01814538,-1.5604108,38.272000000000006,0.016881958,0.0237065279999999,-1.6236977999999995,0.5668137100000001,0.61367522,3.883171800000001,-5.1,4.9,-9.2,-40.4,-4.5,249.0,-1003.5,-13.6,301.5,1011.2159,-1.2521170999999998,4668.7,0.016881958,-0.0072035931999999,0.0237065279999999,-0.0025745148,-1.6236977999999995,-0.0133575326,38275.0,26703.0,10595.0,58.0,34.0,-27.5,0,None
2022-12-22 10:38:35,683.4036,0.1000999999999976,100.0,1210.0,24411.5,4922.0,98.0,1200.7,277.5,4921.8,27.548398,1.7358250000000002,0.0016071495799999,0.00479131819,-1.5499788,38.288,0.011786788,0.0103753618,-1.6147184,0.5288173100000001,0.65948406,4.0211007,11.8,-9.8,-6.2,-28.5,14.0,254.6,-1020.8,12.8,316.2,1011.2,-1.267867,4669.8,0.011786788,0.0090680631,0.0103753618,-0.0169201398,-1.6147184,0.0125266459999999,38285.0,26740.0,10605.0,57.0,30.5,-27.5,0,None
2022-12-22 10:38:36,684.4142,0.1001000000000089,100.0,1228.0,24396.5,4922.0,98.0,1212.5,280.8,4921.0,27.643554000000005,1.7247378000000002,0.00039961732,-0.0208300799999999,-1.5404432,38.29,0.0103736354,-0.014942144,-1.6070504,0.4449875299999999,0.72156704,4.0154942,3.0,-4.2,-1.4,-1.5,6.5,235.1,-1052.4,14.4,304.2,1011.205,-1.2627811999999998,4671.2,0.0103736354,0.0008565322,-0.014942144,-0.00461797,-1.6070504,0.0150240247999999,38290.0,26790.0,10610.0,38.5,27.0,-27.5,0,None
2022-12-22 10:38:37,685.4166,0.1019000000000005,100.0,1209.5,24399.5,4918.0,98.0,1208.4,284.2,4916.1,27.782848,1.7124468,0.001807741,-0.0099632644,-1.5407036,38.298,0.0119622442,-0.0037095385199999,-1.6097172,0.54659776,0.57089188,4.6111013,6.1,25.1,-2.4,-14.6,26.8,239.1,-1030.3,-0.1,310.0,1011.2121,-1.2557735,4672.1,0.0119622442,0.025422072,-0.0037095385199999,0.01875281142,-1.6097172,0.000740135398,38300.0,26778.5,10620.0,16.0,20.0,-29.5,0,None
2022-12-22 10:38:38,686.4421,0.1019999999999981,100.0,1190.5,24396.5,4914.5,98.0,1190.3,287.5,4906.8,27.952236000000006,1.698209,0.0084526186,-0.0068946284,-1.5403306,38.28,0.017693112,-4.530699999999999e-05,-1.6108424,0.45206489,0.5921042699999999,4.683569100000001,-9.7,7.0,-6.2,-5.7,9.5,247.4,-1033.4,4.9,310.7,1011.2082,-1.2595625,4673.5,0.017693112,0.0046124258,-4.530699999999999e-05,0.0063105113999999,-1.6108424,0.0040875156,38280.0,26766.5,10600.0,7.5,16.0,-26.0,0,None
2022-12-22 10:38:39,687.448,0.0999999999999999,100.0,1169.0,24394.0,4916.5,98.0,1173.1,290.8,4909.4,28.17598,1.6822196000000005,0.0115483916,-0.01068044,-1.5352396,38.288,0.020524042,-0.0026908214,-1.6078514,0.38965154,0.85127333,4.433455799999999,2.7,9.1,-3.4,-25.0,17.2,242.6,-1020.2,-5.2,313.7,1011.2044999999998,-1.2634609,4674.4,0.020524042,0.0104187364,-0.0026908214,0.0038956897999999,-1.6078514,-0.0029436799999999,38285.0,26787.5,10605.0,2.0,13.5,-26.5,0,None
2022-12-22 10:38:40,688.413,0.1047777777777759,100.0,1199.5,24383.0,4913.5,98.0,1193.4444444444443,294.1111111111111,4911.555555555556,28.483387777777786,1.663603222222222,0.012522515,-0.00328476575,-1.53485525,38.2875,0.02107055,0.00580745275,-1.6091865,0.3868465222222222,1.0206098222222222,5.147488,-17.72222222222222,31.27777777777778,-6.777777777777778,5.5,10.555555555555555,243.38888888888889,-1032.5,-17.0,313.05555555555554,1011.2232222222224,-1.2447873333333332,4675.555555555556,0.02107055,0.0109246152499999,0.00580745275,0.03466129,-1.6091865,-0.0262404405,38285.0,26780.0,10605.0,-4.0,15.0,-27.0,0,None
2022-12-22 10:38:41,689.423,0.1059999999999945,100.0,1149.5,24399.0,4918.0,98.0,1167.0,297.5,4913.5,28.870558,1.6439294,0.010951482,0.0089576891666666,-1.5505298333333333,38.281666666666666,0.0190882399999999,0.0180325283333333,-1.6271186666666668,0.44592298,0.6490746900000001,4.3326082,-3.7,11.5,-6.7,-13.7,12.7,246.7,-1019.0,-14.7,314.1,1011.2096,-1.2583359,4676.7,0.0190882399999999,0.0038070801666666,0.0180325283333333,0.0132725839999999,-1.6271186666666668,-0.0166183429999999,38275.0,26671.5,10595.0,5.5,18.0,-27.0,0,None
2022-12-22 10:38:42,690.4341111111111,0.1066666666666706,100.0,1169.0,24410.0,4919.0,98.0,1150.7777777777778,300.3333333333333,4917.555555555556,29.28634444444445,1.6262800000000002,0.0029191545,-0.00136478,-1.541926,38.2825,0.01062844975,0.0081065864999999,-1.62041525,0.3997255555555555,0.8431279111111111,4.902110111111111,-4.5,-5.888888888888889,-5.5,-7.611111111111111,9.5,246.0,-1036.4444444444443,25.22222222222222,308.8333333333333,1011.2151666666666,-1.25273,4677.555555555556,0.01062844975,0.0026533519999999,0.0081065864999999,-0.00365626675,-1.62041525,0.02565639775,38285.0,26716.5,10605.0,16.0,15.0,-27.0,0,None
2022-12-22 10:38:43,691.4446,0.1039999999999963,100.0,1147.5,24413.0,4924.0,98.0,1157.4,303.8,4911.1,29.647252,1.6118479999999995,0.012379193,0.056475896,-1.5158364,38.28,0.020231146,0.06607479,-1.596977,0.2750290999999999,0.81037129,4.265703599999999,3.7,173.8,-2.7,-4.7,12.7,255.8,-1028.0,-3.4,298.4,1011.2132,-1.2545468000000002,4679.0,0.020231146,0.01688439346,0.06607479,0.17399338,-1.596977,0.0026531767999999,38275.0,26860.0,10595.0,37.0,13.5,-26.5,0,None
2022-12-22 10:38:44,692.4212222222221,0.1023333333333387,100.0,1161.5,24400.0,4924.5,98.0,1154.3333333333333,307.0,4922.777777777777,30.02660555555556,1.5946058888888883,0.00299681848,0.1639040199999999,-1.516725,38.284000000000006,0.0105748666,0.1718246199999999,-1.6003128,0.4270006222222222,1.1832792222222224,6.671159444444445,-6.111111111111111,21.77777777777778,0.5555555555555556,-38.888888888888886,5.0,292.3333333333333,-1045.6666666666667,-5.666666666666667,256.8888888888889,1011.1875555555556,-1.2803903333333335,4679.777777777777,0.0105748666,0.00262012,0.1718246199999999,0.019704563,-1.6003128,-0.01643996,38285.0,26829.5,10605.0,172.0,12.0,-27.5,0,None
2022-12-22 10:38:45,693.3729999999999,0.1017000000000052,100.0,1112.0,24395.0,4924.5,98.0,1130.5,309.8,4919.4,30.28157999999999,1.5786646000000002,-0.0145215701799999,0.113056028,-1.5125378,38.33200000000001,-0.00658966406,0.1239643539999999,-1.5947151999999998,0.4886716099999999,1.3502586,10.7114906,-12.7,-165.0,2.9,-48.0,-34.4,287.7,-1016.4,-2.5,258.3,1011.1597,-1.3080937,4680.8,-0.00658966406,-0.0027157303999999,0.1239643539999999,-0.23681459,-1.5947151999999998,0.0181727158,38340.0,26864.5,10660.0,300.5,16.5,-31.0,0,None
2022-12-22 10:38:46,694.3711999999999,0.0982999999999946,100.0,1258.0,24363.5,4925.0,98.0,1163.2,313.1,4922.0,30.377948000000004,1.5654462,-0.044971616,-0.1423635999999999,-1.5144358,38.392,-0.032329708,-0.12560626,-1.5935908,0.6174784699999999,1.7738127,13.5026453,-7.6,-113.5,15.1,-52.8,-3.8,215.4,-979.9,-4.6,335.3,1011.1438,-1.3240157,4681.8,-0.032329708,-0.0026268593999999,-0.12560626,-0.0760314239999999,-1.5935908,-0.0153751021999999,38395.0,26853.5,10715.0,211.5,10.0,-42.0,0,None
2022-12-22 10:38:47,695.3711999999999,0.0999999999999999,100.0,1112.0,24405.5,4913.5,98.0,1172.5,316.3,4922.0,30.414368,1.5549546,-0.0256184188,-0.13887384,-1.52468,38.378,-0.00930715,-0.1264781999999999,-1.6039908,0.49263917,0.8938228299999998,7.210095599999998,-20.9,7.9,11.1,-34.2,72.6,208.7,-1033.0,-15.8,348.7,1011.203,-1.2648906,4682.8,-0.00930715,0.071567782,-0.1264781999999999,-0.004422196,-1.6039908,-0.0117218732,38370.0,26800.5,10690.0,47.5,-17.5,-36.5,0,None
2022-12-22 10:38:48,696.3729999999999,0.1017000000000052,100.0,1256.0,24353.5,4925.5,98.0,1236.0,319.6,4920.7,30.555692,1.5440646,0.0291756699999999,-0.1274937092,-1.5312705999999998,38.278,0.043186022,-0.1162959174,-1.6069876,0.5661835900000001,0.61393935,4.0298050000000005,-18.6,147.6,-11.3,-10.8,51.4,197.7,-1042.3,0.5,361.3,1011.2248,-1.2432109,4683.6,0.043186022,0.0298029802,-0.1162959174,0.199852634,-1.6069876,0.0253845182,38270.0,26801.5,10590.0,-102.5,-7.5,-27.5,0,None
2022-12-22 10:38:49,697.3713,0.0982999999999946,100.0,1208.5,24359.0,4919.0,97.9,1222.8,323.2,4917.2,30.802832,1.5339999999999998,0.0192461967999999,0.131204696,-1.4938954,38.25599999999999,0.0294813039999999,0.136781538,-1.566423,0.42466547,1.17835584,7.320351099999999,-12.1,124.1,-6.9,-20.3,-9.4,276.5,-1054.3,19.9,286.6,1011.2131,-1.2548905,4684.8,0.0294813039999999,0.005932412,0.136781538,0.0305028659999999,-1.566423,0.0299120402,38255.0,27041.5,10575.0,-49.0,5.5,-24.0,0,None
2022-12-22 10:38:50,698.3711999999999,0.0999999999999999,100.0,1198.0,24337.5,4916.5,97.0,1197.7,326.5,4914.6,30.984982,1.5218732,0.0406404879999999,-0.0084584943999999,-1.4847708000000002,38.27,0.0465812799999999,0.0022688545999999,-1.554738,0.4480179700000001,1.02703187,5.7226531000000005,-8.1,-111.3,-1.5,-13.8,54.1,247.4,-1026.5,2.0,300.6,1011.215,-1.2528828,4685.8,0.0465812799999999,0.0331650866,0.0022688545999999,-0.09789418,-1.554738,-0.0012138711999999,38270.0,27099.5,10590.0,6.5,19.0,-26.0,0,None
2022-12-22 10:38:51,699.3770999999999,0.1019000000000005,100.0,1176.5,24364.0,4918.0,97.0,1176.9,329.8,4913.9,31.093644,1.5125653999999995,0.0212131627999999,0.0020045879999999,-1.504621,38.278000000000006,0.028287204,0.01387884239,-1.5753676,0.45001319,1.04693129,5.2930519,-1.4,69.5,-5.3,-13.8,-39.3,241.05,-1013.85,-40.0,311.6,1011.21965,-1.2481837000000002,4686.8,0.028287204,-0.026277648,0.01387884239,0.084172132,-1.5753676,-0.039439758,38275.0,26946.5,10595.0,-12.0,44.0,-26.5,0,None
2022-12-22 10:38:52,700.391,0.0999999999999999,100.0,1101.0,24369.0,4923.0,97.0,1113.9,332.9,4919.9,31.21166000000001,1.5042817999999998,-0.0006580102,0.025502832,-1.5339352,38.264,0.0067239296,0.034858402,-1.6054084,0.42836304,0.93668811,5.7214157,4.9,-20.4,-4.3,-1.9,3.5,255.4,-1068.4,-6.0,304.3,1011.2379,-1.2298203,4687.8,0.0067239296,0.0084829262,0.034858402,-0.0242417039999999,-1.6054084,-0.0204885316,38265.0,26798.5,10585.0,4.5,40.0,-22.5,0,None
2022-12-22 10:38:53,701.3911999999999,0.1000999999999976,100.0,1087.5,24376.5,4922.5,97.0,1061.1,335.9,4922.6,31.304906,1.4958214,-0.0084572884,0.0101100058,-1.5420128,38.248000000000005,-0.0007896321999999,0.0195341699999999,-1.6146464000000005,0.3872472,0.7588058999999999,7.381037399999999,-0.1,20.6,-4.2,-12.9,-36.7,251.3,-1037.6,1.7,310.1,1011.2366,-1.2312499,4688.7,-0.0007896321999999,-0.034821028,0.0195341699999999,0.0293866332,-1.6146464000000005,-0.00647897066,38245.0,26751.0,10565.0,13.0,29.5,-24.0,0,None
2022-12-22 10:38:54,702.3911999999999,0.0999999999999999,100.0,1179.0,24342.5,4924.5,97.0,1146.9,339.0,4922.6,31.37818,1.4874592000000002,-0.1616078959999999,0.020524924,-1.525865,38.23,-0.151613224,0.028813974,-1.6002918000000002,0.45666879,0.71888853,5.8895375,-20.9,9.4,35.5,-23.9,-118.6,257.9,-995.3,23.4,298.1,1011.2324,-1.2354843,4689.8,-0.151613224,-0.1277426904,0.028813974,0.00236265,-1.6002918000000002,0.035562456,38230.0,26846.5,10550.0,25.0,-62.5,-25.0,0,None
2022-12-22 10:38:55,703.391,0.0999000000000023,100.0,1157.0,24331.0,4921.5,97.0,1160.7,342.2,4925.1,31.514850000000006,1.478354,-0.17528302,-0.0223821165999999,-1.5345436,38.228,-0.1650471,-0.0145606755799999,-1.6105474000000002,0.5323244,0.65379023,6.2462588000000006,-27.1,-66.8,53.3,-13.0,45.0,247.5,-1027.4,-54.7,305.5,1011.2329,-1.2349688,4690.5,-0.1650471,0.041733608,-0.0145606755799999,-0.064831508,-1.6105474000000002,-0.061770188,38225.0,26737.0,10545.0,28.5,-232.0,-20.5,0,None
2022-12-22 10:38:56,704.3913,0.1000999999999975,100.0,1142.0,24339.0,4917.5,97.0,1099.0,345.4,4925.8,31.66467,1.465371,0.032835178,-0.0566165999999999,-1.5684729999999998,38.248000000000005,0.0396728659999999,-0.04522289,-1.6450174,0.6102733,0.89168515,5.5419913,-31.2,35.7,-8.4,-22.1,319.4,232.0,-1023.8,30.0,327.8,1011.2218,-1.2459843,4691.5,0.0396728659999999,0.322080924,-0.04522289,0.043237786,-1.6450174,0.033725746,38250.0,26588.0,10570.0,-13.5,-282.5,-21.0,0,None
2022-12-22 10:38:57,705.3911999999999,0.0999999999999999,100.0,1154.0,24366.5,4908.5,97.0,1149.7,348.5,4924.1,31.692394000000007,1.4501921999999996,0.106373858,0.0030766899,-1.52434,38.268,0.111275216,0.01763341648,-1.6015708,0.65901841,0.7896467100000001,7.370541299999999,-21.3,51.7,-40.7,-14.0,-16.9,239.0,-1032.3,28.4,310.1,1011.1977,-1.270297,4692.5,0.111275216,-0.0302874059999999,0.01763341648,0.0613036741999999,-1.6015708,0.0310990922,38270.0,26843.0,10590.0,-16.0,-151.0,-28.5,0,None
2022-12-22 10:38:58,706.3911,0.0999000000000023,100.0,1125.5,24351.0,4927.0,97.0,1152.4,351.7,4924.3,31.654846,1.4365492,0.1365136,0.017263112,-1.5382874,38.27400000000001,0.14318216,0.032458754,-1.6141772,0.38486685,0.7744326000000001,6.0780017,-14.6,35.5,-43.4,-22.7,40.8,246.1,-1008.9,-44.5,297.8,1011.2225,-1.2453904999999998,4693.3,0.14318216,0.0437233074,0.032458754,0.0225685779,-1.6141772,-0.05941261,38275.0,26725.5,10595.0,-3.5,-25.0,-27.5,0,None
2022-12-22 10:38:59,707.3955,0.1020999999999957,100.0,1123.0,24342.5,4924.5,97.0,1120.3,354.8,4926.2,31.59325,1.4260226000000005,0.14856866,0.047778594,-1.5666892,38.258,0.15772834,0.061957874,-1.6376828,0.3718647399999999,0.99276055,5.472887900000001,2.8,45.4,-61.0,-11.1,21.6,264.8,-1041.9,-20.0,305.3,1011.2376,-1.2301485,4694.1,0.15772834,0.020925956,0.061957874,0.0315043769999999,-1.6376828,0.0083240792,38255.0,26614.5,10575.0,24.5,110.5,-23.5,0,None
2022-12-22 10:39:00,708.414,0.0999999999999999,100.0,1182.5,24353.0,4911.0,97.0,1117.3,358.2,4920.1,31.473244,1.4195363999999997,0.11248512,0.044688896,-1.5461424,38.268,0.121666556,0.057263902,-1.6093762000000005,0.46615489,0.95780611,6.2955244,16.5,-24.9,-53.8,-17.6,-192.4,260.8,-1009.6,32.4,296.8,1011.2081,-1.2597109,4695.1,0.121666556,-0.21916424,0.057263902,-0.051443666,-1.6093762000000005,0.0451608099999999,38270.0,26801.0,10590.0,57.0,232.5,-22.5,0,None
2022-12-22 10:39:01,709.4072222222223,0.1112222222222322,100.0,1102.5,24344.5,4922.0,97.0,1078.7777777777778,361.1111111111111,4922.222222222223,31.40044,1.4159257777777776,-0.1228901999999999,0.050973512,-1.570645,38.31,-0.107961416,0.059010574,-1.6296798,0.5450368222222222,1.4328603333333332,8.340143388888889,11.555555555555555,39.11111111111112,22.61111111111111,-27.666666666666668,-44.05555555555556,260.6666666666667,-1047.9444444444443,-50.61111111111112,300.22222222222223,1011.1955555555556,-1.2724564999999997,4695.444444444444,-0.107961416,0.013838672,0.059010574,0.036111134,-1.6296798,-0.043970608,38310.0,26633.0,10630.0,55.0,159.5,-32.0,0,None
2022-12-22 10:39:02,710.417,0.0999999999999999,100.0,1131.0,24325.0,4916.0,97.0,1106.9,364.5,4917.5,31.407998,1.414241,-0.02843356,0.025621877,-1.582761,38.318,-0.0173618536,0.030470774,-1.6409252000000003,0.4111351499999999,1.3439270799999998,8.5930089,7.8,-29.8,-4.3,-35.7,116.6,259.3,-1029.3,-15.4,308.0,1011.1859,-1.281883,4696.5,-0.0173618536,0.0762503978,0.030470774,-0.0305216759999999,-1.6409252000000003,-0.0351993799999999,38320.0,26594.0,10640.0,67.5,65.5,-30.0,1,27_xgyro_avg_constant_-29.8
2022-12-22 10:39:03,711.3829999999998,0.1044444444444378,100.0,1084.5,24351.5,4919.0,97.0,1100.3333333333333,367.3333333333333,4917.444444444444,31.387526666666663,1.4120574444444447,-0.0020412737499999,-0.0007643445,-1.5846710000000002,38.305,0.0063513089999999,0.00608640425,-1.64461125,0.3950341222222222,1.0462613777777778,7.557538222222222,2.0,-29.8,-16.77777777777778,-25.88888888888889,-9.0,248.5555555555556,-1004.2222222222222,8.11111111111111,292.6666666666667,1011.209111111111,-1.258862777777778,4697.222222222223,0.0063513089999999,-0.00818106125,0.00608640425,-0.01846981675,-1.64461125,0.0216921154499999,38295.0,26608.0,10615.0,60.0,49.5,-26.5,1,27_xgyro_avg_constant_-29.8
2022-12-22 10:39:04,712.419,0.108000000000004,100.0,1111.5,24318.5,4919.0,97.0,1150.3,370.5,4918.6,31.400237999999995,1.4082734,-0.0169927288333333,-0.017474027,-1.5587976666666667,38.26666666666667,-0.0073892790666666,-0.009229531,-1.619832333333333,0.5458859500000001,0.97558067,9.9775919,-20.9,-29.8,-5.1,-25.7,10.35,244.0,-1082.1,5.75,319.9,1011.2332,-1.23469145,4698.2,-0.0073780032333333,0.0205132348333333,-0.0091454213333333,-4.684955000000008e-05,-1.619897666666667,0.0097145036666666,38255.0,26748.0,10575.0,37.5,26.0,-26.5,1,27_xgyro_avg_constant_-29.8
2022-12-22 10:39:05,713.4118888888889,0.1044444444444378,100.0,1145.5,24316.5,4916.5,97.0,1150.2222222222222,373.6666666666667,4915.555555555556,31.45443333333333,1.4033061111111111,-0.00752429025,-0.01676150975,-1.5474835000000002,38.2275,0.0021761025,-0.007742792,-1.60968475,0.4515627777777778,0.959473322222222,6.482673222222222,5.333333333333333,-29.8,-7.444444444444445,-1.5555555555555556,17.22222222222222,245.3333333333333,-1033.6666666666667,0.6666666666666666,323.1111111111111,1011.237,-1.2308595555555557,4699.0,0.0021761025,0.0210422789999999,-0.007742792,0.0250109145,-1.60968475,0.001875552625,38230.0,26786.0,10550.0,17.0,14.0,-22.0,1,27_xgyro_avg_constant_-29.8
2022-12-22 10:39:06,714.3874444444443,0.1088888888888908,100.0,1147.5,24325.0,4916.0,97.0,1155.7777777777778,376.8888888888889,4920.333333333333,31.51561,1.397141888888889,0.0006886663999999,-0.009045345,-1.5417108000000002,38.222,0.0097644172,0.0009251022399999,-1.6040372,0.3736490888888889,0.8544237444444444,3.7404907777777776,-7.888888888888889,-29.8,-7.833333333333333,-10.833333333333334,21.61111111111111,244.66666666666663,-1023.8888888888888,-4.722222222222222,315.6111111111111,1011.2318333333332,-1.235998111111111,4699.722222222223,0.0096922241999999,0.026921404,0.00091577784,0.015918794,-1.6040936,0.00946396896,38220.0,26788.5,10540.0,7.0,4.5,-22.0,1,27_xgyro_avg_constant_-29.8
2022-12-22 10:39:07,715.3738999999999,0.1020999999999957,100.0,1171.0,24311.5,4911.0,97.0,1152.8,379.8,4923.1,31.605096000000003,1.3880065999999995,0.0079201338,-0.0054773104,-1.5295451999999998,38.236,0.01579217,0.0055326244,-1.5922937999999998,0.46056893,0.83336885,4.7362416,-4.2,-29.8,-6.3,-5.1,17.3,241.5,-1040.9,2.3,310.1,1011.2356,-1.2322108999999997,4700.6,0.01579217,0.0106931266,0.0055326244,0.025678728,-1.5922937999999998,-0.0118269448,38235.0,26874.5,10555.0,-2.0,0.5,-22.5,1,27_xgyro_avg_constant_-29.8
2022-12-22 10:39:08,716.374,0.0999999999999999,100.0,1155.5,24330.0,4915.0,97.0,1160.0,383.2,4922.7,31.769348,1.3795448,0.0104934326,0.00771485056,-1.541937,38.236,0.017823042,0.019335972,-1.6052826,0.4978033,0.65105727,5.1945440000000005,5.4,-29.8,-7.5,-15.9,8.6,249.1,-1051.8,-14.5,314.8,1011.231,-1.2368826,4701.3,0.017823042,0.0145513666,0.019335972,0.025436626,-1.6052826,-0.0413450619999999,38240.0,26832.0,10560.0,-3.5,1.0,-22.5,1,27_xgyro_avg_constant_-29.8
2022-12-22 10:39:09,717.374,0.0999999999999999,100.0,1158.5,24328.0,4920.5,97.0,1163.2,386.4,4919.6,31.960462,1.3731316,0.01371808,0.0099090528,-1.558748,38.244,0.020987894,0.021596634,-1.6217275999999998,0.38972942,0.7620832500000001,4.7966815,0.0,-29.8,-17.8,-20.7,16.7,248.3,-1023.0,-14.1,305.3,1011.2182,-1.2496796,4702.1,0.020987894,0.0105578072,0.021596634,-0.0046772359999999,-1.6217275999999998,-0.0034481154599999,38240.0,26716.0,10560.0,7.5,2.5,-22.5,1,27_xgyro_avg_constant_-29.8
2022-12-22 10:39:10,718.3738999999999,0.0999999999999999,100.0,1199.0,24310.5,4924.5,97.0,1206.5,389.5,4920.1,32.139590000000005,1.3677728000000002,0.015602278,-0.00691412,-1.5339079999999998,38.274,0.023037842,0.0059758695999999,-1.5969292000000002,0.44737482,0.7491446199999998,5.837294,-8.3,-29.8,-12.0,-21.4,22.4,247.1,-1022.7,37.8,309.2,1011.2129,-1.2548046,4702.8,0.023037842,0.018232382,0.0059758695999999,0.00962520414,-1.5969292000000002,0.05534277,38265.0,26786.0,10585.0,12.5,6.5,-27.0,1,27_xgyro_avg_constant_-29.8
2022-12-22 10:39:11,719.374,0.0999999999999999,100.0,1553.0,24200.0,4918.0,97.0,1532.1,393.5,4915.1,32.387662,1.3632644000000005,0.0123381697999999,0.005086389,-1.4818928000000002,38.690000000000005,0.019315118,0.018130228,-1.5438158,0.37678119,1.19558359,5.1310225,-8.2,-29.8,-4.7,-11.9,0.2,242.3,-1166.8,38.9,297.5,1011.1743,-1.2937655,4703.6,0.019315118,-0.0169647264,0.018130228,0.0104103756,-1.5438158,0.0034720399999999,38475.0,27118.0,10795.0,6.5,18.0,34.5,1,27_xgyro_avg_constant_-29.8
2022-12-22 10:39:12,720.392,0.1020000000000095,100.0,1286.5,24257.5,4902.5,97.0,1262.0,397.5,4917.2,32.69978000000001,1.3595836,-0.00116501,0.0218406352,-1.5234296,40.214,0.0071626488941999,0.034012952,-1.5844733999999998,0.42818182,1.11167503,5.78795,-4.5,-29.8,-0.1,-18.25,17.5,250.7,-986.5,-63.0,297.6,1011.02675,-1.4411954,4704.3,0.0071626488941999,0.023049766,0.034012952,0.0556997,-1.5844733999999998,-0.072964228,39825.0,27007.0,12145.0,3.0,20.5,135.5,1,27_xgyro_avg_constant_-29.8
2022-12-22 10:39:13,721.402,0.1019999999999981,100.0,900.5,24377.5,4922.0,97.0,887.6,400.3,4922.4,32.947728,1.3564362,0.00395982986,0.040379468,-1.5563118,41.260000000000005,0.0116287792,0.051705596,-1.6183662,0.7205827899999999,0.71065888,3.1104874,-4.5,-29.8,-6.4,-25.8,-1.0,262.7,-844.6,-18.5,300.4,1010.9046999999998,-1.5631015000000004,4705.2,0.0116287792,0.0043227446,0.051705596,-0.0047606408,-1.6183662,-0.0214815966,41170.0,26750.0,13490.0,18.5,17.0,53.5,1,27_xgyro_avg_constant_-29.8
2022-12-22 10:39:14,722.3951111111112,0.106666666666658,100.0,868.5,24419.0,4923.0,97.0,909.8888888888888,402.8888888888889,4917.666666666667,33.08367777777778,1.3559784444444445,-0.01424188675,0.018664925,-1.56812375,40.64,-0.00593966825,0.0310595324999999,-1.6301390000000002,0.7408160222222223,0.8467601000000001,4.990906777777778,-7.555555555555555,-29.8,-4.444444444444445,-23.444444444444443,7.444444444444445,252.88888888888889,-896.3333333333334,-22.55555555555556,309.0,1010.9195555555556,-1.5484807777777778,4705.888888888889,-0.00611315875,-0.0035733544999999,0.0310096349999999,0.01686058,-1.63002125,-0.03795412,40840.0,26675.0,13160.0,31.5,9.0,-132.0,1,27_xgyro_avg_constant_-29.8
2022-12-22 10:39:15,723.4240000000001,0.1060000000000059,100.0,1227.0,24266.5,4922.5,97.0,1401.2,406.6,4923.9,33.130939999999995,1.3564132,0.01554962825,0.0133963743333333,-1.5698306666666666,39.443333333333335,0.0240504755,0.0263590921666666,-1.630167666666667,0.38135088,1.5016439600000002,9.2321627,1.95,-29.8,-21.6,-23.25,40.4,242.8,-1191.7,8.45,300.85,1011.065,-1.4027811,4706.8,0.023620407,0.0494379940166666,0.0268984755,0.0216077866666666,-1.6302029999999998,0.0027029593333333,39485.0,26653.5,11805.0,30.5,2.5,-106.0,1,27_xgyro_avg_constant_-29.8
2022-12-22 10:39:16,724.3973333333334,0.1022222222222176,100.0,1163.5,24281.0,4918.0,97.0,1150.4444444444443,409.8888888888889,4922.222222222223,33.16338333333333,1.3565032222222222,0.01164610575,0.01515779325,-1.5573625,39.3425,0.020311455,0.0270721274999999,-1.61770025,0.4032641666666666,1.3954238444444445,7.6282894444444445,3.888888888888889,-29.88888888888889,-16.666666666666668,-46.77777777777778,-3.6666666666666665,248.0,-1017.6666666666666,37.55555555555556,306.77777777777777,1011.0856666666664,-1.382057222222222,4707.222222222223,0.020311455,-0.0117244404999999,0.0270721274999999,-0.0381668624999999,-1.61770025,0.009856026,39330.0,26714.5,11650.0,41.0,11.0,-19.5,0,None
2022-12-22 10:39:17,725.394,0.1060000000000059,100.0,1177.5,24282.0,4919.0,97.0,1152.1,412.9,4926.2,33.224149999999995,1.3572168,0.019630998,-0.00092542802,-1.5446022,39.38,0.028361342,0.0110597658,-1.6048324,0.41392147,1.2311010699999998,8.664168400000001,0.9,28.85,-15.9,-12.6,34.3,240.6,-1015.65,-3.1,311.8,1011.07795,-1.38991015,4708.05,0.028361342,0.039253918,0.0110597658,0.04313963,-1.6048324,-0.0039490704,39380.0,26807.0,11700.0,27.5,11.5,-30.5,0,None
2022-12-22 10:39:18,726.442,0.1039999999999963,100.0,1132.5,24307.0,4924.5,97.0,1137.5,416.4,4916.7,33.313812,1.358143,0.0140048326,0.0113902,-1.5525846,39.378,0.022462782,0.022536944,-1.6129386,0.37274669,1.21189431,6.7401328000000005,-3.7,7.6,-9.6,-37.2,4.2,253.7,-1007.2,-0.1,316.0,1011.0930999999998,-1.3746405,4708.9,0.022462782,-0.0016265047999999,0.022536944,0.0085449658,-1.6129386,0.011591088,39380.0,26758.5,11700.0,20.0,20.5,-30.0,0,None
2022-12-22 10:39:19,727.4351111111112,0.1044444444444504,100.0,1165.0,24292.5,4923.0,97.0,1148.0,419.44444444444446,4921.666666666667,33.44307555555556,1.3598357777777776,0.0111420646,0.014860548,-1.5568373999999998,39.35,0.019902192,0.025747892,-1.6176476000000002,0.4691164444444444,1.0063063111111112,7.659607000000002,3.055555555555556,16.88888888888889,-11.666666666666666,-25.38888888888889,10.11111111111111,256.27777777777777,-1043.888888888889,-7.333333333333333,315.55555555555554,1011.093777777778,-1.374231777777778,4709.833333333333,0.019902192,0.0095453272,0.025747892,0.0111037961999999,-1.6176476000000002,-0.0237844377999999,39350.0,26733.5,11670.0,15.5,20.5,-27.0,0,None
2022-12-22 10:39:20,728.4399999999999,0.1059999999999945,100.0,1117.5,24296.0,4924.5,97.0,1130.9,422.8,4919.4,33.563406,1.3619218,0.0115377412,0.0153063099999999,-1.6320656,39.338,0.020251426,0.025081284,-1.6927192000000002,0.43593574,1.1276026899999998,5.5121848,2.8,9.7,-24.8,-32.2,17.2,248.2,-1011.6,-194.1,299.4,1011.1049,-1.3629687,4710.2,0.020251426,0.0154985832,0.025081284,0.00287504782,-1.6927192000000002,-0.209751614,39335.0,26344.5,11655.0,16.0,13.0,-26.0,0,None
2022-12-22 10:39:21,729.4373333333333,0.1066666666666706,100.0,1139.0,24279.0,4922.0,97.0,1158.7777777777778,425.6666666666667,4915.666666666667,33.673178888888884,1.3649213333333332,0.0229026725,0.0127661885,-1.83441425,39.3175,0.03325823,0.020797465,-1.89468575,0.3663948222222222,1.1456393888888887,8.013867444444445,11.055555555555555,2.388888888888889,-87.94444444444444,-10.22222222222222,19.83333333333333,240.3333333333333,-1034.388888888889,-118.38888888888889,308.3888888888889,1011.1065,-1.3613543888888888,4711.111111111111,0.03325823,0.0290037,0.020797465,0.0074930725,-1.89468575,-0.13067337,39320.0,25128.5,11640.0,20.5,13.5,-26.5,0,None
2022-12-22 10:39:22,730.4280000000001,0.1039999999999963,100.0,1198.5,24261.5,4920.0,97.0,1206.5,429.2,4914.7,33.774097999999995,1.3686116,0.023900718,0.00113011892,-1.7681353999999998,39.302,0.034305896,0.011737236,-1.8268058,0.4220901099999999,1.05226145,7.3138536,6.1,11.2,-77.6,-25.9,14.9,239.9,-1031.5,237.5,314.1,1011.1106,-1.3573203000000005,4711.7,0.034305896,0.0183312016,0.011737236,0.015767848,-1.8268058,0.22098846,39305.0,25760.5,11625.0,18.0,21.5,-24.0,0,None
2022-12-22 10:39:23,731.444,0.1088888888888908,100.0,1236.5,24239.5,4918.5,97.0,1224.6666666666667,432.44444444444446,4919.222222222223,33.94805222222223,1.3728744444444445,0.0159385586,0.0128027886,-1.4500816,39.3,0.022259062,0.02566963,-1.507692,0.2772335333333333,1.1659814,5.733031666666666,-0.6111111111111112,37.11111111111112,1.8888888888888888,-36.11111111111112,-1.0555555555555556,243.16666666666663,-1024.388888888889,252.38888888888889,294.44444444444446,1011.1093888888888,-1.3584939444444446,4712.444444444444,0.022259062,0.0045814479,0.02566963,0.03761356,-1.507692,0.267048596,39300.0,27639.5,11620.0,9.0,30.0,-21.5,0,None
2022-12-22 10:39:24,732.426,0.1019999999999981,100.0,1220.5,24249.5,4918.0,97.0,1229.0,436.1,4921.3,34.167266,1.3765436000000002,-0.0071049094,0.028074066,-1.3444678,39.306,-0.0024868712,0.039908372,-1.4020454,0.39563507,1.0002462,6.914670200000001,-8.5,15.3,48.5,-41.0,-3.2,246.9,-1006.6,-37.8,291.0,1011.0964,-1.3714999,4713.0,-0.0024868712,-0.0073151573999999,0.039908372,0.0022459199999999,-1.4020454,-0.0266242231999999,39310.0,27936.5,11630.0,15.0,23.5,-25.0,0,None
2022-12-22 10:39:25,733.4151111111111,0.1022222222222176,100.0,1207.5,24272.0,4918.0,97.0,1194.4444444444443,439.3333333333333,4922.333333333333,34.33159555555556,1.381037,-0.00966024325,0.021336015,-1.364038,39.33,-0.0054179135,0.032564295,-1.4203264999999998,0.4667120222222222,1.0351351444444443,8.62957188888889,0.6666666666666666,2.2222222222222223,44.333333333333336,-20.77777777777778,18.22222222222222,241.11111111111111,-1032.5555555555557,-2.4444444444444446,292.0,1011.084222222222,-1.3837413333333335,4713.777777777777,-0.0054179135,0.00586717325,0.032564295,-0.004800752,-1.4203264999999998,0.0109945225,39330.0,27857.0,11650.0,21.0,11.0,-26.0,0,None
2022-12-22 10:39:26,734.4,0.1040000000000077,100.0,1208.0,24261.0,4925.0,97.0,1149.1,442.6,4925.5,34.38299222222223,1.3861085555555557,-0.00640873,0.025828744,-1.3636578,39.348,-0.002080444,0.036343978,-1.4184519999999998,0.44161788,1.17589835,11.3383076,-10.61111111111111,11.11111111111111,46.55555555555556,-44.388888888888886,7.277777777777778,255.5555555555556,-1005.2222222222222,-12.666666666666666,298.22222222222223,1011.0839500000002,-1.38381255,4714.45,-0.002080444,0.01599956,0.036343978,0.0166623596,-1.4184519999999998,0.0008248481999999,39345.0,27873.5,11665.0,20.5,3.5,-22.5,0,None
2022-12-22 10:39:27,735.4019999999999,0.0980000000000018,100.0,1122.0,24291.0,4926.0,97.0,1129.4,445.8,4928.2,34.37546999999999,1.3910044,-0.0048686881999999,0.01772333,-1.3636738,39.348,-0.0001950182159999,0.02820224,-1.4179228,0.4539718199999999,1.23056864,10.5139334,-0.3,0.3,43.4,-18.1,16.3,251.6,-1049.1,0.7,302.0,1011.0917,-1.3761328000000002,4715.1,-0.0001950182159999,0.01716712286,0.02820224,-0.00114130656,-1.4179228,-0.0135334787999999,39350.0,27877.0,11670.0,28.5,-2.0,-26.5,0,None
2022-12-22 10:39:28,736.424,0.1039999999999963,100.0,1114.5,24268.5,4927.0,97.0,1140.0,448.9,4921.7,34.337684,1.3953318,0.0040857275333333,0.0068135245,-1.3675608333333331,39.34333333333333,0.0098191723333333,0.017866995,-1.4208531666666666,0.4691612299999999,1.08821953,8.545198500000001,-11.2,8.8,36.2,-38.9,26.5,242.4,-1014.7,12.6,306.9,1011.0988,-1.3689766000000003,4715.7,0.009678769,0.0171653328333333,0.0178005,0.0079896623333333,-1.4208225,-0.0118091507166666,39350.0,27860.5,11670.0,29.0,-5.0,-26.0,0,None
2022-12-22 10:39:29,737.4351111111112,0.1066666666666706,100.0,1151.5,24253.0,4911.5,97.0,1151.0,452.1111111111111,4927.555555555556,34.29796,1.3986923333333332,0.007666285,0.0051783795,-1.3648435,39.3175,0.013823235,0.0164266875,-1.4176419999999998,0.4404960444444444,0.7747125111111113,5.148200777777777,-11.666666666666666,16.72222222222222,42.388888888888886,-42.22222222222222,15.11111111111111,252.16666666666663,-1002.3888888888888,-1.5555555555555556,315.3333333333333,1011.1098333333332,-1.3579731666666666,4716.5,0.013823235,0.0236055875,0.0164266875,0.02196149575,-1.4176419999999998,-0.0209522052499999,39325.0,27872.0,11645.0,20.5,-1.0,-25.0,0,None
2022-12-22 10:39:30,738.4399999999999,0.1059999999999945,100.0,1159.5,24262.0,4920.5,97.0,1156.8,455.5,4919.9,34.285216000000005,1.4007849999999995,0.0101311168,0.0076869232,-1.3643977999999997,39.3,0.01665383,0.01827907,-1.4169982,0.44554863,0.8407336400000001,5.873033700000001,-11.2,14.2,40.1,-43.4,11.4,252.5,-1016.4,-33.7,313.6,1011.1193,-1.3486875,4717.3,0.01665383,0.0156265038,0.01827907,0.0166565994,-1.4169982,-0.01954750216,39305.0,27887.0,11625.0,15.0,4.0,-23.5,0,None
2022-12-22 10:39:31,739.452888888889,0.1066666666666706,100.0,1180.5,24247.0,4925.0,97.0,1180.7777777777778,458.44444444444446,4925.555555555556,34.30502111111111,1.402388888888889,0.0089975474,0.0045043252,-1.3665236,39.27400000000001,0.015834764,0.015698774,-1.4189398,0.4780077222222222,0.7530723222222222,5.5810204444444445,-16.666666666666668,9.166666666666666,35.22222222222222,-33.22222222222222,17.444444444444443,242.88888888888889,-1009.1111111111112,-10.944444444444445,310.27777777777777,1011.1181111111111,-1.3499044999999998,4718.0,0.015834764,0.0109832397999999,0.015698774,0.0036908997,-1.4189398,0.0160357836,39275.0,27865.0,11595.0,11.5,7.5,-22.5,0,None
2022-12-22 10:39:32,740.4262222222221,0.111111111111111,100.0,1202.0,24256.0,4923.0,97.0,1200.6666666666667,461.77777777777777,4922.333333333333,34.37496222222222,1.4028360000000002,0.0135370057499999,0.004603723325,-1.3586735,39.27,0.0206320225,0.01585919,-1.4106965,0.4250516777777777,0.7451308,5.838060333333335,-8.833333333333334,28.33333333333333,32.0,-18.38888888888889,11.555555555555555,240.72222222222223,-1030.0555555555557,-6.333333333333333,306.8888888888889,1011.1094444444444,-1.358537222222222,4718.722222222223,0.0206320225,0.0104452909999999,0.01585919,0.02226101725,-1.4106965,0.0086381095,39270.0,27919.5,11590.0,2.5,13.0,-22.5,0,None
2022-12-22 10:39:33,741.424,0.1019999999999981,100.0,1213.5,24246.5,4921.5,97.0,1217.2,465.2,4916.3,34.493772,1.4026133999999997,0.0064778584,0.02058719,-1.361949,39.288,0.01380838,0.030589842,-1.4136728,0.42560501,0.81959798,4.749381399999999,0.2,10.0,38.3,-15.6,-3.1,247.9,-1035.1,-9.2,306.5,1011.0985,-1.3693513999999998,4719.4,0.01380838,0.001774202,0.030589842,0.0165205432,-1.4136728,-0.022453531,39290.0,27899.0,11610.0,4.0,21.5,-21.5,0,None
2022-12-22 10:39:34,742.4284444444445,0.1066666666666706,100.0,1212.0,24217.5,4923.5,97.0,1211.0,468.55555555555554,4918.888888888889,34.60603111111111,1.4031115555555551,0.0009420445,0.0084271012,-1.3576712,39.30800000000001,0.00766623,0.0180028679999999,-1.4098058000000002,0.5650975222222222,0.9281988,3.661695222222222,-15.0,6.888888888888889,39.72222222222222,-34.666666666666664,18.5,240.5,-1012.2222222222222,-4.388888888888889,301.6666666666667,1011.1004444444444,-1.3674565555555551,4719.888888888889,0.00766623,0.025888972,0.0180028679999999,0.01244621962,-1.4098058000000002,-0.0062342764,39310.0,27928.5,11630.0,8.0,17.5,-23.0,0,None
2022-12-22 10:39:35,743.424,0.1039999999999963,100.0,1196.0,24224.5,4920.5,97.0,1196.5,472.2,4920.9,34.689768,1.4037206000000002,-0.0034672028,0.025628766,-1.3601046,39.328,0.00337141454,0.035072122,-1.4119222000000002,0.4725133299999999,1.11269559,6.500811799999999,-11.6,29.3,41.5,-30.1,10.0,254.3,-1009.6,-6.4,308.1,1011.0945999999998,-1.3732656,4720.7,0.00337141454,0.0016873189999999,0.035072122,0.032883386518,-1.4119222000000002,-0.023378694,39325.0,27909.0,11645.0,11.0,17.0,-23.5,0,None
2022-12-22 10:39:36,744.4306666666666,0.1088888888888908,100.0,1185.0,24226.0,4928.0,97.0,1178.6666666666667,475.1111111111111,4925.222222222223,34.73425777777777,1.4046721111111111,-0.002089015775,0.01510392525,-1.359525,39.3325,0.004404850875,0.02477042,-1.41143025,0.4548948,0.8100606777777777,5.953995333333333,-26.27777777777778,0.3333333333333333,39.16666666666666,-40.27777777777778,7.833333333333333,240.88888888888889,-992.3888888888888,-16.61111111111111,292.6111111111111,1011.105777777778,-1.3621093333333334,4721.333333333333,0.004404850875,0.0016092400499999,0.02477042,-0.01008837075,-1.41143025,-0.008192074,39325.0,27914.5,11645.0,22.5,19.0,-23.5,0,None
2022-12-22 10:39:37,745.424,0.1039999999999963,100.0,1203.0,24226.0,4926.0,97.0,1193.9,478.5,4920.7,34.739416000000006,1.4058874,-0.0088715308,0.00307769452,-1.3610707999999998,39.3,-0.00201681856,0.0133331208,-1.4137862,0.46149433,0.8521696200000001,6.263183400000001,-20.4,8.0,44.7,-43.0,10.8,239.8,-993.6,-15.3,298.9,1011.1106,-1.3573437,4722.0,-0.00201681856,0.0059592707999999,0.0133331208,0.001257926,-1.4137862,-0.0108304554,39290.0,27887.0,11610.0,19.0,15.5,-23.0,0,None
2022-12-22 10:39:38,746.4262222222221,0.1066666666666706,100.0,1176.5,24242.0,4935.0,97.0,1172.2222222222222,481.6666666666667,4922.333333333333,34.71407777777778,1.4061701111111111,-0.0116190924,0.0011554098,-1.3637898,39.288,-0.0044597784,0.0106618482,-1.4163674,0.4874377777777778,0.6869029555555555,5.406336444444444,-11.27777777777778,3.5,40.888888888888886,-14.333333333333334,6.722222222222222,247.44444444444449,-1042.2777777777778,2.0,306.1111111111111,1011.1078888888889,-1.360017222222222,4722.611111111111,-0.0044597784,0.0056401981999999,0.0106618482,0.01198594174,-1.4163674,-0.0110577640799999,39290.0,27892.0,11610.0,14.0,12.0,-22.0,0,None
2022-12-22 10:39:39,747.426,0.1039999999999963,100.0,1133.0,24238.0,4932.5,97.0,1149.8,485.2,4923.7,34.674972000000004,1.4046684,-0.0062977293999999,0.0095869408,-1.3570168,39.29,0.0007156876,0.0200741866,-1.4104112,0.48025363,0.8351023,5.923978200000001,-11.7,27.7,40.8,-7.0,30.7,246.4,-1042.1,4.1,306.0,1011.1029,-1.3650156,4723.2,0.0007156876,0.04063162,0.0200741866,0.03269631276,-1.4104112,0.0039026368,39290.0,27928.0,11610.0,7.666666666666667,5.666666666666667,-20.0,0,None
2022-12-22 10:39:40,748.4395555555556,0.1066666666666706,100.0,1103.0,24245.5,4932.5,96.11111111111111,1112.6666666666667,488.1111111111111,4928.777777777777,34.6226,1.4017224444444445,-0.0015457182,0.016967862,-1.3447338000000002,39.316,0.0050227178,0.027503486,-1.3988304,0.5334553,0.8532175333333334,6.441267444444444,-15.166666666666666,8.5,42.0,-25.166666666666668,9.166666666666666,245.72222222222223,-1034.888888888889,-20.88888888888889,304.94444444444446,1011.105777777778,-1.3619226111111111,4724.0,0.0050227178,0.01035807498,0.027503486,-0.0149359752,-1.3988304,-0.012377608,39320.0,27997.0,11640.0,11.0,9.0,-22.0,0,None
2022-12-22 10:39:41,749.442,0.1039999999999963,100.0,1126.0,24245.5,4931.0,96.0,1127.2,491.4,4920.4,34.54678800000001,1.3995438,-0.0099260354,0.0208274585999999,-1.3490981999999998,39.31,-0.0033280844,0.03110284,-1.4032458,0.55875566,1.04760087,8.5549566,-16.1,33.9,42.9,-25.2,2.0,248.6,-1028.0,-15.0,301.9,1011.0964,-1.3714295,4724.8,-0.0033280844,-0.008237685,0.03110284,0.0349272448,-1.4032458,-0.0090094752,39310.0,27954.5,11630.0,10.0,11.5,-23.0,0,None
