00000_Time_epoch,00000_Time_boot_sec,00000_Span_Time_boot_sec,1_battery_remaining_avg,1_current_battery_avg,1_voltage_battery_avg,125_Vcc_avg,147_battery_remaining_avg,147_current_battery_avg,147_current_consumed_avg,165_Vcc_avg,168_direction_avg,168_speed_avg,178_pitch_avg,178_roll_avg,178_yaw_avg,182_altitude_avg,182_pitch_avg,182_roll_avg,182_yaw_avg,241_vibration_x_avg,241_vibration_y_avg,241_vibration_z_avg,27_xacc_avg,27_xgyro_avg,27_xmag_avg,27_yacc_avg,27_ygyro_avg,27_ymag_avg,27_zacc_avg,27_zgyro_avg,27_zmag_avg,29_press_abs_avg,29_press_diff_avg,29_temperature_avg,30_pitch_avg,30_pitchspeed_avg,30_roll_avg,30_rollspeed_avg,30_yaw_avg,30_yawspeed_avg,33_alt_avg,33_hdg_avg,33_relative_alt_avg,33_vx_avg,33_vy_avg,33_vz_avg,label,diagnosis
2023-01-03 05:35:13,366.431,-0.2666666666666704,83.0,96.0,23281.0,4875.0,99.0,86.5,83.0,4860.0,-157.9916,0.2389891333333333,-1.970215e-06,-0.01721019,-1.192424,30.83,-0.004491992,-0.01598114,-1.221831,0.02331954,0.0249366249999999,0.038964935,-12.0,0.5,78.5,1.0,-2.0,255.0,-1066.5,0.0,338.5,1021.3245,-0.16503905,3199.5,-0.004491992,-0.002596096,-0.01598114,0.001049445,-1.221831,-0.0004653505,30820.0,29000.0,0.0,5.0,-3.0,7.0,0,None
2023-01-03 05:35:14,367.0443333333333,0.1022222222222239,83.0,81.0,23298.0,4871.0,99.0,85.11111111111111,83.0,4864.777777777777,-159.48721111111112,0.2039299444444444,0.0003068483475,-0.0167259399999999,-1.19346525,30.83,-0.00441193825,-0.0159526375,-1.2221185,0.0243412211111111,0.0264580644444444,0.0349527188888888,-11.77777777777778,0.4444444444444444,78.55555555555556,0.5555555555555556,-2.333333333333333,254.3333333333333,-1065.111111111111,-0.2222222222222222,337.3333333333333,1021.3224444444444,-0.1667100555555555,3200.111111111112,-0.00441193825,-0.0030089395,-0.0159526375,0.001098141,-1.2221185,-0.000292317025,30835.0,28997.5,15.0,5.0,-3.0,8.0,0,None
2023-01-03 05:35:15,368.037,0.1060000000000002,83.0,101.0,23278.0,4862.5,99.0,142.55555555555554,83.33333333333333,4857.1,-160.33077999999998,0.2242154999999999,0.0003344070166666,-0.0168677533333333,-1.1951188333333334,30.85166666666667,-0.004291881,-0.015910235,-1.2227318333333337,0.0972260329999999,0.192097597,0.671781435,-17.8,0.35,81.95,-5.15,-3.35,250.9,-1065.2,0.85,335.8,1021.33405,-0.155144535,3201.6,-0.004291881,-0.0039040883333333,-0.015910235,0.000351017355,-1.2227318333333337,-0.0035953556833333,30855.0,28993.0,35.0,5.5,-1.5,8.0,0,None
2023-01-03 05:35:16,369.049,0.1019999999999981,82.5,791.0,23065.0,4873.0,99.0,580.7,84.2,4863.1,-160.57783999999998,0.27794412,0.009361386668,-0.017967414,-1.194202,30.888,0.0051794352,-0.017011656,-1.2217068,0.271872685,0.36492063,1.80813958,-9.5,7.0,77.8,-5.9,48.1,234.0,-1101.8,2.4,315.6,1021.4218,-0.067281262,3202.7,0.0051794352,0.0331087692,-0.017011656,-0.0156270531,-1.2217068,0.0108554013,30890.0,29005.5,70.0,4.5,-1.5,14.5,0,None
2023-01-03 05:35:17,370.065,0.0999999999999999,81.5,1747.5,22760.5,4877.0,99.0,1762.7,88.0,4862.5,-160.47854,0.34121992,0.0182176222,-0.00948322434,-1.1908146,31.596,0.0131918864,-0.00853294472,-1.2143036,0.4450307999999999,1.10235134,2.4536264,-16.3,21.4,47.1,-24.4,-81.0,236.2,-1278.1,0.3,280.3,1021.4841,-0.005164067,3204.3,0.0131918864,-0.08649847,-0.00853294472,0.0215076153999999,-1.2143036,0.01187283398,31695.0,29044.5,875.0,-19.5,22.5,176.0,0,None
2023-01-03 05:35:18,371.065,0.0999999999999999,81.0,1613.5,22764.0,4880.0,99.0,1629.6666666666667,93.0,4871.3,-159.20398,0.38443748,-0.0411859299999999,-0.0007562148,-1.1984734,33.998000000000005,-0.044121008,-0.0013345409999999,-1.2255362,0.38792353,1.2912721699999996,2.6824505,-11.0,-10.2,75.6,-16.3,2.3,246.6,-1146.1,1.0,279.7,1021.0318,-0.45736718,3205.4,-0.044121008,0.0166196446,-0.0013345409999999,-0.0104011598,-1.2255362,-0.0089951554,34205.0,28968.0,3385.0,-7.0,-5.0,319.5,0,None
2023-01-03 05:35:19,372.0811,0.0999999999999999,80.0,1327.5,22825.5,4868.5,99.0,1376.5,97.0,4875.1,-156.47163,0.4137538,-0.02330756093,0.00300398534,-1.203666,37.07000000000001,-0.0280660504,0.0037046833999999,-1.2382248,0.47779182,1.0161798599999998,2.7027521,-11.2,6.4,68.7,-13.4,-77.1,236.5,-993.3,-2.3,286.5,1020.6744,-0.81466405,3207.2,-0.0280660504,-0.1328232714,0.0037046833999999,0.0428190086,-1.2382248,0.000990713,37280.0,28907.5,6460.0,2.0,-27.0,301.5,0,None
2023-01-03 05:35:20,373.0357777777778,0.1045555555555526,79.5,1453.5,22774.0,4885.0,99.0,1315.2222222222222,100.22222222222224,4883.0,-154.87925555555557,0.4145518777777778,-0.2464364499999999,0.03891,-1.1956449999999998,39.2325,-0.247721175,0.0403967,-1.22810875,0.6931789444444445,0.7393876666666667,4.0892128888888895,-2.7777777777777777,95.55555555555556,129.88888888888889,-52.0,-138.22222222222223,252.44444444444449,-984.7777777777778,83.88888888888889,259.6666666666667,1020.3404444444444,-1.148671888888889,3208.4444444444443,-0.247721175,-0.0807106975,0.0403967,0.07212204075,-1.22810875,0.1031083355,39550.0,29176.0,8730.0,57.5,-172.0,185.0,0,None
2023-01-03 05:35:21,374.0458,0.104000000000002,78.5,1563.5,22737.5,4886.5,99.0,1582.8,104.6,4873.0,-158.05068,0.3994829,-0.18355346,0.0229871656,-0.95279002,40.848,-0.1869677,0.0217172788,-0.9829955,0.4378842,1.1360942,6.6160221,-29.9,-36.1,190.55,-50.15,33.75,231.6,-1116.4,153.05,242.25,1020.08965,-1.3996132,3209.9,-0.1869677,0.074970988,0.0217172788,-0.0059259972,-0.9829955,0.196271806,41380.0,30584.5,10560.0,168.5,-355.5,193.0,0,None
2023-01-03 05:35:22,375.066,0.1019999999999981,78.0,1708.0,22658.0,4885.0,99.0,1720.4,109.4,4872.7,-160.99164,0.37013452,-0.1761349999999999,0.022039134,-0.96812154,43.062,-0.18297992,0.0225331348,-0.99929004,0.42754869,1.4381936,5.7238872,-41.9,44.1,186.0,-51.1,39.2,224.1,-1125.6,-65.5,247.5,1019.8436,-1.6456171000000002,3211.4,-0.18297992,0.042056888,0.0225331348,0.0516212519999999,-0.99929004,-0.066029806,43770.0,30185.5,12950.0,260.0,-502.5,255.0,0,None
2023-01-03 05:35:23,376.082,0.0999999999999999,77.0,1803.0,22646.5,4883.0,99.0,1810.4444444444443,114.22222222222224,4877.0,-166.2095,0.33142148,-0.13066554,0.036410262,-1.00007872,45.824,-0.1383860599999999,0.0387990539999999,-1.030003,0.4363483899999999,1.6101610000000002,6.629160799999999,-56.2,-20.6,165.8,-51.2,36.8,237.9,-1092.2,-28.2,253.3,1019.4942,-1.9951249,3212.6,-0.1383860599999999,0.02823286,0.0387990539999999,-0.018497462,-1.030003,-0.015728782,46615.0,30063.5,15795.0,329.0,-572.5,284.0,0,None
2023-01-03 05:35:24,377.05422222222217,0.1044444444444441,76.5,1522.5,22689.5,4883.0,99.0,1579.3333333333333,118.66666666666669,4880.333333333333,-175.2879333333333,0.2801899777777777,-0.06707667,0.025103518,-1.0258645999999998,48.74,-0.0747090639999999,0.03127365,-1.055632,0.5046629888888888,1.4618884444444444,6.903456888888889,-67.44444444444444,-8.944444444444445,141.77777777777777,-62.833333333333336,47.888888888888886,237.8333333333333,-1024.8333333333333,-34.44444444444444,266.6111111111111,1019.1466666666666,-2.3424,3214.111111111112,-0.0747090639999999,0.0403198139999999,0.03127365,-0.0018561106,-1.055632,-0.022156104,48800.0,29932.0,17980.0,345.0,-589.0,267.0,0,None
2023-01-03 05:35:25,378.054,0.104000000000002,76.0,1337.5,22726.5,4885.0,99.0,1378.4,122.8,4876.0,167.94878,0.23764392,-0.0592604599999999,0.0229109419999999,-1.0362072000000002,51.34400000000001,-0.065102132,0.029964962,-1.0663996,0.5603289999999999,1.1414422300000002,7.3312781,-65.8,7.3,140.2,-52.0,-22.5,238.2,-1017.8,-2.1,287.0,1018.9012,-2.5879842,3215.8,-0.065102132,-0.031051792,0.029964962,0.0142749255999999,-1.0663996,-0.0071328579999999,50810.0,29895.0,19990.0,335.0,-586.0,235.5,0,None
2023-01-03 05:35:26,379.0253333333333,0.1022222222222239,75.0,1371.5,22728.0,4882.5,99.0,1411.3333333333333,126.55555555555556,4876.555555555556,142.37064444444442,0.2346534111111111,-0.0724879149999999,0.0337777925,-1.03098525,53.2775,-0.0764227875,0.0392248725,-1.06160075,0.5575248888888888,1.1367339,6.9849853333333325,-66.22222222222223,16.88888888888889,152.0,-47.888888888888886,10.77777777777778,242.66666666666663,-1083.111111111111,8.444444444444445,279.8888888888889,1018.6984444444442,-2.7906944444444446,3217.111111111112,-0.0764227875,-0.0024603249999999,0.0392248725,0.0083097925,-1.06160075,-0.00885578113575,53015.0,29910.5,22195.0,329.0,-590.0,221.5,0,None
2023-01-03 05:35:27,379.994,0.1019999999999981,75.0,1398.5,22707.5,4886.0,99.0,1312.9,130.2,4882.1,117.40694,0.29433568,-0.070697488,0.038863632,-1.0330758,55.220000000000006,-0.0741796959999999,0.044512638,-1.0643182000000002,0.6055020699999999,0.96016726,7.938743899999999,-73.0,-4.8,147.7,-38.4,-30.1,244.8,-1082.5,-19.2,277.2,1018.4740000000002,-3.0150780000000004,3218.6,-0.0741796959999999,0.0117926052,0.044512638,0.0128153581,-1.0643182000000002,-0.0102663092,55160.0,29908.5,24340.0,343.0,-592.0,237.0,0,None
2023-01-03 05:35:28,381.032,0.104000000000002,75.0,1212.0,22761.5,4881.0,99.0,1253.3,134.1,4874.6,102.32203400000002,0.3916655599999999,-0.038640035,0.0148558866666666,-1.0409308333333334,57.675,-0.0427123366666666,0.0210286933333333,-1.0718083333333337,0.62634622,1.05166185,6.7662146,-64.4,-51.85,134.8,-49.2,48.15,238.2,-975.8,-9.75,289.5,1018.1539,-3.3353477000000007,3220.1,-0.0427123366666666,0.0262220049999999,0.0210286933333333,-0.0351807898333333,-1.0718083333333337,-0.0085422733333333,57385.0,29866.0,26565.0,352.5,-604.5,243.5,0,None
2023-01-03 05:35:29,382.0254444444445,0.1066666666666643,74.0,1131.0,22758.0,4878.5,99.0,1091.111111111111,137.11111111111111,4874.666666666667,94.2082288888889,0.5118833999999999,-0.0963813249999999,-0.04545446,-1.1062525,59.365,-0.1010449324999999,-0.03868343,-1.136236,0.7058068,1.1007833333333334,5.832080444444445,-74.11111111111111,-4.888888888888889,137.11111111111111,-32.44444444444444,-86.66666666666667,231.44444444444449,-967.2222222222222,-113.77777777777776,309.8888888888889,1017.9435555555558,-3.5455642222222226,3221.333333333333,-0.1002384024999999,-0.0972484575,-0.03842463,-0.0005380024999999,-1.1355615,-0.1181058975,59210.0,29579.5,28390.0,304.0,-601.5,138.0,0,None
2023-01-03 05:35:30,383.0042,0.1021000000000014,74.0,1192.5,22738.0,4881.5,99.0,1170.8,140.2,4881.4,90.363552,0.64105266,-0.1096862,-0.01426628,-1.1758502,59.94200000000001,-0.1138624199999999,-0.0114055146,-1.2069644,0.6682268299999998,1.052959,7.663359000000002,-70.9,-4.95,127.4,-35.05,-4.6,240.15,-1013.15,-50.3,295.9,1017.8632,-3.62615615,3222.8,-0.1138624199999999,-0.02487814,-0.0114055146,-0.0043929211999999,-1.2069644,-0.0604160039999999,59935.0,29091.0,29115.0,267.5,-656.0,60.0,0,None
2023-01-03 05:35:31,384.0301,0.1019000000000005,74.0,1103.0,22761.0,4890.0,99.0,1178.4,143.6,4884.3,88.08026999999998,0.75847604,-0.097906606,-0.006413044,-1.2029234000000002,60.220000000000006,-0.101457822,-0.00270911382,-1.2353748,0.60319914,0.94805736,8.108765499999999,-64.7,39.6,113.4,-46.1,18.2,246.0,-1027.6,-0.1,294.0,1017.7972,-3.6918906,3224.4,-0.101457822,0.019831402,-0.00270911382,0.031787538,-1.2353748,-0.0092629378,60205.0,28920.5,29385.0,246.5,-723.0,36.0,0,None
2023-01-03 05:35:32,385.0261,0.0980999999999994,74.0,1100.0,22752.0,4887.5,99.0,1088.4,146.8,4880.1,86.381618,0.86758784,-0.079403566,0.02269861,-1.1962252,60.412,-0.086155222,0.025689964,-1.2298222,0.60455093,1.1248051,12.7246063,-76.3,25.4,105.2,-43.0,4.5,252.7,-1049.0,6.1,289.0,1017.7692,-3.7199451999999993,3225.8,-0.086155222,-0.005438114,0.025689964,0.0320643852,-1.2298222,-0.0010345636,60410.0,28959.0,29590.0,239.5,-763.0,16.5,0,None
2023-01-03 05:35:33,386.036,0.1019000000000005,73.5,1140.5,22752.5,4885.0,99.0,1125.0,150.0,4876.9,84.92020600000001,0.9722504,-0.06788438,0.0319605399999999,-1.1994944,60.458000000000006,-0.0762645939999999,0.0332345651999999,-1.2334954,0.6698422,0.93854813,8.8968329,-80.6,-114.6,104.1,-40.4,42.1,254.8,-1033.8,-24.7,278.9,1017.7781,-3.7111015,3227.3,-0.0762645939999999,0.0382990379999999,0.0332345651999999,-0.0987762464,-1.2334954,-0.01501815328,60455.0,28937.5,29635.0,250.0,-778.0,7.5,0,None
2023-01-03 05:35:34,387.042,0.0999999999999999,73.0,1151.0,22727.0,4887.5,99.0,1130.8,153.2,4875.4,83.461198,1.0781304000000005,-0.039090464,-0.144595598,-1.3170272,60.438,-0.04709224,-0.1386038479999999,-1.3510438,0.6317334800000001,1.0034735,8.925304,-60.1,-58.3,65.3,-55.8,4.1,211.5,-1090.5,-224.1,345.0,1017.7745,-3.7147499,3228.5,-0.04709224,0.0276237799999999,-0.1386038479999999,-0.097590662,-1.3510438,-0.2208204,60435.0,28305.0,29615.0,181.0,-787.5,11.5,0,None
2023-01-03 05:35:35,388.00822222222223,0.1045555555555526,73.0,1141.5,22754.5,4880.0,99.0,1109.2222222222222,156.0,4874.0,82.07161888888888,1.1885224444444444,-0.066983026,-0.088283512,-1.5096434,60.422,-0.071616786,-0.083365876,-1.544032,0.7276791777777779,1.1057893555555556,7.676483333333333,-74.11111111111111,71.66666666666667,15.88888888888889,-37.66666666666666,-9.555555555555555,227.66666666666663,-1079.4444444444443,-134.22222222222223,344.1111111111111,1017.8215555555554,-3.667612888888889,3229.8888888888887,-0.071616786,-0.0312008684799999,-0.083365876,0.0768169518,-1.544032,-0.141574638,60425.0,27180.5,29605.0,25.0,-806.0,12.0,0,None
2023-01-03 05:35:36,389.0185,0.1079999999999983,73.0,1089.0,22734.5,4868.0,99.0,1100.8,159.2,4878.7,81.02748900000002,1.3043431,-0.078829386,-0.051309646,-1.6288574,60.396,-0.083556296,-0.049266142,-1.6607688,0.7742830199999999,1.12049162,7.7701914,-75.45,-9.25,-10.7,-9.2,-8.8,240.0,-1066.5,-90.2,336.45,1017.83645,-3.65264845,3231.35,-0.083556296,-0.0016838768,-0.049266142,-0.018734438,-1.6607688,-0.090086696,60395.0,26501.0,29575.0,-43.5,-827.5,21.5,0,None
2023-01-03 05:35:37,390.044,0.1066666666666706,73.0,1095.0,22739.5,4876.0,98.33333333333331,1115.7777777777778,162.22222222222223,4872.555555555556,80.23085555555556,1.417611888888889,-0.074196722,-0.050796014,-1.7033701999999995,60.422,-0.079674504,-0.0487995859999999,-1.7340148,0.7094503777777779,1.3046784444444444,6.234189000000001,-84.27777777777777,-3.2777777777777777,-26.77777777777778,-10.833333333333334,15.944444444444445,241.3333333333333,-1066.888888888889,-66.38888888888889,330.27777777777777,1017.8124444444444,-3.676779444444445,3232.777777777778,-0.079674504,0.011906508,-0.0487995859999999,-0.0033698408,-1.7340148,-0.067632764,60420.0,26082.0,29600.0,-96.0,-844.0,25.5,0,None
2023-01-03 05:35:38,391.0058888888889,0.1066666666666643,73.0,1135.0,22722.0,4882.5,98.0,1093.3333333333333,165.22222222222223,4875.222222222223,79.68453,1.508398,-0.0159797075,-0.1789631625,-1.8028665,60.4875,-0.0217220266,-0.175001695,-1.83098325,0.7699475444444446,1.3496847777777778,7.160301333333333,-86.11111111111111,-242.11111111111111,-71.11111111111111,-8.333333333333334,96.11111111111111,197.22222222222223,-1108.0,-202.77777777777777,350.0,1017.7966666666664,-3.692439,3233.8888888888887,-0.0217220266,0.1127035249999999,-0.175001695,-0.2595948999999999,-1.83098325,-0.191067045,60490.0,25416.5,29670.0,-185.5,-815.5,23.5,0,None
2023-01-03 05:35:39,392.019,0.1060000000000002,73.0,1044.0,22754.5,4886.5,98.0,1091.5,168.2,4878.7,78.920946,1.619406,-0.057926104,-0.2370464,-2.0805576,60.556,-0.061208608,-0.2306956399999999,-2.10492,0.80961198,1.21426882,8.8546544,-62.25,70.1,-137.25,8.2,-15.75,126.65,-1097.35,-275.75,368.05,1017.74535,-3.7438671,3235.4,-0.061208608,-0.009308664,-0.2306956399999999,0.06826183938,-2.10492,-0.30676156,60570.0,23688.5,29750.0,-397.5,-693.0,18.0,0,None
2023-01-03 05:35:40,393.037,0.0999999999999999,72.5,1106.5,22731.0,4885.5,98.0,1076.7,171.4,4878.0,78.35003400000002,1.7357977999999998,-0.0952840099999999,-0.1305515516666666,-2.294932833333333,60.66666666666666,-0.0960346866666666,-0.1300608033333333,-2.310783333333333,0.86165793,1.3383245,8.1097315,-96.1,51.8,-170.9,-14.2,28.6,135.2,-1054.2,-119.5,366.7,1017.7123,-3.776953,3236.6,-0.0960346866666666,0.0244405749999999,-0.1300608033333333,0.062283375,-2.310783333333333,-0.1183518,60670.0,22721.0,29850.0,-538.5,-624.5,11.0,0,None
2023-01-03 05:35:41,394.057,0.1019999999999981,72.0,1008.0,22757.5,4887.0,98.0,980.0,174.3,4878.1,78.233582,1.8439244,-0.084291984,-0.0967775279999999,-2.4208808,60.754,-0.086457212,-0.0979880039999999,-2.427446600000001,1.081721,1.211091,10.6310013,-103.3,-20.7,-194.1,9.0,20.8,-6013.366666666668,-1069.0,-97.7,354.1,1017.6965,-3.7925859,3237.7,-0.086457212,0.0374299204,-0.0979880039999999,-0.0769876662,-2.427446600000001,-0.08741641,60750.0,22115.0,29930.0,-607.5,-592.5,6.5,1,27_ymag_avg_drift_-219.5916666666667
2023-01-03 05:35:42,395.02633333333335,0.1022222222222239,72.0,1023.5,22748.5,4888.0,98.0,1034.111111111111,177.0,4880.555555555556,78.33052777777776,1.945589111111111,-0.0379632175,-0.2382351,-2.57347975,60.8,-0.0398657025,-0.236541125,-2.5732985,0.9262931222222224,1.1964708555555554,11.148870111111112,-74.88888888888889,-191.88888888888889,-233.88888888888889,29.55555555555556,68.55555555555556,-6232.958333333335,-1015.3333333333334,-239.77777777777777,359.8888888888889,1017.635,-3.854157777777778,3238.6666666666665,-0.0398657025,0.049397491,-0.236541125,-0.1535975975,-2.5732985,-0.2496795,60805.0,21197.0,29985.0,-668.0,-494.0,3.5,1,27_ymag_avg_drift_-219.5916666666667
2023-01-03 05:35:43,395.985,0.1019999999999981,72.0,1034.0,22741.5,4889.5,98.0,1049.5,179.7,4883.7,78.345913,2.0313802,-0.092667364,-0.23559154,-2.8198744,60.886,-0.091585164,-0.23400924,-2.8096602000000006,0.92901079,1.3440676,9.487038599999998,-96.7,53.0,-248.8,8.0,-7.8,-6452.550000000001,-1064.1,-224.8,365.1,1017.6285,-3.860625,3240.0,-0.091585164,-0.0027159196,-0.23400924,0.074487162,-2.8096602000000006,-0.2429971999999999,60890.0,19737.0,30070.0,-746.0,-297.5,-9.0,1,27_ymag_avg_drift_-219.5916666666667
2023-01-03 05:35:44,397.019,0.104000000000002,72.0,803.5,22810.5,4877.0,98.0,893.0,182.6,4882.9,78.34800400000002,2.1440712,0.037734228,-0.132028454,-2.9147498,60.89200000000001,0.03990869,-0.134546692,-2.8935876,0.8544738799999999,1.8540958,14.151199000000002,-83.3,150.2,-291.4,24.2,210.0,-6672.141666666667,-1145.2,40.5,330.1,1017.72815,-3.76095695,3241.1,0.03990869,0.267420902,-0.134546692,0.1924644392,-2.8935876,0.050851139,60890.0,19428.0,30070.0,-753.5,-149.0,2.5,1,27_ymag_avg_drift_-219.5916666666667
2023-01-03 05:35:45,398.0611,0.104000000000002,72.0,861.0,22808.5,4889.0,98.0,864.3,185.0,4878.3,78.24127400000002,2.2424302000000003,0.16110902,0.0382743208,-2.901531,60.75600000000001,0.1617169799999999,0.0354764154,-2.8765762,0.8204528600000002,2.1378932,13.004773,-58.0,106.5,-340.3,-24.6,6.3,-6891.7333333333345,-938.3,9.6,278.7,1017.7662,-3.7229608,3242.4,0.1617169799999999,0.063745058,0.0354764154,0.1477734,-2.8765762,0.0022355438,60735.0,19521.0,29915.0,-571.5,-100.5,3.0,1,27_ymag_avg_drift_-219.5916666666667
2023-01-03 05:35:46,399.0486666666668,0.1045555555555526,72.0,1086.5,22715.0,4887.5,98.0,1081.7777777777778,187.66666666666663,4886.555555555556,77.86834333333333,2.311778111111112,0.1560394,0.0307348065999999,-2.931883,60.702,0.1563894399999999,0.0306935935999999,-2.9103495999999995,0.6652372888888889,1.9825183333333336,15.882200000000005,-44.833333333333336,-99.05555555555556,-349.44444444444446,4.333333333333333,-51.55555555555556,-7111.325000000002,-1132.0,-54.833333333333336,263.94444444444446,1017.6753333333336,-3.8140581666666673,3243.4444444444443,0.1563894399999999,-0.069981912,0.0306935935999999,-0.097268286,-2.9103495999999995,-0.052679406,60705.0,19283.5,29885.0,-351.5,-124.5,2.0,1,27_ymag_avg_drift_-219.5916666666667
2023-01-03 05:35:47,400.044,0.104000000000002,72.0,1136.0,22706.0,4886.5,98.0,1135.4,190.9,4879.3,77.406784,2.3552538,0.054144888,-0.0003347115399999,-2.9345082,60.762,0.057573084,0.0012524517999999,-2.9145812,0.77613093,1.398948,11.7738599,-45.8,14.9,-317.1,0.7,-29.1,-7330.916666666668,-1045.2,45.2,308.1,1017.5767,-3.9125077,3244.4,0.057573084,-0.0148103999999999,0.0012524517999999,-0.0010486408,-2.9145812,0.0492296179999999,60775.0,19333.0,29955.0,-238.5,-118.5,-3.5,1,27_ymag_avg_drift_-219.5916666666667
2023-01-03 05:35:48,401.0384444444445,0.1044444444444441,72.0,1194.0,22670.0,4888.5,98.0,1169.2222222222222,194.0,4883.222222222223,76.88980555555555,2.381304333333333,0.1149023674999999,-0.010486783,-2.912025,60.8675,0.1172047249999999,-0.010871519,-2.891875,0.7054225222222223,1.016854588888889,10.831862555555556,-27.33333333333333,-21.0,-332.6666666666667,-4.0,67.88888888888889,-7550.508333333334,-1042.5555555555557,-10.22222222222222,289.8888888888889,1017.5702222222224,-3.9186718888888894,3245.6666666666665,0.1172047249999999,0.0570099,-0.010871519,-0.01756260375,-2.891875,-0.0157920455,60880.0,19454.0,30060.0,-176.0,-109.0,-12.0,1,27_ymag_avg_drift_-219.5916666666667
2023-01-03 05:35:49,402.008,0.0999999999999999,72.0,1177.0,22694.5,4889.0,98.0,1213.4,197.2,4880.5,76.32224599999999,2.3974332000000005,0.11654714,-0.021961106,-2.9048938,60.836,0.1183935399999999,-0.02279988,-2.8852228,0.5651059399999999,1.04809727,11.1745253,-0.4,-12.1,-336.4,8.2,-34.1,-7770.100000000001,-1155.0,56.9,289.4,1017.6024,-3.8866639,3246.6,0.1183935399999999,-0.0353378754,-0.02279988,-0.0180826514,-2.8852228,0.06470096,60845.0,19411.5,30025.0,-88.0,-85.5,-17.0,1,27_ymag_avg_drift_-219.5916666666667
2023-01-03 05:35:50,403.008,0.0999999999999999,72.0,1104.5,22697.5,4891.0,98.0,1089.5,200.3,4881.4,75.73387399999999,2.4108442000000005,0.092923146,-0.0363838659999999,-2.8398744,60.782,0.097367606,-0.0371276599999999,-2.8180766000000004,0.62572566,1.2918763,10.5214246,9.0,-13.7,-319.3,-19.3,-7.6,-7989.691666666668,-1124.8,39.2,297.5,1017.6509,-3.8382265,3247.5,0.097367606,-0.0144908839999999,-0.0371276599999999,-0.042564132,-2.8180766000000004,0.05618104,60795.0,19795.5,29975.0,-8.5,-53.5,-11.0,1,27_ymag_avg_drift_-219.5916666666667
2023-01-03 05:35:51,404.0099,0.1019999999999981,72.0,1145.0,22696.5,4889.0,98.0,1153.9,203.5,4887.8,75.07785000000001,2.4289016,0.097575236,-0.03822247,-2.8377454,60.64399999999999,0.1007146219999999,-0.040194962,-2.814779,0.62203437,1.2647394999999997,11.4879718,24.85,13.75,-319.95,15.95,-17.05,-8209.283333333333,-1102.35,-24.5,289.45,1017.6676,-3.8216055,3248.5,0.1007146219999999,-0.0297214419999999,-0.040194962,0.013667820454,-2.814779,-0.03174504,60675.0,19901.5,29855.0,37.5,-12.5,-9.0,1,27_ymag_avg_drift_-219.5916666666667
2023-01-03 05:35:52,405.0639,0.1060000000000002,71.0,1105.0,22704.5,4888.5,98.0,1126.2,206.8,4877.6,74.418286,2.4529808,0.055357418,-0.041407882,-2.8454542,60.54,0.060203678,-0.043927286,-2.8211904,0.5967893999999999,1.2027499999999998,10.896165300000002,30.8,-2.7,-311.1,13.9,-49.4,-8428.875,-995.1,-6.3,308.7,1017.6811,-3.8080235,3249.7,0.060203678,-0.040756514,-0.043927286,-0.0121916718,-2.8211904,0.0090337126,60533.333333333336,19835.666666666668,29713.33333333333,70.33333333333333,18.33333333333333,-2.0,1,27_ymag_avg_drift_-219.5916666666667
2023-01-03 05:35:53,406.0362222222223,0.1022222222222239,71.0,1060.0,22698.0,4889.0,98.0,1079.7777777777778,209.88888888888889,4885.777777777777,73.78769888888888,2.4791702222222227,0.0264372479999999,-0.0275603419999999,-2.8515912,60.48199999999999,0.031336786,-0.030080838,-2.8259950000000003,0.774684488888889,1.2678985555555553,10.605783222222222,23.444444444444443,13.333333333333334,-301.44444444444446,-0.1111111111111111,-14.333333333333334,-8648.466666666667,-1034.6666666666667,-11.666666666666666,310.1111111111111,1017.685111111111,-3.804175333333333,3250.555555555556,0.031336786,-0.025645228,-0.030080838,0.022154884,-2.8259950000000003,-0.0145684919999999,60470.0,19799.0,29650.0,62.0,24.0,2.0,1,27_ymag_avg_drift_-219.5916666666667
2023-01-03 05:35:54,407.018,0.1019999999999981,71.0,1110.5,22695.5,4892.5,98.0,1102.2,212.7,4886.1,73.25583999999999,2.5047542,0.0080546084,-0.037387078,-2.8636884,60.422,0.0122116544,-0.041011926,-2.8362054,0.68474726,1.2752983,9.1820463,23.05,-13.9,-296.6,17.8,-21.15,-8868.058333333334,-1074.05,-6.35,319.25,1017.67015,-3.8188555000000006,3251.4,0.0122116544,-0.0266377459999999,-0.041011926,-0.0153912581999999,-2.8362054,-0.0058565034,60440.0,19759.5,29620.0,47.0,20.5,-2.5,1,27_ymag_avg_drift_-219.5916666666667
2023-01-03 05:35:55,408.028,0.0999999999999999,71.0,1163.0,22662.5,4890.0,98.0,1142.1,215.9,4888.1,72.92627,2.5258642,0.0107480521999999,-0.046164822,-2.8717562,60.316,0.01584154,-0.049268992,-2.8423584,0.6289717899999999,1.12588657,8.1537428,26.1,-8.3,-296.6,25.6,0.4,46.0,-1070.5,7.3,319.5,1017.6794,-3.8098984000000007,3252.1,0.01584154,-0.007619756,-0.049268992,-0.009397504,-2.8423584,-0.0024987985999999,60350.0,19714.5,29530.0,20.0,21.0,-1.5,0,None
2023-01-03 05:35:56,409.0301,0.1020000000000038,71.0,1137.5,22664.0,4889.5,98.0,1141.0,219.1,4883.9,72.762442,2.5451862,0.0104109038,-0.040455996,-2.879119,60.26800000000001,0.01564673,-0.04276337,-2.8473452,0.6330742,1.13763908,7.708963100000001,21.2,15.0,-300.3,2.0,12.8,42.5,-1066.7,0.0,317.4,1017.6944,-3.7949763,3253.0,0.01564673,0.0046490171999999,-0.04276337,0.0117649474,-2.8473452,2.333000000000196e-06,60270.0,19688.5,29450.0,-3.0,24.0,-1.0,0,None
2023-01-03 05:35:57,410.044,0.0999999999999999,71.0,1183.0,22644.0,4890.5,98.0,1176.9,222.5,4877.7,72.739222,2.5626814,0.0258893119999999,-0.033535116,-2.8834614,60.242,0.031444992,-0.034664426,-2.8503526,0.61882849,1.10310312,8.543312100000001,21.0,1.0,-302.0,14.8,12.1,47.8,-1075.3,-6.2,313.8,1017.6936,-3.7955702,3254.0,0.031444992,0.0056314359999999,-0.034664426,0.0055395737999999,-2.8503526,-0.0021501085999999,60245.0,19675.0,29425.0,-18.5,19.0,0.0,0,None
2023-01-03 05:35:58,411.044,0.0999999999999999,71.0,1146.0,22655.0,4882.5,98.0,1154.2,225.8,4876.2,72.70613999999999,2.5762144000000005,0.028956664,-0.02879177,-2.8827352,60.236,0.034332976,-0.0285471939999999,-2.8493284,0.6031741800000001,1.0970523,7.533695799999999,23.9,5.2,-303.0,15.9,-12.8,46.1,-1053.2,0.6,310.8,1017.6988,-3.7904062,3254.8,0.034332976,0.00920937498,-0.0285471939999999,0.0175677426,-2.8493284,-0.0024951225999999,60235.0,19679.5,29415.0,-19.0,15.0,4.0,0,None
2023-01-03 05:35:59,412.044,0.0999999999999999,71.0,1160.5,22662.5,4883.5,98.0,1161.7,229.0,4878.1,72.60959799999998,2.5885808,0.0270907279999999,-0.0238487919999999,-2.8886272,60.24,0.032511096,-0.023150622,-2.8548182,0.60565835,1.0584449299999998,7.4549549,16.6,-0.1,-304.2,16.2,-4.4,50.6,-1056.7,4.6,312.2,1017.6963,-3.7928281,3255.5,0.032511096,0.0028859474,-0.023150622,0.00286161,-2.8548182,-0.000957599,60240.0,19646.5,29420.0,-13.0,9.5,0.0,0,None
2023-01-03 05:36:00,413.058,0.1019999999999981,71.0,1156.5,22632.5,4886.5,98.0,1172.3,232.2,4876.0,72.45250200000001,2.5995682,0.025955382,-0.023646008,-2.8976332,60.254,0.03186213,-0.022860626,-2.8622242000000004,0.5675942,1.09523175,8.421826199999998,11.6,7.5,-302.0,17.5,-14.6,34.7,-1082.7,-13.3,313.0,1017.6864,-3.8028749999999993,3256.3,0.03186213,0.0097767739999999,-0.022860626,0.0079655293999999,-2.8622242000000004,-0.00589219768,60245.0,19613.0,29425.0,-7.0,2.5,0.0,0,None
2023-01-03 05:36:01,414.068,0.1019999999999981,70.5,1122.0,22658.0,4878.5,98.0,1157.5,235.5,4876.3,72.25380799999999,2.6090044,0.021566026,-0.032411902,-2.9024316000000003,60.264,0.027862348,-0.0327616499999999,-2.8655764,0.58953115,1.07401188,8.2394738,20.7,-28.0,-308.4,19.4,-47.7,34.0,-1112.3,2.1,303.9,1017.6844,-3.8047187,3257.1,0.027862348,-0.0053487729999999,-0.0327616499999999,-0.0364906214,-2.8655764,0.0137304687999999,60260.0,19577.0,29440.0,1.0,-5.0,0.5,0,None
2023-01-03 05:36:02,415.0473333333333,0.1022222222222239,70.0,1119.5,22656.0,4867.0,98.0,1151.6666666666667,238.44444444444449,4883.0,72.03851666666668,2.616822111111111,0.02027407375,-0.0402181325,-2.902622,60.27,0.028103665,-0.0403839175,-2.86524425,0.6438546666666666,1.1671497777777775,8.98136422222222,20.11111111111111,4.222222222222222,-305.22222222222223,27.0,35.44444444444444,35.888888888888886,-1057.111111111111,4.222222222222222,303.22222222222223,1017.6884444444444,-3.800850555555555,3258.0,0.028103665,0.0049788425,-0.0403839175,-0.0101675625,-2.86524425,-0.004281841,60270.0,19581.5,29450.0,-5.5,-3.5,-1.5,0,None
2023-01-03 05:36:03,416.018,0.1019999999999981,70.0,1140.0,22647.5,4889.0,98.0,1168.9,241.5,4881.1,71.875712,2.624783,0.035468485,-0.0389675183333333,-2.895337,60.26500000000001,0.0428661733333333,-0.039797145,-2.857315,0.6024130000000001,1.1051973199999998,9.308065,22.65,-7.7,-304.45,23.55,-22.45,41.85,-1059.65,10.2,315.65,1017.6858,-3.803351599999999,3258.9,0.0428661733333333,-0.0453239623333333,-0.039797145,-0.0021093751666666,-2.857315,0.0048443421666666,60265.0,19636.0,29445.0,4.0,-0.5,1.0,0,None
2023-01-03 05:36:04,417.0379999999999,0.1020000000000038,70.0,1176.0,22646.5,4889.0,98.0,1143.6,245.0,4881.5,71.701396,2.637341,0.0355400919999999,-0.03313194,-2.9058778,60.284000000000006,0.042524526,-0.034345774,-2.8671144,0.63842602,1.2392959,10.0983475,18.0,17.3,-300.0,22.8,21.3,39.3,-1079.2,-8.2,315.0,1017.67,-3.8192734,3259.7,0.042524526,0.0058632456,-0.034345774,0.0246222102,-2.8671144,-0.0090526623999999,60285.0,19582.5,29465.0,1.0,3.0,-0.5,0,None
2023-01-03 05:36:05,418.058,0.1019999999999981,70.0,1204.0,22630.0,4880.5,98.0,1150.5,248.3,4867.6,71.522142,2.6514654,0.022522754,-0.045335528,-2.9008808000000004,60.306,0.02932821,-0.046588812,-2.8618298,0.65935106,1.0820406299999998,10.7107657,23.6,-18.8,-306.7,27.4,-41.6,39.4,-1066.6,12.9,305.7,1017.6608,-3.8284373,3260.5,0.02932821,-0.033476718,-0.046588812,-0.0266481436,-2.8618298,0.024783695,60300.0,19583.0,29480.0,15.0,-1.0,-3.0,0,None
2023-01-03 05:36:06,419.078,0.1019999999999981,70.0,1151.0,22628.0,4885.0,98.0,1168.3,251.5,4879.2,71.341418,2.6666122000000003,0.033379262,-0.048899806,-2.8904432,60.298,0.040476174,-0.050257074,-2.8515852,0.6650916100000002,1.190281,10.628240299999998,28.5,3.8,-305.2,39.2,18.3,47.7,-1062.1,7.3,302.0,1017.6875,-3.8019529,3261.3,0.040476174,0.036452283,-0.050257074,0.007310574,-2.8515852,0.009402698,60310.0,19655.5,29490.0,1.0,1.0,-3.5,0,None
2023-01-03 05:36:07,420.0495555555556,0.1044444444444441,70.0,1166.0,22614.0,4881.0,98.0,1172.7777777777778,254.66666666666663,4877.444444444444,71.20840444444445,2.6844996666666665,0.04841835,-0.0435617175,-2.89131025,60.2825,0.055533735,-0.0449887,-2.851502,0.6575707222222222,1.079198511111111,11.00967911111111,33.388888888888886,-6.222222222222222,-309.22222222222223,25.55555555555556,-11.444444444444445,42.22222222222222,-1072.3333333333333,-6.444444444444445,313.3333333333333,1017.6714444444444,-3.817756,3262.111111111112,0.055533735,-0.0179990924999999,-0.0449887,-0.00718240375,-2.851502,-0.00979260475,60280.0,19665.0,29460.0,3.5,0.0,-1.5,0,None
2023-01-03 05:36:08,421.0379999999999,0.1020000000000038,70.0,1140.5,22636.5,4883.5,98.0,1124.3,257.8,4874.9,71.057184,2.7047144000000003,0.0376930439999999,-0.0517038,-2.8953174,60.31,0.045647382,-0.052996556,-2.8555958,0.66675571,1.1412784400000002,10.1629269,33.4,-2.0,-305.0,27.3,14.1,45.7,-1041.8,0.7,303.6,1017.6646,-3.8247265000000006,3262.9,0.045647382,0.0184187842,-0.052996556,0.010393224,-2.8555958,-0.0103619555999999,60310.0,19640.0,29490.0,6.5,0.5,-2.5,0,None
2023-01-03 05:36:09,422.044,0.0999999999999999,70.0,1115.5,22638.5,4876.5,98.0,1143.7,261.2,4876.1,70.88873000000001,2.728926800000001,0.0436249239999999,-0.054035364,-2.8954,60.306,0.0503195399999999,-0.0553416759999999,-2.8544508,0.6752651399999999,1.1432225,10.5762463,31.9,-12.9,-309.0,41.0,-18.7,38.7,-1066.3,16.9,303.6,1017.6605,-3.8286717,3263.8,0.0503195399999999,-0.0137872005999999,-0.0553416759999999,-0.0067581698,-2.8544508,0.0068908599999999,60305.0,19641.0,29485.0,10.0,3.5,-4.5,0,None
2023-01-03 05:36:10,423.048,0.1019999999999981,70.0,1136.0,22608.0,4874.0,98.0,1134.4,264.2,4877.3,70.72213,2.7562738,0.038825082,-0.055388112,-2.8814424,60.292,0.046257724,-0.056266734,-2.8391436,0.73140606,1.2854092,9.1225123,36.8,21.5,-305.5,35.7,3.5,47.2,-1069.9,-4.8,306.3,1017.6911,-3.7980625,3264.5,0.046257724,0.01786962146,-0.056266734,0.014052487,-2.8391436,0.01054669,60295.0,19739.0,29475.0,2.5,12.0,-2.5,0,None
2023-01-03 05:36:11,424.0295555555556,0.1044444444444441,70.0,1087.5,22630.5,4888.0,98.0,1087.2222222222222,267.22222222222223,4881.0,70.57867111111112,2.783634111111111,0.044175884,-0.031895216,-2.9002802,60.25599999999999,0.050805436,-0.03261578,-2.857322,0.7613453333333333,1.2301683333333333,7.991665666666667,29.88888888888889,13.11111111111111,-305.6666666666667,38.888888888888886,-12.666666666666666,47.55555555555556,-1093.2222222222222,-23.77777777777778,308.0,1017.7103333333332,-3.778940888888889,3265.0,0.050805436,0.0048654672,-0.03261578,0.010592922,-2.857322,-0.025554852,60255.0,19627.5,29435.0,4.0,13.0,5.0,0,None
2023-01-03 05:36:12,425.006,0.1019999999999981,70.0,1061.5,22642.5,4890.0,98.0,1055.3,270.0,4886.3,70.37006399999999,2.8118312000000003,0.041412362,-0.02434579,-2.9133496,60.260000000000005,0.047134674,-0.02511145,-2.8706103999999995,0.8938254600000001,1.3008892,7.7686397,38.4,9.7,-305.5,9.1,3.2,50.1,-1048.25,-6.5,313.3,1017.7011,-3.7880194,3265.9,0.047134674,0.0121234668,-0.02511145,0.0021325172,-2.8706103999999995,-0.0037402948,60260.0,19551.5,29440.0,11.5,8.5,2.0,0,None
2023-01-03 05:36:13,426.0299999999999,0.1020000000000038,70.0,1097.5,22638.0,4889.0,98.0,1084.1,273.1,4885.7,70.099374,2.8344562,0.030710214,-0.0319659179999999,-2.9163472,60.24,0.035603112,-0.032286572,-2.874672,0.7579801899999999,1.2552712,8.746057400000002,24.9,-21.0,-305.3,17.0,-25.1,51.8,-1095.8,1.1,314.9,1017.6939,-3.7953593,3266.4,0.035603112,-0.0197007596,-0.032286572,-0.0169633516,-2.874672,0.004262402,60235.0,19534.0,29415.0,19.0,0.0,2.0,0,None
2023-01-03 05:36:14,427.048,0.1019999999999981,70.0,1030.0,22658.5,4890.5,98.0,1039.7,276.3,4876.8,69.813,2.852927,0.018377326,-0.044584868,-2.9070596,60.266000000000005,0.023300786,-0.04462469,-2.8648102,0.8279905299999999,1.2941577000000002,8.471985199999999,4.8,-2.1,-299.9,24.4,-29.8,45.7,-1033.9,2.6,317.6,1017.6915,-3.7978438,3267.0,0.023300786,-0.04772679,-0.04462469,-0.0045938279999999,-2.8648102,0.0005665663999999,60270.0,19587.0,29450.0,11.0,0.5,1.0,0,None
2023-01-03 05:36:15,428.068,0.1019999999999981,70.0,1057.5,22650.0,4892.0,98.0,1053.8,279.2,4878.1,69.59933200000002,2.8701856,0.036428284,-0.0285827599999999,-2.9100934,60.26800000000001,0.041451428,-0.02946056,-2.86823,0.9529438600000002,1.2725430999999998,8.243432199999999,24.5,6.9,-304.6,30.4,17.8,50.0,-1069.3,-4.0,315.5,1017.6956,-3.7935155,3268.0,0.041451428,0.031968966,-0.02946056,0.0184217042,-2.86823,-0.0055377112,60265.0,19562.5,29445.0,0.0,1.5,0.5,0,None
2023-01-03 05:36:16,429.0362222222223,0.1022222222222239,70.0,1061.0,22634.5,4885.5,98.0,1087.6666666666667,282.0,4881.666666666667,69.42688666666668,2.8852523333333333,0.040753394,-0.032712348,-2.907063,60.262,0.045544884,-0.033806444,-2.8653736000000003,0.8133865222222222,1.2414219999999998,7.865771555555556,24.0,-6.444444444444445,-303.6666666666667,30.22222222222222,8.444444444444445,50.66666666666666,-1029.0,10.0,312.77777777777777,1017.6816666666668,-3.807612666666666,3268.4444444444443,0.045544884,-0.0048094276,-0.033806444,-0.00366939978,-2.8653736000000003,0.0063101853999999,60265.0,19585.5,29445.0,6.5,-4.5,0.5,0,None
2023-01-03 05:36:17,430.006,0.1019999999999981,70.0,1131.5,22650.0,4882.5,98.0,1112.6,284.9,4885.5,69.20324400000001,2.900445,0.043272164,-0.0403321579999999,-2.8942914,60.274,0.04826721,-0.0409709999999999,-2.8521386,0.81190457,1.1942154000000005,8.3391057,27.85,2.25,-306.3,32.4,-7.4,52.45,-1060.65,8.9,310.65,1017.6795,-3.80969145,3269.1,0.04826721,-0.0110347106,-0.0409709999999999,0.0016442,-2.8521386,0.0030410266,60275.0,19659.0,29455.0,6.0,-5.0,-2.5,0,None
2023-01-03 05:36:18,431.0299999999999,0.1020000000000038,70.0,1130.0,22634.0,4881.0,98.0,1098.7,288.1,4879.5,68.978366,2.9157488,0.034477026,-0.038370796,-2.9026606,60.286,0.0390919579999999,-0.039540672,-2.8604816,0.7814369700000001,1.1930365,9.1749617,30.0,-6.5,-304.4,36.6,-3.9,47.2,-1053.8,-9.6,303.1,1017.6841,-3.8049921,3269.9,0.0390919579999999,-0.005853768,-0.039540672,-0.0060153088,-2.8604816,-0.01495786924,60285.0,19607.0,29465.0,6.0,-6.5,-1.5,0,None
2023-01-03 05:36:19,432.048,0.1019999999999981,69.5,1072.0,22625.0,4884.0,98.0,1068.9,291.3,4877.9,68.760142,2.9309552,0.02859355,-0.044978456,-2.9128988,60.302,0.034288282,-0.046366334,-2.8717816,0.72666289,1.3297857,10.4017423,23.3,-7.9,-303.7,21.3,-7.8,55.8,-1057.9,-2.8,309.9,1017.672,-3.8172656,3270.4,0.034288282,-0.01712775,-0.046366334,-0.0103489884,-2.8717816,0.0003758866599999,60305.0,19544.0,29485.0,7.0,-10.0,-2.5,0,None
2023-01-03 05:36:20,433.068,0.1019999999999981,69.5,1041.5,22641.0,4884.5,98.0,1014.7,294.2,4877.3,68.58043,2.9462772,0.022670326,-0.049944332,-2.9154798,60.314,0.028032032,-0.050813344,-2.8748764,0.8572929599999999,1.4030013,10.5188358,43.5,22.9,-293.3,19.9,-7.9,46.9,-1062.8,-4.9,324.3,1017.6811999999998,-3.8081718,3271.0,0.028032032,-0.003722028,-0.050813344,0.023610784,-2.8748764,-0.0020139634,60315.0,19531.5,29495.0,1.5,-3.0,-3.5,0,None
2023-01-03 05:36:21,434.088,0.1019999999999981,70.0,1066.5,22639.0,4889.0,98.0,1035.9,297.0,4877.3,68.47102,2.9623098,0.034078882,-0.044292416,-2.9168594000000003,60.29600000000001,0.03904422,-0.044944262,-2.8769552000000003,0.8942860300000002,1.5010404000000002,10.618672,17.0,5.3,-304.5,67.1,-12.7,47.8,-1033.4,1.3,306.6,1017.6963,-3.7928827,3271.6,0.03904422,-0.0146263119999999,-0.044944262,-0.0010814999999999,-2.8769552000000003,0.01130244796,60295.0,19514.0,29475.0,2.0,3.0,-3.0,0,None
2023-01-03 05:36:22,435.05622222222223,0.1022222222222239,70.0,1095.5,22616.5,4891.0,98.0,1032.6666666666667,299.77777777777777,4888.777777777777,68.39449444444443,2.977165111111111,0.024570136,-0.033138508,-2.9183958,60.278,0.02930724,-0.03368468,-2.8783098000000003,0.8146672444444445,1.5567042222222225,12.534521444444444,24.33333333333333,7.388888888888889,-299.72222222222223,-23.27777777777778,1.1111111111111112,41.66666666666666,-1070.111111111111,-10.5,320.22222222222223,1017.7038888888889,-3.785299444444445,3272.611111111112,0.029389314,0.00156396334,-0.033709208,0.0259090744,-2.8782344,-0.0220370118,60280.0,19512.0,29460.0,8.0,7.0,-2.0,0,None
2023-01-03 05:36:23,436.0299999999999,0.1020000000000038,69.0,1142.0,22614.5,4890.0,98.0,1113.6,302.8,4887.2,68.313886,2.9912622,0.0099277758,-0.02834024,-2.9238504,60.242,0.0143442531999999,-0.029611836,-2.8840342000000003,0.61679259,1.3568451,14.321837,9.2,-10.6,-296.6,26.0,-17.0,49.3,-1109.5,-6.6,5853.022222222225,1017.7057,-3.7834687,3273.0,0.0143442531999999,-0.0388428564,-0.029611836,-0.0096067004,-2.8840342000000003,-0.0077938997999999,60240.0,19478.0,29420.0,15.0,1.5,3.0,1,27_zmag_avg_drift_79.04000000000003
2023-01-03 05:36:24,437.048,0.1019999999999981,69.0,1094.5,22624.0,4891.5,98.0,1101.1,306.1,4879.3,68.269528,3.0003882,0.0066778418,-0.03756251,-2.92311,60.238,0.011610193,-0.0384881939999999,-2.8847458,0.6358846600000001,1.3479098,13.358745,9.4,-11.7,-292.0,29.4,11.4,54.6,-1016.0,11.2,5932.0622222222255,1017.6768,-3.8124609,3273.8,0.011610193,0.0131931647999999,-0.0384881939999999,-0.0104713152,-2.8847458,0.017077992,60235.0,19475.5,29415.0,6.0,-3.0,1.0,1,27_zmag_avg_drift_79.04000000000003
2023-01-03 05:36:25,438.068,0.1019999999999981,69.0,1049.0,22607.0,4889.0,98.0,1082.2,309.1,4876.8,68.301474,3.0063178,0.0136318676,-0.048645534,-2.9127402,60.288,0.018410558,-0.04964022,-2.8740456,0.68922688,1.272988,10.907163,19.2,14.4,-297.9,22.6,3.1,41.0,-1085.1,2.9,6011.1022222222255,1017.6506,-3.8385859,3274.1,0.018410558,0.0200798874,-0.04964022,0.009526213,-2.8740456,0.0013560947999999,60290.0,19535.0,29470.0,-6.0,-1.5,0.5,1,27_zmag_avg_drift_79.04000000000003
2023-01-03 05:36:26,439.088,0.1019999999999981,69.0,1108.5,22597.0,4891.5,98.0,1117.9,312.2,4882.6,68.36705199999999,3.0112404000000006,0.0301568699999999,-0.035662564,-2.9090894,60.324,0.035219398,-0.036953806,-2.870516,0.7058282200000001,1.2707434000000002,8.7828044,14.9,3.9,-302.2,22.4,20.7,48.5,-1089.6,8.3,6090.142222222225,1017.6666,-3.8226405000000008,3275.1,0.035219398,0.0204239399999999,-0.036953806,-0.00472227812,-2.870516,0.0050948638,60325.0,19550.0,29505.0,-15.0,0.5,-6.0,1,27_zmag_avg_drift_79.04000000000003
2023-01-03 05:36:27,440.05622222222223,0.1022222222222239,69.0,1157.5,22607.0,4889.0,98.0,1131.111111111111,315.1111111111111,4884.333333333333,68.40390555555555,3.017068111111111,0.0422152639999999,-0.02656589,-2.904342,60.306,0.046322448,-0.027506506,-2.8660002,0.6586208666666667,1.0812625111111112,8.699438444444446,24.22222222222222,1.6111111111111112,-308.1666666666667,20.61111111111111,-27.33333333333333,52.388888888888886,-1051.4444444444443,-3.055555555555556,6169.182222222225,1017.6806666666664,-3.808411277777777,3275.4444444444443,0.046322448,-0.0220499679999999,-0.027506506,0.007393536,-2.8660002,0.0013070769999999,60305.0,19578.5,29485.0,-3.5,-1.0,-2.5,1,27_zmag_avg_drift_79.04000000000003
2023-01-03 05:36:28,441.0379999999999,0.1020000000000038,69.0,1131.5,22635.0,4893.0,98.0,1097.8,318.2,4883.5,68.389218,3.024159,0.042937172,-0.028537082,-2.900723,60.29200000000001,0.047340674,-0.02935883,-2.863283,0.77877708,1.1821684,7.858764000000001,24.1,-4.9,-301.7,36.0,24.4,58.4,-1077.0,12.4,6248.222222222225,1017.6768,-3.8124139,3276.2,0.047340674,0.0274847599999999,-0.02935883,-0.011518493068,-2.863283,0.0106193172,60290.0,19596.5,29470.0,-2.0,-10.5,-1.0,1,27_zmag_avg_drift_79.04000000000003
2023-01-03 05:36:29,442.044,0.0999999999999999,69.0,1066.0,22635.5,4892.5,98.0,1057.1,321.4,4882.6,68.312348,3.0308598,0.050219906,-0.041448712,-2.8964534,60.302,0.053826052,-0.0419547679999999,-2.8600882,0.8413233099999999,1.2470802,7.512639699999999,40.6,8.3,-305.8,4.3,-6.2,54.2,-1053.2,-8.1,6327.262222222225,1017.6921,-3.7970547,3277.0,0.053826052,0.00670609342,-0.0419547679999999,0.004072284,-2.8600882,0.0019353302,60305.0,19613.0,29485.0,4.0,-11.0,-1.5,1,27_zmag_avg_drift_79.04000000000003
2023-01-03 05:36:30,443.044,0.0999999999999999,69.0,953.5,22646.5,4891.5,97.6,984.1,324.2,4880.4,68.195094,3.0395192,0.03942062,-0.027820114,-2.9077994,60.294,0.0435999559999999,-0.028048804,-2.8716218,1.08414347,1.298073,8.5930415,11.8,-1.8,-306.0,-22.8,9.7,56.1,-1003.8,-10.1,6406.302222222225,1017.7219,-3.7673281,3277.6,0.0435999559999999,-0.0117659576,-0.028048804,0.020931538,-2.8716218,-0.0148428689999999,60295.0,19549.0,29475.0,9.0,-5.0,0.5,1,27_zmag_avg_drift_79.04000000000003
2023-01-03 05:36:31,444.044,0.0999999999999999,69.0,976.5,22618.5,4891.5,97.0,990.2,327.0,4883.1,68.03955,3.0490826,0.037977346,-0.0293720899999999,-2.909416,60.246,0.0421528279999999,-0.029987784,-2.8734088,1.0438761399999998,1.3063814000000002,8.892363199999998,-0.3,-12.5,-304.7,-12.5,3.4,48.9,-983.6,18.4,6485.342222222225,1017.7079,-3.7812733,3277.9,0.0421528279999999,-0.02337215384,-0.029987784,0.01065358892,-2.8734088,0.0134060239999999,60245.0,19537.0,29425.0,13.5,-2.0,1.0,1,27_zmag_avg_drift_79.04000000000003
2023-01-03 05:36:32,445.044,0.0999999999999999,69.0,1078.0,22628.5,4892.5,97.0,1058.2,329.8,4882.9,67.84769000000001,3.0582942,0.039862932,-0.020137808,-2.9023006,60.236,0.0440634439999999,-0.02162389,-2.8675232,0.93594019,1.2354333,8.2818025,23.3,6.5,-306.9,23.6,-2.8,55.9,-1070.7,3.6,6564.382222222225,1017.6808,-3.8084842,3278.8,0.0440634439999999,-0.0125462046,-0.02162389,0.0112350227999999,-2.8675232,0.003493926,60235.0,19571.5,29415.0,14.5,-1.5,1.5,1,27_zmag_avg_drift_79.04000000000003
2023-01-03 05:36:33,446.044,0.0999999999999999,69.0,1069.0,22622.0,4890.0,97.0,1080.7,332.7,4878.9,67.62147199999998,3.066446200000001,0.038396082,-0.025973026,-2.8926546,60.278,0.042763252,-0.0273142139999999,-2.8599348,0.8067107699999999,1.2127361,7.321683,35.9,-10.1,-299.3,16.6,-5.7,59.3,-1072.0,12.0,6643.422222222225,1017.6869,-3.8024609,3279.4,0.042763252,0.0019136573999999,-0.0273142139999999,-0.004159303,-2.8599348,0.00569765188,60280.0,19616.0,29460.0,15.0,-8.0,-0.5,1,27_zmag_avg_drift_79.04000000000003
2023-01-03 05:36:34,447.048,0.1019999999999981,69.0,1111.5,22620.5,4894.5,97.0,1097.2,335.8,4881.3,67.3738,3.0736848,0.029965798,-0.036574772,-2.8849898,60.284000000000006,0.033877198,-0.037734472,-2.853152000000001,0.7647151299999999,1.2511951,8.111957999999998,43.0,6.5,-300.3,24.6,-6.8,60.5,-1069.8,0.1,6722.462222222225,1017.6793,-3.809859400000001,3279.9,0.033877198,-0.0102200941999999,-0.037734472,-0.011252497,-2.853152000000001,5.500174000000017e-05,60280.0,19654.0,29460.0,10.5,-8.5,-2.5,1,27_zmag_avg_drift_79.04000000000003
2023-01-03 05:36:35,448.064,0.0999999999999999,69.0,1057.5,22622.5,4892.5,97.0,1080.1,338.8,4877.9,67.157812,3.0809504,0.039286164,-0.034527384,-2.8891452,60.292,0.043330888,-0.035679174,-2.8580396,0.8495861699999999,1.26144,8.2733983,34.4,4.7,-305.2,-2.0,12.3,53.7,-1067.1,-13.3,6801.502222222225,1017.6797,-3.8096327,3280.5,0.043330888,0.0114662739999999,-0.035679174,-0.0003098288,-2.8580396,-0.0092097524,60295.0,19626.5,29475.0,0.0,-5.5,-1.0,1,27_zmag_avg_drift_79.04000000000003
2023-01-03 05:36:36,449.0295555555556,0.1044444444444441,69.0,1081.5,22611.0,4886.0,97.0,1070.4444444444443,341.6666666666667,4881.444444444444,66.98726,3.088215666666667,0.03293347,-0.0363640019999999,-2.8940304,60.29600000000001,0.037365666,-0.03735062,-2.8635342,0.8953119222222222,1.231988,7.779011555555556,16.444444444444443,-12.0,-305.6666666666667,34.55555555555556,-14.666666666666666,58.333333333333336,-1058.7777777777778,7.333333333333333,6880.542222222225,1017.6962222222222,-3.793072777777777,3281.111111111112,0.037365666,0.0097627662,-0.03735062,-0.0012491069,-2.8635342,0.0028070168,60295.0,19593.0,29475.0,0.0,-2.5,-1.0,1,27_zmag_avg_drift_79.04000000000003
2023-01-03 05:36:37,450.018,0.1019999999999981,69.0,1075.0,22603.0,4891.0,97.0,1077.9,344.5,4888.0,66.810216,3.0966658,0.042591424,-0.029926754,-2.8862284,60.27,0.0471177579999999,-0.030721978,-2.856626,0.8620115799999999,1.2946818,7.988109500000002,46.55,20.65,-302.1,0.45,14.1,62.4,-1035.85,1.8,316.05,1017.6909,-3.7983865,3281.75,0.0471177579999999,0.0283268179999999,-0.030721978,0.0120865332,-2.856626,0.0030791746,60270.0,19635.5,29450.0,-5.5,1.5,1.0,0,None
2023-01-03 05:36:38,451.0379999999999,0.1020000000000038,69.0,1072.0,22595.0,4889.0,97.0,1072.0,347.7,4884.4,66.63701999999999,3.105013799999999,0.040659396,-0.02201923,-2.8894498000000004,60.272000000000006,0.045316104,-0.022418096,-2.8592978,0.83591379,1.2339128,8.5417394,20.0,5.0,-306.1,6.2,-6.3,54.4,-1059.7,-9.7,313.9,1017.6828000000002,-3.8064531,3282.0,0.045534216,-0.0131626375,-0.022430994,0.0075620209999999,-2.8592317999999994,-0.01097593788,60270.0,19618.5,29450.0,0.0,2.5,0.0,0,None
2023-01-03 05:36:39,452.058,0.1019999999999981,69.0,1114.0,22576.0,4878.0,97.0,1095.7,350.8,4877.1,66.441214,3.1129722,0.039482008,-0.019073284,-2.8878512,60.28,0.043564278,-0.020337036,-2.8593552,0.8437346800000001,1.3017119,7.825277099999999,32.2,-1.8,-301.1,24.6,-1.4,59.2,-1076.4,2.8,311.9,1017.6915,-3.7975312,3282.7,0.043564278,0.0072829432,-0.020337036,-0.0052883254,-2.8593552,0.0049773373999999,60275.0,19615.0,29455.0,0.5,-1.0,-0.5,0,None
2023-01-03 05:36:40,453.078,0.1019999999999981,69.0,1132.0,22606.5,4888.0,97.0,1083.0,353.8,4880.0,66.231266,3.1196374,0.032774846,-0.026335342,-2.8837282,60.284000000000006,0.03671597,-0.02740801,-2.8568558,0.76895667,1.1736334,8.360856199999999,25.3,-10.8,-301.4,32.7,-7.6,60.8,-1063.0,14.8,307.8,1017.6959,-3.7932108,3283.0,0.03757778,-0.0265383224999999,-0.02692129,-0.0203914875,-2.85740975,0.01743874,60285.0,19630.5,29465.0,1.0,-4.0,-1.0,0,None
2023-01-03 05:36:41,454.0473333333333,0.1022222222222239,69.0,1100.5,22586.0,4890.0,97.0,1104.2222222222222,356.6666666666667,4889.777777777777,66.01589666666668,3.125328,0.03548763,-0.0199412625,-2.8801050000000004,60.2775,0.039888075,-0.0210690399999999,-2.8545665,0.7326590888888889,1.3234633333333332,10.686588777777777,26.22222222222222,12.11111111111111,-298.77777777777777,-1.6666666666666667,10.22222222222222,62.77777777777778,-1062.2222222222222,-9.0,311.77777777777777,1017.6943333333334,-3.794939222222222,3283.555555555556,0.039888075,0.003973745,-0.0210690399999999,0.00913284575,-2.8545665,-0.00937104175,60275.0,19646.5,29455.0,0.0,-5.0,-1.0,0,None
2023-01-03 05:36:42,455.018,0.1019999999999981,69.0,1169.5,22572.0,4891.5,97.0,1160.5,359.9,4888.9,65.812668,3.1299564,0.0416026316666666,-0.0294189483333333,-2.875920333333333,60.255,0.0452173966666666,-0.0302552283333333,-2.851857166666667,0.61509364,1.3200944,9.909806,29.4,3.75,-302.25,-7.0,19.5,63.2,-1043.6,12.4,313.5,1017.69405,-3.79508595,3284.0,0.0452173966666666,0.0252995466666666,-0.0302552283333333,-0.0045530533333333,-2.851857166666667,0.0121809463333333,60255.0,19668.0,29435.0,1.0,-6.5,0.0,0,None
2023-01-03 05:36:43,455.9874444444444,0.1022222222222239,69.0,1216.0,22552.5,4893.0,97.0,1211.4444444444443,363.22222222222223,4886.333333333333,65.61167777777779,3.134582555555556,0.0482667825,-0.01966124,-2.87492925,60.2625,0.05190445,-0.02014141,-2.85187375,0.6301974777777777,1.2114026444444443,7.037913666666666,34.22222222222222,11.0,-306.1111111111111,27.444444444444443,-7.777777777777778,64.55555555555556,-1084.6666666666667,-9.555555555555555,304.0,1017.670888888889,-3.818463444444444,3284.111111111112,0.05190445,-0.0070288502499999,-0.02014141,0.005084307,-2.85187375,-0.0062975805,60265.0,19647.5,29445.0,3.0,-4.5,0.5,0,None
2023-01-03 05:36:44,457.058,0.1120000000000004,69.0,1172.0,22547.5,4892.5,97.0,1166.2,366.7,4881.0,65.38638399999999,3.1399576500000004,0.02826534,-0.021055505,-2.884840333333333,60.295,0.032588585,-0.0217814033333333,-2.861559833333333,0.68108333,1.0452082299999998,6.32425755,34.0,-9.4,-302.1,19.0,-15.35,53.3,-1082.05,15.75,305.0,1017.6860500000004,-3.80317955,3284.8,0.032588585,-0.0211714103333333,-0.0217814033333333,-0.0168374921666666,-2.861559833333333,0.0124316301666666,60300.0,19597.0,29480.0,2.5,-8.0,-1.0,0,None
2023-01-03 05:36:45,458.078,0.1019999999999981,69.0,1120.0,22577.0,4892.5,97.0,1145.6,369.8,4881.7,65.161892,3.1441318,0.032374592,-0.0210842939999999,-2.8747642,60.3,0.03674852,-0.022717998,-2.8530692,0.65595051,1.2158622,7.768552199999999,29.9,3.0,-298.0,3.2,-3.7,57.6,-1086.4,13.4,311.8,1017.7059,-3.7832107,3285.2,0.03674852,-0.0107469442,-0.022717998,0.0008285392,-2.8530692,0.0137870174,60300.0,19656.5,29480.0,-8.5,-9.0,-2.5,0,None
2023-01-03 05:36:46,459.04733333333326,0.1022222222222239,68.5,1096.5,22595.5,4895.0,97.0,1111.5555555555557,372.8888888888889,4888.0,64.93871888888889,3.147518,0.041814625,-0.0168757225,-2.87416275,60.2775,0.046354175,-0.0180394649999999,-2.8536865,0.7332462111111111,1.4371513333333334,11.162862444444444,38.55555555555556,0.2222222222222222,-302.6666666666667,-42.0,13.666666666666666,62.333333333333336,-1126.888888888889,-17.333333333333332,310.55555555555554,1017.7117777777776,-3.777525888888889,3285.8888888888887,0.046354175,0.025127035,-0.0180394649999999,-0.010507593,-2.8536865,-0.016615916525,60280.0,19652.5,29460.0,-8.5,-12.0,-1.0,0,None
2023-01-03 05:36:47,460.018,0.1019999999999981,68.0,1134.5,22586.0,4889.0,97.0,1073.9,375.7,4888.8,64.72194399999998,3.1506212,0.05121358,-0.02242824,-2.876682,60.26666666666666,0.054922795,-0.0226586016666666,-2.857326666666667,0.7548910900000001,1.2667151,10.481702,22.0,3.9,-304.65,10.2,-17.5,66.15,-1043.75,-23.0,309.7,1017.68785,-3.8012614500000006,3286.0,0.054922795,-0.0226573306666666,-0.0226586016666666,0.0032883128333333,-2.857326666666667,-0.0248606843333333,60270.0,19628.0,29450.0,0.0,-6.5,1.5,0,None
2023-01-03 05:36:48,461.04,0.1020000000000038,68.0,1158.0,22564.5,4893.0,97.0,1068.7,378.8,4881.5,64.493962,3.1541794000000003,0.050739384,-0.0267749299999999,-2.8751572,60.29600000000001,0.054208452,-0.0266186359999999,-2.85642,0.7675194400000002,1.3678859000000003,10.6963823,48.5,5.1,-301.5,-8.4,18.7,58.2,-1030.0,16.4,312.3,1017.673,-3.8161562,3286.8,0.054208452,0.0254971496,-0.0266186359999999,0.018104403,-2.85642,0.0173396082,60295.0,19634.0,29475.0,4.0,-4.0,1.0,0,None
2023-01-03 05:36:49,462.058,0.1019999999999981,68.0,1077.0,22602.0,4883.0,97.0,1068.5,382.0,4871.8,64.252326,3.1587738,0.0469006879999999,-0.015946642,-2.8788884,60.298,0.0498314959999999,-0.0160854699999999,-2.8614340000000005,0.78487799,1.3223846,10.940476800000004,38.0,0.7,-305.3,-4.3,-32.4,66.3,-1069.9,-0.5,308.7,1017.6825,-3.8065626,3287.1,0.0498314959999999,-0.043787982,-0.0160854699999999,-0.0014139899999999,-2.8614340000000005,0.00097664528,60300.0,19600.5,29480.0,7.5,-1.0,0.0,0,None
2023-01-03 05:36:50,463.078,0.1019999999999981,68.0,1092.5,22606.0,4888.0,97.0,1083.9,385.0,4879.2,63.99240400000001,3.164022,0.046170322,-0.0222667979999999,-2.8680346,60.306,0.048892434,-0.022924792,-2.851477,0.7588583700000001,1.4414018999999998,12.471032,34.8,-6.6,-301.4,26.5,-12.0,65.7,-1110.0,15.3,314.2,1017.6747,-3.8143983,3287.7,0.048892434,-0.007876682,-0.022924792,-0.006347163,-2.851477,0.0135995353999999,60305.0,19659.5,29485.0,4.5,0.5,-2.0,0,None
2023-01-03 05:36:51,464.04733333333326,0.1022222222222239,68.0,1161.5,22566.0,4886.0,97.0,1108.6666666666667,387.8888888888889,4883.222222222223,63.72020444444445,3.1693942222222224,0.0471302074999999,-0.00823407265,-2.870829,60.3,0.0494616625,-0.008414355875,-2.85508125,0.7428177222222223,1.4462496666666669,11.476982666666666,42.11111111111112,22.88888888888889,-307.1111111111111,2.7777777777777777,6.555555555555555,67.22222222222223,-1087.111111111111,-23.0,305.1111111111111,1017.6904444444444,-3.7986458888888897,3288.111111111112,0.0494616625,-0.01037281225,-0.008414355875,0.0096837915499999,-2.85508125,-0.0220387324999999,60290.0,19632.0,29470.0,5.0,4.0,-4.0,0,None
2023-01-03 05:36:52,465.018,0.1019999999999981,68.0,1152.0,22582.0,4891.5,97.0,1142.6,391.0,4887.5,63.44077799999999,3.1741706,0.041293145,-0.00787044,-2.8849895,60.26333333333333,0.0437804866666666,-0.0079457835,-2.8704978333333333,0.60286449,1.1524869,7.8991533,32.7,-11.65,-304.15,8.65,-15.15,62.7,-1038.0,18.2,306.3,1017.69845,-3.7907773,3288.65,0.0437804866666666,-0.0206874566666666,-0.0079457835,-0.0035575898333333,-2.8704978333333333,0.0130702833333333,60260.0,19551.5,29440.0,10.0,-3.0,0.5,0,None
2023-01-03 05:36:53,466.03809999999993,0.1020000000000038,68.0,1120.0,22572.0,4889.0,97.0,1136.7,394.4,4890.2,63.136428,3.1775624,0.0253591279999999,-0.0120756229999999,-2.8758563999999995,60.248000000000005,0.028434976,-0.0119616548,-2.8639592,0.6524935400000001,1.2525609,9.2402688,27.0,-6.8,-296.5,3.2,-9.8,66.1,-1066.2,-16.6,314.8,1017.6864,-3.8028359,3289.0,0.028434976,-0.01975973,-0.0119616548,-0.0098385912,-2.8639592,-0.0193477842,60245.0,19590.5,29425.0,7.5,-9.5,3.0,0,None
2023-01-03 05:36:54,467.058,0.1019999999999981,68.0,1112.0,22577.0,4885.5,97.0,1130.9,397.5,4878.9,62.85796799999999,3.1784936,0.027473048,-0.0177085999999999,-2.875719,60.266,0.030347424,-0.017700642,-2.8651758000000003,0.63087247,1.2363296,8.8678456,33.3,6.6,-295.1,1.6,3.4,59.6,-1072.5,18.8,313.5,1017.6977,-3.7913751,3289.7,0.030347424,-0.0065466428,-0.017700642,0.0086649216,-2.8651758000000003,0.020227958,60265.0,19580.5,29445.0,-3.0,-10.0,1.0,0,None
2023-01-03 05:36:55,468.082,0.1039999999999963,68.0,1058.5,22563.0,4896.0,97.0,1104.0,400.6,4887.3,62.622514,3.1775412000000003,0.025298242,-0.0166003838,-2.8728438,60.286,0.028880382,-0.0163363729999999,-2.863955,0.7072385,1.2723597,9.6631152,31.8,2.8,-298.4,-6.9,-9.9,61.8,-1065.8,-17.8,306.8,1017.6827,-3.8065312,3290.0,0.028880382,-0.0174413559999999,-0.0163363729999999,0.0040075539999999,-2.863955,-0.0182286259999999,60285.0,19599.0,29465.0,-12.0,-8.5,-1.5,0,None
2023-01-03 05:36:56,469.104,0.0999999999999999,68.0,1154.0,22518.5,4892.5,97.0,1036.1,403.7,4879.8,62.405568,3.1761328000000004,0.0538042139999999,-0.0109985424,-2.8740274,60.33,0.057007564,-0.0110975038,-2.8671882,0.8280252100000001,1.440407,11.4590163,68.5,-14.2,-305.4,-12.2,10.3,70.6,-1054.4,5.9,315.8,1017.6678000000002,-3.821319999999999,3290.5,0.057007564,0.029143686,-0.0110975038,-0.03717479,-2.8671882,0.0056673992,60335.0,19574.0,29515.0,-15.5,-17.0,-5.5,0,None
2023-01-03 05:36:57,470.104,0.0999999999999999,68.0,1099.0,22568.5,4891.5,97.0,1104.1,406.6,4884.0,62.18188,3.1751280000000004,0.071495146,-0.032472864,-2.8626168,60.318,0.074490228,-0.030869426,-2.8565262,0.77788188,1.4617944,11.7124905,48.7,-1.4,-312.9,22.3,13.4,60.6,-1106.8,5.8,297.6,1017.6433,-3.8460545,3291.0,0.074490228,0.0114891848,-0.030869426,-0.0030869946,-2.8565262,-0.01497919744,60320.0,19634.5,29500.0,-1.5,-12.0,-4.5,0,None
2023-01-03 05:36:58,471.104,0.0999999999999999,68.0,1112.5,22578.0,4889.0,97.0,1128.7777777777778,410.0,4883.7,61.942942000000016,3.1763509999999995,0.0606940359999999,-0.0352251679999999,-2.8699248,60.316,0.064261356,-0.033610716,-2.8637582000000004,0.6941230500000001,1.2441688000000002,10.2944485,58.9,-18.5,-309.9,38.5,-25.9,56.9,-1048.8,-8.0,303.2,1017.6418888888888,-3.847421888888889,3291.333333333333,0.064261356,-0.0157542699999999,-0.033610716,-0.00495733112,-2.8637582000000004,-0.0217035742,60315.0,19590.0,29495.0,7.5,-8.0,-4.5,0,None
2023-01-03 05:36:59,472.104,0.0999999999999999,68.0,1120.0,22560.0,4882.5,97.0,1091.9,412.8,4878.5,61.69694799999999,3.1807254,-0.0410135612,-0.092997606,-2.8645368,60.354000000000006,-0.035855214,-0.091727174,-2.8580840000000003,0.8015631300000001,1.4175470999999995,12.6662899,65.2,-80.8,-285.1,0.9,-167.3,44.0,-1144.0,-5.5,326.4,1017.6664,-3.8228436,3292.0,-0.035855214,-0.17861703,-0.091727174,-0.111484178,-2.8580840000000003,-0.0234996468,60355.0,19630.0,29535.0,-27.0,7.5,0.0,0,None
2023-01-03 05:37:00,473.104,0.0999999999999999,68.0,1211.0,22524.5,4882.5,97.0,1162.8,415.8,4879.1,61.46006000000001,3.187870399999999,-0.10817926,-0.109270518,-2.9584402,60.39,-0.1005585079999999,-0.11108852,-2.9507776000000003,0.8803661,1.4012255,10.5023212,6.6,18.6,-253.8,31.9,48.9,17.9,-1099.1,-242.1,355.0,1017.6329999999998,-3.856218600000001,3292.3,-0.1005585079999999,0.049216558,-0.11108852,0.018195212,-2.9507776000000003,-0.2861249879999999,60385.0,19152.0,29565.0,-185.5,56.5,2.5,0,None
2023-01-03 05:37:01,474.104,0.0999999999999999,68.0,1257.5,22522.5,4887.0,97.0,1222.7,419.4,4883.1,61.22958,3.198328,-0.087874314,-0.0520144119999999,2.9452192,60.55800000000001,-0.083354954,-0.057265888,2.9521810000000004,0.64040865,1.12945791,8.6727927,-30.9,-59.6,-269.9,17.9,49.5,-55.1,-1066.7,-355.6,341.6,1017.5939000000002,-3.8952264,3292.9,-0.0926981774999999,0.0363459049999999,-0.0468869524999999,0.0101103625,2.9827585,-0.3764135,60555.0,16921.5,29735.0,-300.0,73.5,13.5,0,None
2023-01-03 05:37:02,475.104,0.0999999999999999,68.0,1035.5,22572.0,4894.0,97.0,1051.6,422.4,4887.1,61.019106,3.2104704000000006,-0.119310816,-0.1743882,2.6077348,60.81999999999999,-0.115069982,-0.1777794,2.6152144,0.8180360099999999,1.3021069999999997,11.8512857,-91.4,-57.5,-238.2,15.0,-112.1,-188.7,-1057.0,-365.0,310.3,1017.5714999999998,-3.9175939,3293.3,-0.0891535275,-0.172534315,-0.187089525,-0.0667009275,2.64633975,-0.4074395,60820.0,14988.5,30000.0,-307.5,140.0,3.0,0,None
2023-01-03 05:37:03,476.104,0.0999999999999999,68.0,925.5,22589.5,4892.5,97.0,947.0,425.1,4885.5,60.817362,3.2240314,-0.281302,-0.057952332,2.440518,60.832,-0.2716603999999999,-0.06670517,2.4544103999999995,0.7198702299999999,1.4977914,17.684262999999998,-63.2,77.9,-135.1,32.0,-51.2,-202.5,-1148.7,-60.0,362.5,1017.7183,-3.7708671,3294.0,-0.2716603999999999,0.0132745039999999,-0.06670517,0.062832136,2.4544103999999995,-0.038208786,60835.0,14051.5,30015.0,-398.5,302.0,7.5,0,None
2023-01-03 05:37:04,477.0562222222222,0.1022222222222239,68.0,1049.0,22550.5,4895.5,97.0,989.0,427.77777777777777,4888.666666666667,60.62781111111112,3.238313666666667,-0.2328723,-0.0607470075,2.41408925,60.6875,-0.227239575,-0.07321812,2.43814175,1.0147582222222222,1.4281157777777778,9.624537666666663,-123.0,-44.44444444444444,-139.05555555555554,53.333333333333336,82.72222222222223,-209.94444444444449,-1083.5555555555557,-49.833333333333336,353.0,1017.6606666666668,-3.828611166666666,3294.277777777778,-0.227239575,0.04729673775,-0.07321812,-0.0907302424999999,2.43814175,-0.0398381575,60685.0,13939.0,29865.0,-552.0,416.5,10.0,0,None
