00000_Time_epoch,00000_Time_boot_sec,00000_Span_Time_boot_sec,1_battery_remaining_avg,1_current_battery_avg,1_voltage_battery_avg,125_Vcc_avg,147_battery_remaining_avg,147_current_battery_avg,147_current_consumed_avg,165_Vcc_avg,168_direction_avg,168_speed_avg,178_pitch_avg,178_roll_avg,178_yaw_avg,182_altitude_avg,182_pitch_avg,182_roll_avg,182_yaw_avg,241_vibration_x_avg,241_vibration_y_avg,241_vibration_z_avg,27_xacc_avg,27_xgyro_avg,27_xmag_avg,27_yacc_avg,27_ygyro_avg,27_ymag_avg,27_zacc_avg,27_zgyro_avg,27_zmag_avg,29_press_abs_avg,29_press_diff_avg,29_temperature_avg,30_pitch_avg,30_pitchspeed_avg,30_roll_avg,30_rollspeed_avg,30_yaw_avg,30_yawspeed_avg,33_alt_avg,33_hdg_avg,33_relative_alt_avg,33_vx_avg,33_vy_avg,33_vz_avg,label,diagnosis
2023-01-04 08:52:37,119.363,-0.2399999999999948,100.0,84.0,25033.0,4864.0,99.0,77.0,23.0,4859.0,-132.42715,0.2980445,-0.005328282,-0.0177687233333333,-1.0177053333333337,33.17666666666667,-0.008546472,-0.01764764,-1.0196396666666665,0.01978384,0.02756194,0.121483,-13.0,0.0,130.0,4.0,-1.0,238.0,-1064.0,-1.0,336.0,1018.82,-0.2686719,2750.0,-0.008546472,-0.001815266,-0.01764764,0.0012988252,-1.0196396666666665,0.0008717682333333,33180.0,30158.0,20.0,7.0,-2.0,-1.0,0,None
2023-01-04 08:52:38,120.383,0.509999999999998,100.0,77.0,25031.5,4864.0,99.0,74.0,23.5,4865.5,-136.42525,0.22244045,-0.0048371778333333,-0.0175082183333332,-1.0184617500000002,33.204166666666666,-0.0085451406666666,-0.0175945333333333,-1.0202678333333337,0.022706495,0.02455943,0.037359555,-16.0,1.0,129.0,4.0,-1.0,237.0,-1066.0,0.0,338.5,1018.834,-0.25535155,2753.0,-0.0085451406666666,-0.0016633688333333,-0.0175945333333333,0.0014913223833333,-1.0202678333333337,-0.0006407934616666,33205.0,30154.0,45.0,7.0,-1.5,0.0,0,None
2023-01-04 08:52:39,121.403,0.509999999999998,100.0,109.5,25003.0,4867.5,99.0,146.0,24.0,4871.0,-136.73695,0.25703455,-0.00535204825,-0.0183478649999999,-1.019831,33.221666666666664,-0.0084720038333333,-0.0175406074999999,-1.0212261666666669,0.085623835,0.2857219549999999,1.22814122,-12.0,0.5,129.0,1.5,-2.0,235.5,-1070.0,1.5,337.0,1018.848,-0.24097655,2757.0,-0.0084720038333333,-0.0013222544166666,-0.0175406074999999,0.0008941177,-1.0212261666666669,-0.008647004125,33225.0,30150.0,65.0,7.0,-0.5,-1.0,0,None
2023-01-04 08:52:40,122.4435,0.5204999999999984,100.0,121.5,25004.5,4872.0,99.0,113.5,24.0,4870.5,-135.9058,0.31933935,-0.0053874650833333,-0.0180492391666666,-1.021473,33.2525,-0.0084381039166666,-0.0175290416666666,-1.02204425,0.06227022,0.1958741,0.5729008,-10.0,1.5,126.0,22.0,-0.5,238.5,-1063.0,18.5,334.5,1018.869,-0.2199609,2761.0,-0.0084381039166666,-0.0009357818833333,-0.0175290416666666,7.259752499999994e-05,-1.02204425,-0.005335235,33255.0,30144.5,95.0,7.0,-1.0,-1.0,0,None
2023-01-04 08:52:41,123.454,0.5,100.0,1790.0,24388.0,4871.0,99.0,1270.5,26.0,4867.5,-136.53815,0.3958655,0.0193080087249999,-0.0094367721666666,-1.0202573333333331,33.51833333333333,0.0153201440833333,-0.0083735232833333,-1.02142125,0.3824202,1.0003191,3.038611,-2.5,18.5,97.0,19.0,103.5,209.5,-1286.0,10.5,289.5,1019.122,0.032773425,2765.0,0.0153201440833333,-0.0042558230833333,-0.0083735232833333,0.0471119830333332,-1.02142125,-0.0057671970833332,33595.0,30155.5,435.0,-8.5,6.5,91.0,0,None
2023-01-04 08:52:42,124.454,0.5,100.0,1761.0,24372.0,4873.0,99.0,1724.5,30.5,4870.5,-140.97575,0.4746679,-0.0239146904166666,0.0002733547666666,-1.02493875,35.30500000000001,-0.0264959041666665,0.0009366450166667,-1.0285145833333336,0.30167885,0.9956985,2.2934685,-8.5,1.5,119.0,-15.0,-53.5,202.5,-1204.0,-12.0,299.5,1018.6655,-0.42347655,2770.0,-0.0264959041666665,-0.0374355276666666,0.0009366450166667,-0.0116233083333333,-1.0285145833333336,-0.0011686541666666,35570.0,30115.0,2410.0,-5.0,6.0,270.5,0,None
2023-01-04 08:52:43,125.485,0.5205000000000055,100.0,1346.5,24477.0,4868.0,99.0,1650.0,35.0,4874.5,-141.47809999999998,0.5277041499999999,-0.0204469999999999,-0.0067676016666666,-1.0221891666666667,38.454166666666666,-0.0225509583333333,-0.0054478063333333,-1.0404920833333335,0.35947765,1.2646415000000002,3.972566,2.0,50.5,130.0,-20.0,-36.5,218.0,-1084.0,3.0,283.5,1018.3095,-0.7796483999999999,2774.0,-0.0225509583333333,0.008756615,-0.0054478063333333,0.0201150104166666,-1.0404920833333335,-0.003849299,38800.0,30038.0,5640.0,7.0,-24.5,326.0,0,None
2023-01-04 08:52:44,126.495,0.5,100.0,911.5,24639.5,4873.0,99.0,967.5,38.5,4877.0,-140.11964999999998,0.5768782,0.0103707396666666,0.0070919148333333,-1.0261239166666667,41.18666666666667,0.0074878884166666,0.0087277598333332,-1.0438215,0.45025685,1.208316,2.8637935,3.0,-40.0,113.0,-20.0,2.0,233.0,-904.0,-11.0,336.0,1017.952,-1.1372265,2778.0,0.0074878884166666,0.0102250090833332,0.0087277598333332,-0.0104090616666666,-1.0438215,-0.0018911494583333,41385.0,30014.5,8225.0,23.0,-29.0,184.0,0,None
2023-01-04 08:52:45,127.4955,0.5004999999999953,100.0,941.5,24611.5,4877.0,99.0,980.0,41.0,4876.0,-139.57695,0.60531545,0.0391856816666666,-0.0103335446666666,-1.02352925,42.21083333333333,0.0350332433333333,-0.008272471,-1.0399235,0.4272141,1.1355045,2.2248605,6.0,-13.0,106.5,-19.5,-5.0,230.5,-998.5,7.5,320.0,1017.783,-1.30625,2782.0,0.0350332433333333,0.0269188285499999,-0.008272471,-0.0030107383333333,-1.0399235,0.0064648540833332,42250.0,30043.5,9090.0,17.5,-17.5,41.5,0,None
2023-01-04 08:52:46,128.526,0.5200000000000031,100.0,1080.0,24547.5,4873.0,99.0,1044.5,44.0,4861.0,-141.3622,0.6152524500000001,0.0317869716666666,-0.0091735498333333,-1.0123019166666665,42.44500000000001,0.0289948716666666,-0.0071065876666666,-1.0280646666666666,0.46998725,0.9539042,3.5010895,24.5,-4.0,109.0,-21.5,-17.0,216.5,-1048.5,28.0,331.5,1017.7425,-1.346641,2786.0,0.0289948716666666,-0.024546674,-0.0071065876666666,0.0021935268333333,-1.0280646666666666,0.0156113465833333,42460.0,30118.5,9300.0,1.5,1.0,11.5,0,None
2023-01-04 08:52:47,129.307,0.5209999999999866,100.0,1080.0,24458.0,4871.0,99.0,1067.0,47.0,4875.0,-144.6227,0.6220137,0.021321935,-0.0004475509999999,-1.0159280000000002,42.56,0.018872455,0.0008193495,-1.031197,0.2970243,1.189608,3.673599,15.0,26.0,105.0,-36.0,-19.0,216.0,-1039.0,-21.0,332.0,1017.723,-1.366172,2790.0,0.018872455,-0.01749296,0.0008193495,0.0179758699999999,-1.031197,-0.02106475,42570.0,30083.0,9410.0,-5.0,6.0,2.0,0,None
2023-01-04 08:52:48,130.087,0.5200000000000102,100.0,1122.0,24517.5,4857.0,99.0,1116.5,49.0,4867.0,-148.57635,0.6285874,0.0151231799999999,-0.0013615203333333,-1.019759,42.615,0.0134148616666666,-0.0006712231333333,-1.0339636666666665,0.4135119499999999,0.8791087500000001,4.806308,9.0,-8.5,104.5,-28.5,1.0,216.5,-1042.0,2.5,333.5,1017.7165,-1.372305,2793.0,0.0134053299999999,-0.0095658425,-0.0005253183333333,-0.00986462175,-1.0339796666666667,-0.0070371561666666,42615.0,30078.5,9455.0,0.0,11.0,-1.0,0,None
2023-01-04 08:52:49,131.1275,0.519999999999996,100.0,1144.0,24520.5,4869.0,99.0,1122.5,52.0,4862.5,-153.68695000000002,0.6397244,0.0085889488,-0.0077388654999999,-1.0268098333333333,42.6425,0.0068087575,-0.0057263778666666,-1.0399095,0.4593694,0.6263943999999999,4.037689,1.0,16.5,112.5,3.0,-43.0,225.0,-1088.0,-12.5,336.0,1017.716,-1.3733205000000002,2797.0,0.0068087575,-0.02448655525,-0.0057263778666666,0.0177532691666666,-1.0399095,-0.0107441058333333,42645.0,30042.0,9485.0,-1.5,12.5,-2.5,0,None
2023-01-04 08:52:50,132.1975,0.5404999999999944,100.0,1116.5,24513.5,4870.25,99.0,1119.5,55.5,4873.0,-158.5355,0.6540045000000001,0.0005762659583332,-0.0059430400833333,-1.0254615,42.64333333333333,-0.0009359323166666,-0.0042019675499999,-1.0377739166666666,0.23313725,1.02351405,3.060848,-7.25,-5.5,118.5,-4.25,16.75,225.75,-1051.75,5.0,329.0,1017.711,-1.37814475,2801.75,-0.0009359323166666,0.0013357973333333,-0.0042019675499999,-0.0042503864166666,-1.0377739166666666,0.0159706709999999,42645.0,30055.5,9485.0,4.0,5.5,-0.5,0,None
2023-01-04 08:52:51,133.257,0.5294999999999987,100.0,1104.0,24508.0,4875.5,99.0,1102.0,59.0,4869.0,-161.8082,0.6640278500000001,0.004660699,-0.0108767095,-1.015177,42.64833333333333,0.0029379132499999,-0.00940230875,-1.0269448333333333,0.4330079,0.8995149,2.2598215,9.5,3.5,117.5,22.5,7.5,224.0,-1071.5,13.0,327.0,1017.7025,-1.386562,2807.0,0.0029379132499999,0.0048102725833333,-0.00940230875,-0.0012714646666667,-1.0269448333333333,-0.0002315934166666,42645.0,30119.5,9485.0,5.5,-4.5,-0.5,0,None
2023-01-04 08:52:52,134.3275,0.5300000000000011,100.0,1104.5,24495.5,4878.0,99.0,1112.0,62.0,4867.5,-164.66535,0.67758865,0.0160133341666666,-0.0082300549166666,-1.018701,42.64,0.0133834855833332,-0.0066258904999999,-1.0305159166666664,0.3886144,1.1151895,5.332495,10.0,21.5,111.5,-26.5,-7.5,223.0,-1041.5,15.5,328.0,1017.7065,-1.3829685,2811.5,0.0133834855833332,-0.0005521075,-0.0066258904999999,-0.00748128,-1.0305159166666664,-0.0087453616666666,42640.0,30097.5,9480.0,4.5,-7.5,-0.5,0,None
2023-01-04 08:52:53,135.38799999999998,0.5305000000000035,100.0,1474.5,24356.5,4874.0,99.0,1293.0,65.0,4875.5,-167.79915,0.6969623,-0.1559065766666666,-0.0073216193333333,-1.0239785833333337,42.84333333333333,-0.1559145733333333,-0.0050598741666666,-1.0349514166666665,0.3556505,1.5488285,5.522653,-6.5,-4.5,158.0,-26.5,-183.5,238.0,-1136.0,28.5,305.5,1017.698,-1.3914065,2815.5,-0.1544408399999999,-0.1847779091666666,-0.0050771605,-0.0044717343333333,-1.0349387499999998,-0.005289921,42765.0,30075.5,9605.0,29.5,-52.5,41.5,0,None
2023-01-04 08:52:54,136.438,0.519999999999996,100.0,1338.5,24399.0,4873.5,99.0,1459.0,70.0,4865.5,-171.77525,0.7189762,-0.1707214833333333,-0.0251242266666666,-1.0220901666666666,44.265,-0.172403,-0.0235361369999999,-1.03232875,0.30010085,1.0745907,6.1880475,-28.0,-8.0,177.0,-4.0,16.5,208.5,-1163.0,3.0,289.5,1017.551,-1.5382425,2819.0,-0.172403,0.0263430933333333,-0.0235361369999999,-0.0245351453333333,-1.03232875,0.0041265886666667,44070.0,30080.5,10910.0,137.5,-243.0,172.0,0,None
2023-01-04 08:52:55,137.4685,0.5200000000000102,100.0,1327.5,24347.0,4862.5,99.0,1341.5,74.0,4874.0,-175.04485,0.7441713999999999,-0.18275555,-0.0376361499999999,-1.0212976666666664,46.153333333333336,-0.1880236,-0.0358332108333332,-1.0296170833333336,0.3351018999999999,1.229388,7.007472,-52.5,10.5,179.5,-38.5,-30.5,207.5,-1046.0,-20.5,303.5,1017.3205,-1.768672,2823.5,-0.1880236,-0.0322593458333332,-0.0358332108333332,0.0004403116666666,-1.0296170833333336,-0.0050493307499999,45950.0,30102.0,12790.0,205.0,-388.0,183.0,0,None
2023-01-04 08:52:56,138.5085,0.5204999999999984,100.0,1400.0,24348.5,4875.0,99.0,1432.5,77.5,4872.5,-177.2764,0.77156675,-0.1962519833333333,-0.0329069841666666,-1.0269675833333334,48.06583333333333,-0.2024945166666666,-0.0306338966666666,-1.0351351666666666,0.4362049,1.152814,8.164715999999999,-65.5,17.5,183.5,-13.0,-10.0,217.5,-1001.0,-16.0,296.5,1017.0775,-2.0117185,2827.5,-0.2024945166666666,0.0078419844166666,-0.0306338966666666,0.0014122506666666,-1.0351351666666666,-0.0175978511666666,47865.0,30069.5,14705.0,272.5,-532.5,184.0,0,None
2023-01-04 08:52:57,139.548,0.5194999999999936,100.0,1212.0,24389.5,4867.5,99.0,1313.0,82.0,4865.5,-178.26285,0.79723195,-0.1790453499999999,-0.0362327949999999,-1.027265,50.068333333333335,-0.1861105333333333,-0.0330740316666666,-1.0362090000000002,0.51694785,1.410979,9.402534,-64.5,-17.0,174.0,4.5,-1.0,211.0,-1065.5,19.0,298.5,1016.86,-2.22918,2831.5,-0.1861105333333333,-0.0059077566666666,-0.0330740316666666,0.0154189231666666,-1.0362090000000002,-0.0037167291666666,49780.0,30069.5,16620.0,331.5,-645.5,185.5,0,None
2023-01-04 08:52:58,140.559,0.5005000000000024,100.0,1320.0,24363.0,4865.0,99.0,1268.0,85.0,4867.5,-178.73340000000002,0.82009725,-0.175553675,-0.01578881,-1.0287620833333335,52.045,-0.1838358999999999,-0.0118717433333332,-1.0385604166666664,0.51997265,1.4572515,7.1216595,-101.5,2.5,184.0,-19.5,39.5,228.5,-981.0,13.0,288.0,1016.62,-2.4690235,2835.5,-0.1838358999999999,-0.0172982202483333,-0.0118717433333332,0.0431652851666666,-1.0385604166666664,0.0154050434166666,51660.0,30044.0,18500.0,367.5,-732.0,179.5,0,None
2023-01-04 08:52:59,141.328,0.5190000000000055,100.0,1441.0,24276.0,4874.0,99.0,1306.0,88.0,4880.0,-178.8056,0.8341117,-0.18161045,-0.012976011,-1.02864,53.425,-0.18964565,-0.00960099,-1.0389385,0.6359423,1.322353,8.524078,-98.0,-41.0,183.0,18.0,26.0,216.0,-1227.0,28.0,283.0,1016.421,-2.668359,2838.0,-0.18964565,0.0199421325,-0.00960099,-0.0522511099999999,-1.0389385,-0.0283823049999999,53060.0,30051.0,19900.0,402.0,-778.0,179.0,0,None
2023-01-04 08:53:00,142.079,0.5005000000000024,100.0,1266.5,24352.5,4856.0,99.0,1379.5,91.0,4874.0,-179.1746,0.84669435,-0.1673676249999999,-0.0133310479166666,-1.02547625,54.76499999999999,-0.1736912416666666,-0.0093654224166666,-1.0357325,0.660337,1.4222125,8.842582,-135.5,6.5,185.0,-8.5,-66.0,201.5,-1107.5,-11.5,264.0,1016.294,-2.7953515,2841.0,-0.1736912416666666,0.0360303533333333,-0.0093654224166666,0.0282014630833333,-1.0357325,0.0037840131666667,54395.0,30055.0,21235.0,429.5,-826.0,181.0,0,None
2023-01-04 08:53:01,143.099,0.5099999999999909,100.0,1351.0,24322.5,4874.5,99.0,1309.5,94.0,4877.0,-0.0596500000000048,0.8606631499999999,-0.1439657,-0.0068859157999999,-1.0263605833333331,56.645833333333336,-0.1518454499999999,-0.00277937625,-1.0380488333333333,0.54387725,1.3030545,7.5616965,-117.5,14.0,174.0,17.5,24.5,204.0,-1110.5,-26.5,283.5,1016.0675,-3.0216405,2845.0,-0.1518454499999999,-0.01994436125,-0.00277937625,-0.003243633,-1.0380488333333333,-0.0208266009166666,56260.0,30072.0,23100.0,454.5,-868.5,180.5,0,None
2023-01-04 08:53:02,144.1095,0.5105000000000075,100.0,1324.5,24318.0,4871.5,99.0,1282.5,98.0,4873.0,178.3229,0.8725479,-0.1351803,0.013218389,-1.0328909166666669,58.515,-0.1428406,0.0179098086666666,-1.0455688333333333,0.6358134,1.640432,8.665551,-123.0,-26.5,172.0,-19.5,47.0,221.0,-1062.0,-7.0,290.5,1015.854,-3.2352735,2849.0,-0.1428406,0.01164007425,0.0179098086666666,0.0425239808333332,-1.0455688333333333,0.0052342081666667,58130.0,30014.5,24970.0,469.5,-897.5,177.5,0,None
2023-01-04 08:53:03,145.149,0.5194999999999936,100.0,932.5,24452.5,4871.5,99.0,1031.0,101.5,4877.0,175.9869,0.88628635,0.0029026474999999,0.0224027616666666,-1.0319137500000002,60.3,-0.0073929699999999,0.0267668191666666,-1.0453133333333335,0.7817953,1.188264,7.722306,-135.0,-32.5,145.5,-32.5,235.0,239.5,-1015.0,-4.5,318.5,1015.7815,-3.3080075,2853.0,-0.0073929699999999,0.2128092999999999,0.0267668191666666,-0.0288511643333332,-1.0453133333333335,0.0003746138333333,59935.0,30012.5,26775.0,485.0,-889.5,189.5,0,None
2023-01-04 08:53:04,146.1695,0.5105000000000075,100.0,751.5,24514.5,4878.0,99.0,753.5,104.5,4859.0,171.8404,0.91713645,0.1052522433333333,0.0164238149999999,-1.0300201666666666,61.725,0.0940232983333332,0.0211393941666666,-1.04172025,0.8229217,1.7127355,11.76431,-98.5,24.5,86.0,-74.5,-9.0,231.0,-1082.5,-5.5,322.0,1015.6035,-3.4854685,2857.0,0.0940232983333332,-0.0256673316666666,0.0211393941666666,0.0236916358333333,-1.04172025,-0.0015319394333333,61530.0,30017.5,28370.0,416.5,-753.5,156.5,0,None
2023-01-04 08:53:05,147.15949999999998,0.4899999999999949,100.0,903.0,24451.5,4866.5,99.0,846.5,106.5,4857.5,168.05175,0.94792635,0.1328857333333333,0.0306779566666666,-1.0204514166666665,61.99083333333334,0.1249616249999999,0.0345570766666666,-1.02919825,0.9627783,1.6179055,14.695185,-71.0,-7.5,-6151.948888888891,-52.5,65.0,231.0,-925.5,25.0,329.5,1015.4705,-3.6184765,2860.0,0.1249616249999999,-0.0235510041666666,0.0345570766666666,-0.0004769440666666,-1.02919825,0.0089592939166666,62005.0,30091.5,28845.0,337.5,-607.5,32.0,1,27_xmag_avg_drift_-222.78388888888895
2023-01-04 08:53:06,148.15949999999998,0.5,100.0,1110.5,24385.5,4866.5,99.0,1103.5,109.0,4859.5,164.16385,0.9803522,0.090663945,0.0328609183333333,-1.003452675,62.07416666666667,0.0856187175,0.03736901,-1.01117925,0.6034796,1.331036,9.3976985,-46.0,42.0,-6374.73277777778,-28.5,-60.5,239.0,-1075.0,10.5,325.0,1015.4225,-3.6667965,2865.0,0.0856187175,-0.0315826416666667,0.03736901,0.0366082476666667,-1.01117925,0.0229410762833333,62010.0,30188.5,28850.0,261.5,-454.0,22.0,1,27_xmag_avg_drift_-222.78388888888895
2023-01-04 08:53:07,149.15949999999998,0.5,100.0,1129.5,24365.5,4874.5,99.0,1179.0,112.5,4869.0,160.77495,1.0077115,0.0694079041666665,0.0172587919166666,-1.0252376833333334,62.91916666666667,0.0652090816666666,0.0206770411666666,-1.0320289166666667,0.4314871,1.2167865,7.621544,-44.0,-56.5,-6597.516666666668,-42.0,-7.0,239.5,-1084.0,-57.5,316.0,1015.2245,-3.8646095,2868.0,0.0652090816666666,0.0232245441666666,0.0206770411666666,-0.0465433058333333,-1.0320289166666667,-0.0469873416666666,62685.0,30150.0,29525.0,216.5,-339.5,88.0,1,27_xmag_avg_drift_-222.78388888888895
2023-01-04 08:53:08,150.15949999999998,0.5,100.0,1024.0,24412.5,4866.5,99.0,1149.5,115.5,4872.0,157.79415,1.0304835,0.133644855,0.0093676873333333,-1.0352480000000002,63.91083333333333,0.1292063916666666,0.0127032376666666,-1.0430801666666667,0.40819655,1.2343535,6.810822,-27.0,3.0,-6820.300555555557,-22.5,86.5,233.0,-1047.0,-8.5,344.5,1015.126,-3.963125,2872.0,0.1292063916666666,0.0709999366666666,0.0127032376666666,0.0240473574999999,-1.0430801666666667,0.0127812441666666,63765.0,30004.5,30605.0,162.0,-262.0,65.5,1,27_xmag_avg_drift_-222.78388888888895
2023-01-04 08:53:09,151.159,0.4994999999999976,100.0,1163.5,24350.0,4874.5,99.0,1165.0,118.5,4864.0,155.01945,1.0511205,0.1851476583333333,0.0229910666666666,-1.02686525,64.11083333333335,0.1785606333333333,0.0243702024999999,-1.036684,0.5483433,1.1116829,6.768022500000001,4.0,8.5,-7043.0844444444465,-0.5,25.0,222.0,-1013.0,-1.5,318.0,1015.108,-3.9811715,2876.0,0.1785606333333333,0.0090853316666666,0.0243702024999999,0.0017097449166667,-1.036684,0.0123562859166666,64125.0,30063.5,30965.0,90.0,-141.0,-7.5,1,27_xmag_avg_drift_-222.78388888888895
2023-01-04 08:53:10,152.15949999999998,0.5005000000000024,100.0,1147.5,24349.5,4875.0,99.0,1175.5,122.0,4868.5,152.2809,1.0732435,0.1015532475,0.0068182770833332,-1.0326194166666665,64.06416666666667,0.0975550266666666,0.0085965885166666,-1.044089,0.3036301999999999,1.194345,7.2489095,4.0,-34.5,-7265.868333333336,-16.0,-133.5,230.5,-1082.0,-8.0,354.0,1015.088,-4.001406,2879.0,0.0975550266666666,-0.1210537808333332,0.0085965885166666,-0.0161853708333332,-1.044089,0.0008893634666667,64065.0,30019.0,30905.0,17.0,-3.5,-10.5,1,27_xmag_avg_drift_-222.78388888888895
2023-01-04 08:53:11,153.21,0.5400000000000063,100.0,1025.25,24394.5,4877.0,99.0,1027.0,125.0,4877.0,149.15605,1.1076375,0.0367603516666666,0.0057293453833333,-1.0321795,64.04499999999999,0.0345722116666666,0.007177579805,-1.0463535,0.49293375,0.9649318,4.667552000000001,4.5,32.0,-7488.652222222225,-3.5,-20.5,217.25,-1068.0,-12.75,325.75,1015.114,-3.97501975,2883.5,0.0345722116666666,-0.0077895676666666,0.007177579805,0.011831585,-1.0463535,-0.0071738389999999,64055.0,30011.0,30895.0,-14.0,27.25,-11.25,1,27_xmag_avg_drift_-222.78388888888895
2023-01-04 08:53:12,154.2505,0.5104999999999933,100.0,1042.0,24401.0,4864.5,99.0,1039.0,128.0,4877.0,146.4789,1.1453675,0.0456846716666666,0.0199258075,-1.0522270833333334,63.94166666666666,0.0410788316666666,0.0215435716666666,-1.0686610833333334,0.5317106,1.2907479999999998,7.924864,25.5,21.5,-7711.436111111113,-35.0,1.0,229.0,-1127.5,14.5,315.5,1015.143,-3.946172,2888.5,0.0410788316666666,0.0090202069999999,0.0215435716666666,0.0257581808333332,-1.0686610833333334,-0.0089238956666666,63920.0,29859.0,30760.0,-19.5,30.5,-6.5,1,27_xmag_avg_drift_-222.78388888888895
2023-01-04 08:53:13,155.291,0.5300000000000011,100.0,1070.0,24359.5,4878.0,99.0,1032.0,131.0,4872.0,144.0783,1.182799,0.0392138633333333,0.0228024803333333,-1.0544116666666663,63.855,0.033957915,0.0242710043333333,-1.0726538333333333,0.4179581,1.5962079999999998,9.440397,32.5,-72.0,-7934.220000000002,-4.5,-12.0,233.0,-1049.5,19.0,320.5,1015.133,-3.9560155,2892.0,0.033957915,-0.0158421249999999,0.0242710043333333,-0.013030129,-1.0726538333333333,0.0171644444999999,63840.0,29869.5,30680.0,-10.0,38.0,-7.0,1,27_xmag_avg_drift_-222.78388888888895
2023-01-04 08:53:14,156.33100000000002,0.5100000000000051,100.0,1067.5,24379.5,4880.0,99.0,1074.0,134.0,4869.5,141.80135,1.2101275,0.0244142391666666,0.0099228755,-1.0437054166666666,63.758333333333326,0.0196009975,0.0126318576666666,-1.0642336666666667,0.5086824,1.10616905,7.929007500000001,28.5,24.0,-8157.003888888892,2.5,-40.5,226.0,-1107.5,-11.5,325.0,1015.1725,-3.916484,2896.0,0.0196009975,-0.0148030339999999,0.0126318576666666,0.0275276333333333,-1.0642336666666667,0.0054703656333333,63755.0,29906.5,30595.0,-12.0,30.0,-3.0,1,27_xmag_avg_drift_-222.78388888888895
2023-01-04 08:53:15,157.431,0.1657142857142852,100.0,1043.5,24357.0,4875.5,99.0,1034.0,138.14285714285714,4871.428571428572,139.6877,1.2266145714285717,-0.0021044277916666,0.0108746511666666,-1.0399238333333334,63.69916666666667,-0.00743445825,0.0136055906666666,-1.0621046666666667,0.4699931142857143,1.3846559857142855,7.454106571428572,18.0,-10.071428571428571,-8379.78777777778,-16.857142857142858,-19.357142857142858,234.92857142857144,-1088.857142857143,23.642857142857142,318.5,1015.1449285714287,-3.9442855714285714,2900.0,-0.00743445825,-0.02481932,0.0136055906666666,0.0038996735833333,-1.0621046666666667,0.0093913086666666,63710.0,29912.0,30550.0,-1.5,12.0,-1.5,1,27_xmag_avg_drift_-222.78388888888895
2023-01-04 08:53:16,158.309,0.1019999999999981,100.0,1060.5,24373.5,4877.0,99.0,1026.7,140.8,4881.2,138.06448,1.2325824,-0.00140252,0.017825406,-1.019403,63.676,-0.00617768454,0.021214892,-1.0432804,0.4875718799999999,1.2592106,6.7327633,20.0,13.3,-8602.571666666669,-9.9,0.1,230.2,-1061.4,33.0,309.2,1015.1395,-3.9498983,2903.4,-0.0064234933999999,0.0270874548,0.02104383,0.0171750744,-1.0432382,0.018805206,63685.0,30020.0,30525.0,8.5,-11.0,-4.5,1,27_xmag_avg_drift_-222.78388888888895
2023-01-04 08:53:17,159.331,0.102000000000001,100.0,1078.0,24372.0,4878.5,99.0,1070.2,144.0,4875.7,136.41663999999997,1.232206,0.0134822834,0.0114517682,-1.014854,63.6,0.0084880933999999,0.0148223542,-1.0399164,0.50932482,1.0506632,4.4659898,16.4,-2.6,-8825.355555555558,-39.6,12.6,231.9,-1089.2,-11.6,322.5,1015.162,-3.927117,2906.8,0.0084880933999999,0.0095251614,0.0148223542,-0.00663737,-1.0399164,-0.0058365814,63615.0,30041.5,30455.0,22.5,-22.5,-4.0,1,27_xmag_avg_drift_-222.78388888888895
2023-01-04 08:53:18,160.3429,0.0999999999999999,100.0,1128.0,24335.5,4873.0,99.0,1092.0,146.88888888888889,4869.9,134.87208000000004,1.2256784,0.032215728,0.013202656,-1.0238466,63.522000000000006,0.02773257,0.017206752,-1.050214,0.45120751,1.15131674,6.3116462,20.3,-4.4,-9048.139444444447,-19.3,18.4,232.9,-1063.5,-15.1,326.2,1015.1495,-3.9397577,2910.4,0.02773257,0.0123554162,0.017206752,-0.0037236546,-1.050214,-0.02460023,63530.0,29984.5,30370.0,23.0,-27.0,-1.0,1,27_xmag_avg_drift_-222.78388888888895
2023-01-04 08:53:19,161.349,0.102000000000001,100.0,1079.5,24350.5,4874.5,99.0,1076.4,150.1,4866.7,133.3489,1.2216561999999995,0.0284929879999999,0.0097341532,-1.0212362,63.502,0.02410588,0.013296222,-1.0484006,0.44107278,1.2027210900000005,4.5606554,24.3,-6.8,105.9,-7.5,-21.1,233.9,-1069.4,-11.5,322.7,1015.1411,-3.9479607,2914.0,0.02410588,-0.0134741198,0.013296222,0.00017808488,-1.0484006,-0.0247762216,63510.0,29998.5,30350.0,17.5,-21.5,-2.0,0,None
2023-01-04 08:53:20,162.36100000000002,0.0999999999999999,100.0,1045.5,24358.0,4878.5,99.0,1033.1,153.0,4872.4,131.84892,1.2224487999999998,0.027305506,0.0120780404,-1.0235162,63.476,0.0239041519999999,0.016341226,-1.0519288,0.42267193,1.21878005,7.0779677,18.1,10.6,111.3,-51.1,-6.2,230.0,-1082.5,-7.6,324.6,1015.1600999999998,-3.9290234,2917.1,0.0239041519999999,0.018412199,0.016341226,0.00413151824,-1.0519288,0.0139293636,63485.0,29971.0,30325.0,16.5,-24.5,-3.0,0,None
2023-01-04 08:53:21,163.3176666666667,0.1022222222222208,100.0,1026.0,24374.0,4881.0,99.0,1038.6666666666667,155.77777777777777,4877.888888888889,130.43365555555556,1.2255727777777776,0.041087596,0.01622889,-1.0178984,63.398,0.038093874,0.02008543,-1.0473748,0.4619720666666666,1.1478636111111111,6.253324111111111,31.0,-2.2222222222222223,106.22222222222224,-21.55555555555556,-8.333333333333334,230.44444444444449,-1088.3333333333333,7.888888888888889,317.6666666666667,1015.1476666666666,-3.941519222222222,2920.333333333333,0.038093874,0.0252882045999999,0.02008543,0.0066810338,-1.0473748,0.0063701568,63410.0,29998.0,30250.0,15.0,-21.5,-1.5,0,None
2023-01-04 08:53:22,164.30299999999997,0.1039999999999991,100.0,1142.5,24321.5,4881.5,99.0,1128.4,158.7,4881.6,128.94264000000004,1.2340854,0.045703245,0.01774646,-1.0061624999999998,63.345,0.042948885,0.0215913525,-1.03644225,0.4139516444444444,1.1592861444444449,5.012647777777778,22.05555555555556,13.833333333333334,105.05555555555556,-21.944444444444443,-1.3333333333333333,226.8333333333333,-1072.388888888889,19.83333333333333,318.8888888888889,1015.15185,-3.937398500000001,2924.05,0.042948885,-0.00745622175,0.0215913525,0.003106430975,-1.03644225,0.0080817655,63350.0,30065.0,30190.0,5.5,-9.0,-3.0,0,None
2023-01-04 08:53:23,165.323,0.0999999999999999,100.0,1133.0,24311.5,4882.5,98.5,1133.1,162.0,4879.6,127.46170000000002,1.2488692,0.028585424,0.02062673,-0.99787888,63.286,0.02647169,0.023937738,-1.0283365999999998,0.48263099,1.03069101,4.3025903,16.5,-16.2,111.7,-30.9,-24.6,229.3,-1079.1,6.5,319.8,1015.1501999999998,-3.9390546,2927.7,0.02647169,-0.0191373549399999,0.023937738,-0.01331697728,-1.0283365999999998,-0.0092775704,63295.0,30109.5,30135.0,6.0,5.0,-1.0,0,None
2023-01-04 08:53:24,166.339,0.102000000000001,100.0,1129.0,24337.0,4879.5,98.0,1146.2,165.2,4872.6,125.99147999999998,1.2649734,0.0126025204,0.0058046963199999,-0.99944994,63.242,0.0103365469999999,0.0092029622,-1.030093,0.39600651,1.05621952,3.3493843999999995,17.3,1.1,117.8,-21.2,-17.5,222.1,-1076.9,4.6,317.7,1015.1506,-3.9385311,2930.9,0.0103365469999999,-0.008157171,0.0092029622,0.004434868,-1.030093,-0.005033954,63250.0,30100.0,30090.0,7.5,4.5,-0.5,0,None
2023-01-04 08:53:25,167.31377777777777,0.1046666666666674,100.0,1149.0,24324.5,4877.0,98.0,1140.6666666666667,168.22222222222223,4868.222222222223,124.68901111111111,1.2777826666666667,0.0137323674,0.0101104624,-1.00350266,63.208000000000006,0.0121622404,0.013768694,-1.0343440000000002,0.4519602444444444,1.0261126111111112,3.638931888888889,7.666666666666667,4.777777777777778,116.77777777777776,-40.22222222222222,18.33333333333333,230.3333333333333,-1058.5555555555557,-15.77777777777778,318.6666666666667,1015.1561111111112,-3.933151,2934.222222222222,0.0121622404,0.00595124334,0.013768694,0.0028321543999999,-1.0343440000000002,-0.0146366012,63215.0,30077.5,30055.0,10.5,-7.5,-2.0,0,None
2023-01-04 08:53:26,168.285,0.0999999999999999,100.0,1126.0,24308.5,4880.0,98.0,1127.3,171.2,4883.3,123.47598000000002,1.2857848,0.02022073,0.0048951498,-0.99760432,63.152,0.018378438,0.0082080572,-1.0287374,0.4404531299999999,0.93402845,4.0315482000000005,16.3,-5.1,115.2,-14.2,-1.7,226.0,-1079.3,12.6,331.7,1015.1487,-3.9405626000000007,2937.3,0.018378438,-0.000549578992,0.0082080572,-0.009719882,-1.0287374,0.016071902,63160.0,30103.0,30000.0,12.0,-14.5,-1.5,0,None
2023-01-04 08:53:27,169.285,0.0999999999999999,100.0,1091.5,24321.5,4883.0,98.0,1102.5,174.3,4880.6,122.41552,1.2909578,0.0278358979999999,0.0152623664,-1.0058972000000002,63.11,0.02557103,0.018913028,-1.0374514,0.4222998,1.05434489,3.7114431,10.0,22.3,112.1,-51.8,-3.1,227.3,-1068.2,-31.6,324.3,1015.1555,-3.9338827,2940.7,0.02557103,0.0040614672,0.018913028,0.015947026,-1.0374514,-0.034125454,63120.0,30056.5,29960.0,7.0,-18.0,-2.0,0,None
2023-01-04 08:53:28,170.285,0.0999999999999999,100.0,1122.0,24328.5,4882.5,98.0,1112.3,177.4,4883.4,121.42807999999998,1.2967844000000002,0.0283806299999999,0.0213495839999999,-1.0055036,63.05400000000001,0.026247912,0.02374865,-1.0375978,0.4334419499999999,0.99532116,4.1004622,23.5,1.9,110.2,-26.7,9.4,232.3,-1066.4,2.7,318.6,1015.1436,-3.9455936,2944.2,0.026247912,-1.2010199999999869e-05,0.02374865,-0.0032684146,-1.0375978,0.0163445891,63065.0,30055.0,29905.0,8.5,-14.5,-1.5,0,None
2023-01-04 08:53:29,171.285,0.0999999999999999,100.0,1114.5,24318.0,4880.0,98.0,1122.2,180.5,4877.1,120.4187,1.3049737999999995,0.033367686,0.0194704439999999,-1.0008698,63.01800000000001,0.030889152,0.02270789,-1.03394,0.44148251,1.09115675,3.9982629,14.4,8.2,116.1,-29.1,0.6,226.7,-1069.1,2.8,320.5,1015.1271,-3.9620936,2947.4,0.030889152,0.0056990432,0.02270789,-0.0085258441999999,-1.03394,-0.0002291734,63025.0,30076.0,29865.0,10.5,-9.0,-3.5,0,None
2023-01-04 08:53:30,172.285,0.0999999999999999,100.0,1130.0,24305.0,4876.0,98.0,1138.8,183.6,4879.4,119.39166,1.3159261999999998,0.030181012,0.018718496,-1.003581,62.99,0.027843856,0.02058345,-1.036744,0.4094719299999999,1.10748443,4.100054600000001,19.3,-10.9,109.5,-38.8,1.2,227.4,-1068.3,5.7,324.1,1015.1329,-3.9562185,2950.5,0.027843856,-0.0212047144,0.02058345,-0.0130731327999999,-1.036744,-0.0054152136,63000.0,30061.0,29840.0,11.0,-0.5,-4.0,0,None
2023-01-04 08:53:31,173.29699999999997,0.1019999999999981,100.0,1136.0,24298.0,4879.0,98.0,1128.5,186.8,4879.0,118.36444000000002,1.3289386,0.024055304,0.016070874,-1.0018796,62.936,0.0217385579999999,0.018890316,-1.0344336,0.4071141799999999,0.98518042,3.9647837,22.7,3.8,109.85,-20.25,-11.65,229.45,-1085.75,-0.45,325.45,1015.14555,-3.9436444,2954.15,0.0217385579999999,-0.0107778468,0.018890316,0.008214837,-1.0344336,0.0115945756,62950.0,30073.5,29790.0,9.5,1.5,-5.0,0,None
2023-01-04 08:53:32,174.30300000000005,0.0999999999999999,100.0,1106.0,24313.5,4881.5,98.0,1099.6,189.9,4883.7,117.38464,1.3415864,0.010953436,0.0084983532,-1.00389882,62.862,0.0085933626,0.0108813653999999,-1.0363654,0.43120258,1.06894172,3.2979785,12.6,-14.1,115.2,-16.0,-1.5,226.9,-1043.5,8.5,317.9,1015.1494,-3.9398359,2957.7,0.0085933626,0.0156432701999999,0.0108813653999999,-0.0104330999999999,-1.0363654,-0.01101133,62875.0,30071.5,29715.0,15.0,1.5,-3.0,0,None
2023-01-04 08:53:33,175.30300000000005,0.0999999999999999,100.0,1163.0,24286.5,4881.0,98.0,1164.0,193.0,4880.9,116.47458000000002,1.3510288,0.057399225,-0.0132672932129999,-1.0111202499999998,62.8,0.054815305,-0.010334460525,-1.0428665,0.3605319333333333,1.1018186666666665,3.7058413333333338,8.11111111111111,-69.11111111111111,103.33333333333331,-27.77777777777778,209.77777777777777,222.0,-1058.111111111111,12.555555555555555,330.3333333333333,1015.1594,-3.9298046,2960.9,0.054815305,0.20173498225,-0.010334460525,-0.0665068299999999,-1.0428665,-0.01767747,62805.0,30028.5,29645.0,11.0,0.0,-2.5,0,None
2023-01-04 08:53:34,176.30300000000005,0.0999999999999999,100.0,1278.5,24238.5,4868.5,98.0,1249.5,196.5,4882.8,115.69346,1.3570248,0.26229492,-0.0822083999999999,-0.99727438,62.738,0.25532132,-0.07879564,-1.0283312,0.4630075299999999,1.24186906,6.3176217,33.7,-2.9,28.8,-26.2,-4.6,190.9,-1083.2,12.5,360.7,1015.1564,-3.9330467,2964.1,0.25532132,0.0071034677999999,-0.07879564,0.00717125448,-1.0283312,0.0048108401999999,62740.0,30094.5,29580.0,-112.5,102.5,-1.0,0,None
2023-01-04 08:53:35,177.30300000000005,0.0999999999999999,100.0,1171.5,24265.0,4881.0,98.0,1174.6,199.8,4873.6,115.03992,1.3640124000000005,0.2208290399999999,-0.068748422,-0.99097912,62.762,0.21907882,-0.069119486,-1.0227252000000002,0.54332844,1.4129026999999998,7.9303224,65.8,2.5,44.8,18.5,-10.1,189.6,-1058.0,-0.4,356.8,1015.1444,-3.944812399999999,2967.6,0.21907882,-0.0198397999999999,-0.069119486,0.0124791382,-1.0227252000000002,0.00546673754,62755.0,30142.5,29595.0,-275.0,236.5,-1.0,0,None
2023-01-04 08:53:36,178.30300000000005,0.0999999999999999,100.0,1082.0,24287.0,4882.0,98.0,1081.2,202.9,4878.8,114.60311999999996,1.3756343999999998,0.163309468,-0.0481419605999999,-0.9870199000000002,62.8,0.163641622,-0.04957145122,-1.0196406,0.70126125,1.3997224,8.3602778,85.2,87.1,57.3,-19.8,-228.7,198.6,-1071.1,-18.4,357.2,1015.1383,-3.9508124,2970.6,0.163641622,-0.235590216,-0.04957145122,0.105659476,-1.0196406,-0.0142089375,62790.0,30165.5,29630.0,-393.5,324.5,-4.0,0,None
2023-01-04 08:53:37,179.30300000000005,0.0999999999999999,100.0,848.5,24374.5,4877.0,98.0,870.4,205.5,4873.4,114.35089999999998,1.3893267999999996,-0.092433218,0.049548462,-0.99205872,62.802,-0.086870764,0.045916838,-1.0241614,0.90246766,1.402587,11.5683417,23.7,33.8,143.8,-27.3,-119.1,242.7,-1067.6,0.4,311.4,1015.1987,-3.8904140000000007,2973.9,-0.086870764,-0.0744774886,0.045916838,0.0546789776,-1.0241614,0.0016178207999999,62815.0,30133.5,29655.0,-375.5,303.0,-3.0,0,None
2023-01-04 08:53:38,180.30300000000005,0.0999999999999999,100.0,970.0,24329.0,4859.0,98.0,1007.2,208.1,4872.2,114.16144,1.3964444,-0.061398298,0.044804502,-0.99739598,62.666,-0.059409214,0.04336938,-1.0304062000000005,1.07977957,1.6119852,12.259647,37.9,-20.2,141.3,-13.7,77.6,247.3,-1095.6,-12.7,296.2,1015.2318,-3.8573123,2977.0,-0.059409214,0.096958274,0.04336938,-0.031309756,-1.0304062000000005,-0.00211506,62680.0,30090.5,29520.0,-242.0,195.0,-2.0,0,None
2023-01-04 08:53:39,181.30300000000005,0.0999999999999999,100.0,1014.0,24343.5,4872.5,98.0,1015.6,211.0,4872.0,113.95652,1.3997272,-0.080322668,0.033119146,-1.0027062400000002,62.64200000000001,-0.0824291239999999,0.034688542,-1.0358408,0.7976590599999998,1.4283876000000002,9.4936791,34.8,11.0,139.4,-10.8,-128.2,241.0,-1074.6,-20.3,307.0,1015.1952,-3.8939296,2980.1,-0.0824291239999999,-0.135703904,0.034688542,0.0285640582,-1.0358408,-0.0091627408,62640.0,30086.5,29480.0,-145.0,121.0,6.0,0,None
2023-01-04 08:53:40,182.30300000000005,0.0999999999999999,100.0,1159.0,24268.5,4877.0,98.0,1189.3,214.2,4880.5,113.76388,1.4024572000000002,-0.053046452,0.048695182,-1.0092533,62.67,-0.0569646912,0.05206263,-1.0417288,0.7046162499999999,1.4495669,9.8473931,12.3,-8.1,138.8,-10.9,188.8,235.9,-1087.4,0.4,285.3,1015.141,-3.9483515,2983.2,-0.0569646912,0.21461679,0.05206263,0.011960044,-1.0417288,0.0094054824,62655.0,30017.0,29495.0,-38.0,24.5,3.0,0,None
2023-01-04 08:53:41,183.3194,0.1021000000000014,100.0,1115.0,24290.5,4875.5,98.0,1022.7,217.3,4877.6,113.527,1.4043346,0.0239926556,0.0118569714,-1.0058638,62.79600000000001,0.0171999838,0.017070304,-1.0360098,0.60221203,1.11425739,6.2777815000000015,22.0,-9.9,111.1,-23.6,-81.7,232.4,-1042.6,-1.1,321.2,1015.1297,-3.9596093,2986.4,0.0171999838,-0.079300824,0.017070304,-0.024537806,-1.0360098,-0.0199865659,62790.0,30074.0,29630.0,0.0,27.5,-2.5,0,None
2023-01-04 08:53:42,184.324,0.0999999999999999,100.0,1077.5,24272.5,4882.5,98.0,1064.5,220.4,4883.7,113.25737999999998,1.4057182000000004,-0.0281908679999999,-0.0005508084,-1.00054714,62.826,-0.031690538,0.0040871974,-1.029589,0.5872903299999999,1.3071578,9.8218077,11.8,-26.1,127.1,-16.5,9.3,222.9,-1051.6,5.2,311.6,1015.1053000000002,-3.9837969,2989.5,-0.031690538,0.01625149874,0.0040871974,-0.0247174269999999,-1.029589,0.0071412079999999,62820.0,30095.5,29660.0,20.5,14.0,-9.0,0,None
2023-01-04 08:53:43,185.324,0.0999999999999999,100.0,1065.5,24272.5,4882.5,98.0,1065.4,223.3,4884.1,112.99263999999998,1.4066876,0.0035451902,0.0021365548,-1.0064996,62.846,0.0008141842,0.0065599701199999,-1.0353726,0.5316365888888889,1.4715294444444442,10.235340888888889,17.4,25.0,119.4,-1.0,41.1,215.2,-1061.2,-3.9,313.3,1015.1085,-3.980781200000001,2992.4,0.0008141842,0.03979504,0.0065599701199999,0.028432578,-1.0353726,-0.00345938366,62845.0,30083.5,29685.0,31.5,-15.0,-11.0,0,None
2023-01-04 08:53:44,186.31844444444445,0.1088888888888877,100.0,1072.0,24280.5,4880.0,98.0,1048.111111111111,226.0,4879.888888888889,112.75555555555556,1.4047888888888886,0.011327638295,-0.0011663745,-1.01985,62.81,0.00891257975,0.00234224475,-1.048764,0.4822447666666666,1.0405925555555555,6.320979888888888,8.222222222222221,-23.33333333333333,115.27777777777776,-13.11111111111111,-29.11111111111111,224.16666666666663,-1046.1666666666667,-14.944444444444445,331.3888888888889,1015.1205555555556,-3.968736722222222,2995.3888888888887,0.00891257975,-0.0229629225,0.00234224475,-0.01900882525,-1.048764,-0.00547715375,62810.0,29995.0,29650.0,37.0,-14.0,-10.0,0,None
2023-01-04 08:53:45,187.3349,0.1040999999999996,100.0,1075.5,24281.5,4873.0,98.0,1066.3,229.2,4876.8,112.52494,1.4001283999999998,0.00373483022,-0.021097866,-1.017124,62.73,0.002224174,-0.018605082,-1.0441931999999998,0.44872182,1.0598643200000002,6.944825,11.8,1.4,118.9,-3.0,14.4,223.4,-1083.4,21.9,327.8,1015.1348000000002,-3.9544531,2998.6,0.002224174,0.029093334,-0.018605082,0.0123463966,-1.0441931999999998,0.0175973223999999,62725.0,30024.0,29565.0,31.5,-27.0,-9.0,0,None
2023-01-04 08:53:46,188.34500000000003,0.0999999999999999,100.0,1065.5,24287.0,4881.5,98.0,1068.6,232.2,4876.6,112.38588,1.392703,0.022432334,-0.0107212592,-1.0046715999999998,62.688,0.020078198,-0.00718776812,-1.0306552,0.44257905,1.18631238,6.537720500000001,13.7,16.7,113.7,9.3,7.5,223.3,-1111.0,8.7,327.2,1015.1431,-3.9458282,3001.8,0.020078198,0.0184081878,-0.00718776812,0.0203158146,-1.0306552,0.010052064,62690.0,30101.5,29530.0,17.0,-34.0,-7.0,0,None
2023-01-04 08:53:47,189.34500000000003,0.0999999999999999,100.0,1133.0,24266.5,4877.5,98.0,1105.0,235.2,4877.9,112.34104,1.3861604,0.023210152,0.0099499418,-1.0201620000000002,62.636,0.0204337419999999,0.0113832156,-1.0451048,0.42063668,1.03000801,6.3106406,8.3,2.2,106.2,6630.561111111114,-18.6,224.7,-1085.5,-14.2,320.4,1015.1428,-3.946453,3004.7,0.0204337419999999,-0.0305751305999999,0.0113832156,0.0195189533999999,-1.0451048,-0.013514192,62625.0,30004.0,29465.0,14.5,-19.0,-4.0,1,27_yacc_avg_drift_94.58944444444448
2023-01-04 08:53:48,190.3238888888889,0.1044444444444473,100.0,1089.0,24280.5,4877.0,98.0,1092.888888888889,238.0,4884.333333333333,112.30832222222222,1.3824034444444446,0.0256300839999999,-0.0119492574,-1.0114535999999998,62.572,0.0233501079999999,-0.0102548716,-1.0353674000000002,0.4541103444444444,1.0246188444444444,4.683795,-3.7777777777777777,-27.88888888888889,107.33333333333331,6725.150555555559,-3.333333333333333,219.11111111111111,-1068.111111111111,22.444444444444443,321.6666666666667,1015.1405555555556,-3.9485763333333335,3007.6666666666665,0.0231060359999999,0.0079521016,-0.0100455816,-0.0305178230879999,-1.0355060000000005,0.0145808483999999,62570.0,30076.5,29410.0,18.0,-4.5,-2.0,1,27_yacc_avg_drift_94.58944444444448
2023-01-04 08:53:49,191.285,0.0999999999999999,100.0,1095.5,24285.5,4873.5,98.0,1076.6,240.9,4882.7,112.30702,1.3812034,0.012524915,-0.0152817033999999,-1.0067284,62.548,0.0097332762,-0.0127061397999999,-1.0299252,0.4171991699999999,0.86215195,3.5563443,4.2,17.8,115.9,6819.7400000000025,-14.0,218.2,-1067.3,-1.7,328.1,1015.1571,-3.932078,3010.7,0.0097332762,-0.018069866,-0.0127061397999999,0.0208767711999999,-1.0299252,-0.0008746129999999,62545.0,30100.0,29385.0,2.5,-3.5,-2.5,1,27_yacc_avg_drift_94.58944444444448
2023-01-04 08:53:50,192.285,0.0999999999999999,100.0,1082.5,24257.5,4876.5,98.0,1087.9,243.9,4882.2,112.38676,1.3800085999999998,0.008376958,-0.00455355456,-1.0050051999999998,62.516,0.005082693,-0.0019699177199999,-1.0266322,0.4551350099999999,0.8482292499999999,4.8337591,-5.6,7.3,116.3,6914.329444444447,-5.3,223.2,-1058.7,-5.9,321.3,1015.1626,-3.9265859,3013.6,0.005082693,-0.0122028259999999,-0.0019699177199999,0.0025929213999999,-1.0266322,0.0103383714,62515.0,30121.0,29355.0,1.0,-8.0,-0.5,1,27_yacc_avg_drift_94.58944444444448
2023-01-04 08:53:51,193.285,0.0999999999999999,100.0,1072.5,24264.0,4874.0,98.0,1071.6,246.9,4880.1,112.49996,1.3769354,0.014611615,-0.0003677141499999,-0.999964325,62.49000000000001,0.0111502144,0.0025289194,-1.021054,0.4858524099999999,1.01155031,4.6012883,-7.5,2.9,119.5,7008.918888888892,5.9,222.9,-1073.1,-4.5,324.6,1015.1651,-3.9242031,3016.6,0.0111502144,0.0069966902,0.0025289194,0.000953078,-1.021054,0.0029220504,62485.0,30147.5,29325.0,0.0,-9.0,-0.5,1,27_yacc_avg_drift_94.58944444444448
2023-01-04 08:53:52,194.285,0.0999999999999999,100.0,1113.5,24261.0,4875.5,98.0,1090.0,250.0,4885.4,112.62062,1.3727033999999998,0.0123998324,0.0024311665999999,-1.00983242,62.502,0.0078446154,0.0054646678,-1.0302154,0.35844847,1.11844109,3.7393659,-0.3,38.6,119.9,7103.508333333336,-3.9,224.7,-1054.0,-26.3,324.8,1015.1446,-3.944539,3019.5,0.0078446154,-0.0157850458,0.0054646678,0.0313583439999999,-1.0302154,-0.0258021384,62500.0,30091.0,29340.0,-9.5,-12.5,-0.5,1,27_yacc_avg_drift_94.58944444444448
2023-01-04 08:53:53,195.301,0.1019999999999981,100.0,1058.5,24275.0,4880.0,98.0,1073.2,253.0,4883.6,112.7328,1.3676092,0.0076508005999999,0.0314628619999999,-1.0262464,62.53000000000001,0.00311576566,0.0334038599999999,-1.046288,0.4501299299999999,1.00567327,3.8610894,6.45,1.55,114.6,7198.097777777781,0.65,234.95,-1072.3,-8.85,307.55,1015.1402,-3.94885145,3022.7,0.00311576566,-0.0224612018,0.0334038599999999,0.004682578,-1.046288,0.0022047964,62535.0,30004.5,29375.0,2.5,-7.5,-3.5,1,27_yacc_avg_drift_94.58944444444448
2023-01-04 08:53:54,196.321,0.102000000000001,100.0,1097.5,24264.5,4864.0,98.0,1096.9,256.2,4886.4,112.7255,1.3633912,0.014429926,0.02339823,-1.0351254,62.54,0.0096384348,0.02584978,-1.0541855999999998,0.4342891,1.18288603,5.3318806,9.2,-17.4,106.6,7292.6872222222255,9.9,233.2,-1034.4,13.7,313.0,1015.129,-3.9602735,3025.6,0.0096384348,-0.013055828,0.02584978,-0.01529056322,-1.0541855999999998,-0.033246564,62540.0,29956.5,29380.0,19.0,-2.5,-4.5,1,27_yacc_avg_drift_94.58944444444448
2023-01-04 08:53:55,197.3316,0.1020999999999986,100.0,1034.5,24269.0,4864.0,98.0,1054.5,259.3,4877.8,112.58982,1.359358,0.017068418,0.009740065,-1.0316038,62.56600000000001,0.0128245539999999,0.0130735492,-1.0496428,0.4506306,1.09669125,4.2646386,1.8,-3.2,109.7,7387.276666666669,1.7,234.4,-1045.9,-3.1,327.0,1015.1272,-3.9620311,3028.4,0.0128245539999999,-0.0131805038,0.0130735492,-0.0088602365999999,-1.0496428,0.0116557541999999,62570.0,29988.5,29410.0,19.5,-1.5,-6.0,1,27_yacc_avg_drift_94.58944444444448
2023-01-04 08:53:56,198.354,0.102000000000001,100.0,1082.5,24204.5,4876.0,98.0,1065.6,262.2,4876.0,112.39312,1.3563066000000004,0.016829464,0.0083829716,-1.0380470000000002,62.57000000000001,0.0125617976,0.0113200185999999,-1.0561622,0.4800751,1.14250752,5.3763727,10.8,7.1,112.7,7481.866111111114,-2.9,227.5,-1050.0,-15.3,325.2,1015.1397,-3.9495546,3031.7,0.0125617976,0.0016946528799999,0.0113200185999999,0.020436866,-1.0561622,-0.0126632352,62570.0,29944.0,29410.0,13.0,-4.0,-9.0,1,27_yacc_avg_drift_94.58944444444448
2023-01-04 08:53:57,199.33377777777773,0.1022222222222208,100.0,1027.0,24259.0,4879.5,98.0,1054.3333333333333,265.0,4888.555555555556,112.16047777777776,1.3541685555555558,0.025086858,0.0163768718,-1.0362521999999998,62.538,0.020514352,0.020004924,-1.0537214,0.4437788222222221,1.2291527333333334,3.9969308888888886,6.444444444444445,2.0,104.44444444444444,7576.455555555559,-9.0,233.66666666666663,-1049.5555555555557,9.77777777777778,321.44444444444446,1015.136,-3.9530988888888894,3034.333333333333,0.020514352,-0.006411212,0.020004924,-0.004729013,-1.0537214,0.0256063504,62540.0,29972.0,29380.0,10.5,0.0,-3.5,1,27_yacc_avg_drift_94.58944444444448
2023-01-04 08:53:58,200.33000000000004,0.1060000000000002,100.0,1063.0,24234.5,4865.5,98.0,1063.5,268.0,4877.3,111.9077,1.3533594,0.014891978,0.015704604,-1.0299582,62.532,0.0107121294,0.018690996,-1.0469376,0.44751504,1.1602535799999998,4.9151265,11.1,0.05,109.45,7671.045000000003,-6.85,229.95,-1069.4,-4.25,312.55,1015.1423500000004,-3.94692565,3037.45,0.0107121294,0.0089367077999999,0.018690996,0.012139982,-1.0469376,-0.0046986562,62530.0,29998.5,29370.0,11.0,1.0,-5.0,1,27_yacc_avg_drift_94.58944444444448
2023-01-04 08:53:59,201.36190000000005,0.1020000000000009,100.0,1134.0,24184.5,4866.5,98.0,1089.1,271.1,4874.1,111.60216,1.3530231999999998,0.01902229,0.0133635514,-1.026837,62.532,0.014457208,0.0170953859999999,-1.043405,0.46433681,1.17046758,5.548042100000001,7.7,4.5,111.2,7765.634444444448,5.7,227.2,-1044.3,10.8,315.3,1015.1356000000002,-3.9535233,3040.4,0.014457208,0.010849916,0.0170953859999999,-0.0080341659999999,-1.043405,0.01179445916,62535.0,30027.0,29375.0,8.5,-0.5,-4.5,1,27_yacc_avg_drift_94.58944444444448
2023-01-04 08:54:00,202.3515555555556,0.1066666666666675,100.0,1099.5,24192.5,4881.5,98.0,1089.6666666666667,274.0,4884.888888888889,111.26713333333332,1.3529936666666664,0.00750409564,0.0128923738,-1.0295132,62.54600000000001,0.0032221304,0.016395662,-1.045934,0.4038254111111111,1.2242328555555555,5.413051444444444,15.555555555555555,6.611111111111111,111.11111111111111,7860.223888888892,-35.77777777777778,229.11111111111111,-1052.5,-24.38888888888889,318.77777777777777,1015.1365,-3.952621444444445,3043.3888888888887,0.0032221304,-0.0113111761999999,0.016395662,0.0127858752,-1.045934,-0.02508607,62545.0,30003.5,29385.0,6.0,-6.0,-3.0,1,27_yacc_avg_drift_94.58944444444448
2023-01-04 08:54:01,203.32044444444443,0.1088888888888877,100.0,1048.0,24255.5,4882.0,98.0,1046.7777777777778,277.0,4882.0,110.91176666666668,1.3527435555555556,0.01102416725,0.022203195,-1.0481735,62.5375,0.006903071,0.0252445825,-1.0638535,0.458576,1.4772494444444444,8.775150888888886,11.11111111111111,-8.833333333333334,109.27777777777776,-31.55555555555556,41.05555555555556,239.5,-1032.6666666666667,-25.11111111111111,313.8888888888889,1015.1657222222224,-3.923424555555555,3046.055555555556,0.006903071,0.0241693975,0.0252445825,-0.000813591,-1.0638535,-0.0004117525,62535.0,29907.5,29375.0,16.5,-24.5,-3.5,0,None
2023-01-04 08:54:02,204.33600000000004,0.1060000000000002,100.0,1039.0,24191.5,4880.0,98.0,1055.0,280.0,4883.7,110.49222,1.3510794000000002,0.042826032,0.0169599366,-1.0420478,62.50599999999999,0.0384491739999999,0.021018762,-1.0578054,0.50246051,1.2415175,7.291793,10.8,29.7,101.2,-27.6,3.4,228.7,-1098.5,-7.9,317.9,1015.1338,-3.955437500000001,3049.3,0.0384491739999999,2.8015999999997724e-05,0.021018762,0.0192015099999999,-1.0578054,-0.00830594108,62505.0,29927.5,29345.0,3.5,-16.5,-1.5,0,None
2023-01-04 08:54:03,205.34266666666664,0.1066666666666675,100.0,1012.0,24225.0,4881.0,98.0,1027.6666666666667,282.77777777777777,4885.444444444444,110.06715555555556,1.3524023333333337,0.033632688,0.038781246,-1.0464363999999995,62.53,0.029339792,0.041416754,-1.0629829999999998,0.4170507777777777,1.5368653333333333,6.817887555555555,15.833333333333334,0.9444444444444444,95.88888888888889,-50.333333333333336,-15.38888888888889,235.16666666666663,-1078.2222222222222,-13.5,313.6666666666667,1015.1392777777778,-3.949791555555556,3051.8888888888887,0.029339792,-0.0170165908,0.041416754,0.0046931099999999,-1.0629829999999998,0.0012209172799999,62535.0,29921.0,29375.0,11.0,1.0,-4.0,0,None
2023-01-04 08:54:04,206.33,0.1019999999999981,100.0,1057.0,24210.0,4880.0,98.0,1062.7,285.9,4882.9,109.54434,1.3568822,0.0253429459999999,0.0124556618,-1.036937,62.52,0.021654822,0.015986398,-1.0526136,0.4524833,1.22895888,6.5172122,21.0,-29.2,107.8,-31.2,-7.3,235.2,-1039.9,-10.9,320.7,1015.1495,-3.939703,3055.0,0.021654822,0.0149798188,0.015986398,-0.0316172222,-1.0526136,0.020677112,62520.0,29982.0,29360.0,14.5,0.0,-3.0,0,None
2023-01-04 08:54:05,207.3637,0.1039000000000015,100.0,1037.0,24208.0,4876.0,98.0,1051.2,288.7,4874.1,109.0112,1.3627958,0.0274317499999999,0.00827580122,-1.0330894000000002,62.532,0.023208922,0.0128950118,-1.0483942000000002,0.50230096,1.16750652,4.218053599999999,15.3,16.4,105.9,-25.6,-20.2,231.3,-1059.5,13.4,325.4,1015.136,-3.9531093,3057.7,0.023208922,-0.0141011879999999,0.0128950118,0.015774102,-1.0483942000000002,-0.0127818878,62540.0,29992.5,29380.0,3.5,-2.0,-3.5,0,None
2023-01-04 08:54:06,208.34711111111108,0.1045555555555558,100.0,1096.0,24195.0,4882.0,98.0,1078.4444444444443,291.6666666666667,4886.333333333333,108.55151111111113,1.3694111111111111,0.021981252,0.014780384,-1.0325744,62.532,0.0179314212,0.018875726,-1.0475987999999998,0.4780496,1.2482732444444444,7.222480222222223,9.944444444444445,12.88888888888889,108.83333333333331,-41.55555555555556,12.833333333333334,230.88888888888889,-1081.7222222222222,1.2222222222222223,315.22222222222223,1015.162222222222,-3.926888,3060.6666666666665,0.0179314212,0.0164214239999999,0.018875726,0.0046706959999999,-1.0475987999999998,0.0180027376,62530.0,29990.0,29370.0,2.0,-7.0,-8.0,0,None
2023-01-04 08:54:07,209.342,0.1039999999999991,100.0,1063.0,24200.0,4875.5,98.0,1051.7,294.7,4884.5,108.09132,1.3753918000000005,0.0147069188,0.032521822,-1.0403314,62.52,0.0105469739999999,0.0374379919999999,-1.0552866,0.5204341,1.5721451000000002,7.1580139,0.8,21.4,109.7,-62.3,-20.0,243.9,-1041.0,-30.5,322.3,1015.1369,-3.9523515,3063.5,0.0105469739999999,-0.0245997744,0.0374379919999999,0.0192876328,-1.0552866,-0.0279895826,62520.0,29971.33333333333,29360.0,0.6666666666666666,-6.666666666666667,-1.6666666666666667,0,None
2023-01-04 08:54:08,210.3515555555556,0.1066666666666675,100.0,1053.0,24217.0,4879.5,98.0,1052.3333333333333,297.55555555555554,4883.333333333333,107.60207777777778,1.3807372222222225,0.0143651157499999,0.0271679474999999,-1.0337605,62.5275,0.01087556675,0.0319868325,-1.0483582500000002,0.3904772111111111,1.4312682222222224,7.086913666666666,13.555555555555555,-2.555555555555556,110.88888888888889,-51.16666666666666,2.5,238.3333333333333,-1075.4444444444443,3.333333333333333,322.3333333333333,1015.1387222222222,-3.950368777777778,3066.4444444444443,0.01087556675,0.024231185,0.0319868325,-0.0053852275,-1.0483582500000002,-0.005321718,62520.0,30002.0,29360.0,12.0,-13.0,-2.0,0,None
2023-01-04 08:54:09,211.3439,0.1019999999999981,100.0,1168.0,24142.5,4877.5,98.0,1137.2,300.6,4872.7,107.03904,1.3854862,0.041475158,0.028689166,-1.0371834,62.52,0.036956486,0.033511926,-1.051056,0.42519948,1.7742022,8.912552400000003,20.1,7.8,98.7,-61.9,2.1,245.4,-1037.1,-2.2,323.4,1015.1383,-3.9508592,3069.2,0.036956486,0.0219505939999999,0.033511926,-0.001231298,-1.051056,0.000846562,62525.0,29979.0,29365.0,11.0,-10.5,-7.0,0,None
2023-01-04 08:54:10,212.3271111111111,0.1066666666666675,100.0,1137.0,24185.5,4873.0,98.0,1157.2222222222222,303.6666666666667,4877.0,106.46016666666668,1.391922777777778,0.032329588,0.031929302,-1.0258492,62.51800000000001,0.027923486,0.036577458,-1.0400222,0.4996471666666667,1.5107648888888887,7.192813444444444,24.11111111111111,4.222222222222222,113.0,-47.27777777777778,-20.72222222222222,237.94444444444449,-1065.7777777777778,13.055555555555555,327.3333333333333,1015.1526111111112,-3.9367230000000006,3072.111111111112,0.027923486,-0.0228618724,0.036577458,0.004585051,-1.0400222,0.0076361703999999,62515.0,30032.5,29355.0,9.5,-2.0,-3.0,0,None
2023-01-04 08:54:11,213.30033333333336,0.1155555555555546,100.0,1141.5,24164.5,4866.5,98.0,1135.4444444444443,307.0,4877.777777777777,105.85747777777776,1.4002241111111111,0.021475695,0.0261137175,-1.013568,62.515,0.01681783,0.0309573075,-1.0269555,0.4118268944444444,1.2572985666666665,5.033152333333332,18.55555555555556,-14.0,111.55555555555556,-20.22222222222222,-17.0,229.44444444444449,-1071.5555555555557,16.666666666666668,309.22222222222223,1015.1456666666668,-3.9436806666666673,3074.6666666666665,0.01681783,-0.02003953475,0.0309573075,-0.02014526975,-1.0269555,0.030212275,62515.0,30115.5,29355.0,15.0,2.0,-1.5,0,None
2023-01-04 08:54:12,214.346,0.0999999999999999,100.0,1123.5,24163.5,4882.5,98.0,1144.4,310.2,4877.2,105.20284,1.4096326,0.022177076,0.018512418,-1.0112582,62.538,0.017145618,0.023063214,-1.024726,0.40952354,1.11753549,3.993516000000001,6.3,-2.3,113.3,-26.4,3.4,227.2,-1075.6,-12.8,323.4,1015.1518,-3.9374764,3077.8,0.017145618,-0.0020505226,0.023063214,0.004871679754,-1.024726,-0.01199161884,62535.0,30131.5,29375.0,16.0,-4.0,-3.5,0,None
2023-01-04 08:54:13,215.35,0.102000000000001,100.0,1123.0,24190.0,4881.5,98.0,1114.5,313.4,4880.5,104.61318,1.4179302,0.024250344,0.0107473383999999,-1.0119794,62.528,0.019046126,0.014470522,-1.0247753999999998,0.39723258,1.0464882999999998,3.5903333,20.2,-1.1,111.1,-41.8,-4.2,225.0,-1054.0,5.7,322.5,1015.1559,-3.9331641999999993,3080.5,0.019046126,-0.0117621614,0.014470522,-0.0032638726,-1.0247753999999998,0.0057174726,62530.0,30129.0,29370.0,14.5,-6.5,-3.0,0,None
2023-01-04 08:54:14,216.34255555555555,0.1044444444444441,100.0,1136.5,24161.5,4881.0,98.0,1139.4444444444443,316.44444444444446,4888.333333333333,104.10684444444443,1.4257111111111112,0.021495806,0.0130821899999999,-1.0218844,62.524,0.016650774,0.017632966,-1.0346504,0.4476066444444443,0.7747144666666667,4.355589666666667,4.166666666666667,5.555555555555555,113.72222222222224,-25.33333333333333,-5.055555555555555,227.66666666666663,-1070.6666666666667,-27.27777777777778,312.94444444444446,1015.1511111111108,-3.9380813888888886,3083.055555555556,0.016650774,0.0033958027999999,0.017632966,0.0059126676,-1.0346504,-0.010553047,62525.0,30079.5,29365.0,10.0,-9.5,-3.5,0,None
2023-01-04 08:54:15,217.31,0.0999999999999999,100.0,1136.0,24170.0,4875.5,98.0,1148.5,319.6,4884.0,103.64654,1.4333268,0.027059174,0.0103326668,-1.0232290000000002,62.538,0.0220110919999999,0.0143617479999999,-1.0356468,0.29324249,0.86970016,4.0037313,15.9,-5.2,108.8,-27.1,2.5,225.4,-1078.5,2.3,317.6,1015.1446,-3.9445936,3085.9,0.0220110919999999,0.0053413084,0.0143617479999999,0.0029328216,-1.0356468,-0.0064427469999999,62535.0,30069.0,29375.0,11.0,-9.0,-3.5,0,None
2023-01-04 08:54:16,218.314,0.0999999999999999,100.0,1156.0,24121.5,4882.0,98.0,1155.7,322.5,4888.8,103.25208,1.4402846,0.020501892,0.00251933532,-1.0218904,62.54,0.015938582,0.0068300582,-1.0346078,0.49024409,0.92218942,3.0369117,22.8,-0.5,114.0,-40.3,-16.0,221.6,-1066.0,25.3,322.7,1015.1466,-3.9426718999999992,3088.5,0.015938582,-0.006094209,0.0068300582,0.0011207864199999,-1.0346078,-0.0188536328,62540.0,30072.0,29380.0,4.0,-4.0,-4.5,0,None
2023-01-04 08:54:17,219.3178,0.1020000000000009,100.0,1162.0,24160.5,4881.0,97.0,1143.5,326.1,4891.0,102.926,1.4462266,0.019072638,0.017533054,-1.0224092,62.544,0.014884128,0.020948342,-1.0353786,0.3896145199999999,1.1579162,3.3480853,20.1,15.2,113.0,-34.9,9.3,223.3,-1026.1,20.4,314.5,1015.1364,-3.952711,3091.3,0.014884128,0.009277869674,0.020948342,0.0082836907999999,-1.0353786,-0.0091756162,62545.0,30067.5,29385.0,-0.5,-9.5,-5.5,0,None
2023-01-04 08:54:18,220.3439,0.1019999999999981,100.0,1126.5,24166.0,4880.0,97.0,1138.9,329.2,4879.4,102.62661999999996,1.4510580000000002,0.0152138071999999,0.016415708,-1.0201356,62.54600000000001,0.0103894078,0.020139884,-1.0326956,0.25300205,1.254888,4.9020848,12.5,8.5,112.4,-58.0,-4.8,228.3,-1009.6,4.8,314.7,1015.1318,-3.9574843,3094.0,0.0103894078,-0.0236741552,0.020139884,0.00342255196,-1.0326956,-0.0158950668,62545.0,30084.5,29385.0,0.5,-6.0,-5.0,0,None
2023-01-04 08:54:19,221.3459,0.0999999999999999,100.0,1136.5,24145.0,4883.5,97.0,1136.5,332.4,4881.5,102.31536,1.4553062,0.0169323508,0.021884306,-1.0223078,62.554,0.0124120182,0.0254409899999999,-1.0352892,0.52111699,0.68141182,3.132727,21.1,7.0,117.0,-38.3,13.4,229.7,-1059.5,7.5,322.0,1015.1134000000002,-3.9758671,3096.8,0.0124120182,-0.00217890624,0.0254409899999999,0.0008892035999999,-1.0352892,0.0002859848,62555.0,30071.5,29395.0,4.5,-10.0,-5.5,0,None
2023-01-04 08:54:20,222.37,0.104000000000002,100.0,1112.0,24149.0,4865.5,97.0,1107.7,335.5,4880.4,101.97784,1.4588746,0.0118494313999999,0.02756541,-1.0331894,62.534000000000006,0.0071346801999999,0.0311120799999999,-1.0463256,0.36588176,1.48242052,8.224278099999998,-0.2,7.9,113.6,-55.7,-17.7,231.1,-1049.2,-21.4,314.1,1015.1073,-3.9820157,3099.6,0.0071346801999999,0.0054439905999999,0.0311120799999999,-0.005881606,-1.0463256,-0.0140283234,62535.0,30008.5,29375.0,3.0,-9.0,-4.5,0,None
2023-01-04 08:54:21,223.36488888888888,0.1044444444444441,100.0,1009.5,24196.5,4880.0,97.0,1053.7777777777778,338.55555555555554,4881.222222222223,101.58110000000002,1.4620463333333336,-0.0017341366666666,0.03709875,-1.047872666666667,62.51,-0.007392071,0.0395894925,-1.0603170000000002,0.5475426333333334,1.2512111444444445,9.240317666666666,24.05555555555556,9.61111111111111,114.5,-23.0,37.77777777777778,234.5555555555556,-1006.6111111111112,-2.388888888888889,312.8333333333333,1015.1108333333336,-3.978272333333333,3102.4444444444443,-0.007392071,0.0131233074999999,0.0395894925,0.007383765,-1.0603170000000002,-0.052356545,62510.0,29928.5,29350.0,15.5,-18.5,-9.5,0,None
2023-01-04 08:54:22,224.326,0.0999999999999999,100.0,1048.5,24166.5,4883.0,97.0,1039.8,341.4,4882.3,101.14018,1.4635434,0.03256038,0.02883255,-1.0578142,62.456,0.027502876,0.033037178,-1.0712174,0.4647952999999999,1.13352617,10.562461099999998,13.5,-10.3,96.8,-22.9,11.1,234.3,-1096.7,19.8,313.6,1015.1387,-3.9504063,3104.9,0.027502876,0.011615951,0.033037178,0.0082146936,-1.0712174,0.0046931251999999,62445.0,29869.0,29285.0,25.0,-16.0,-8.5,0,None
2023-01-04 08:54:23,225.3439,0.1019999999999981,100.0,1051.5,24167.5,4880.0,97.0,1049.7,344.3,4877.2,100.63878,1.4663286,0.044684846,0.0354344459999999,-1.0456508,62.426,0.039732434,0.040136086,-1.0600788,0.4511571300000001,1.5241594399999998,8.511586500000002,24.2,8.3,98.8,-78.6,38.5,240.1,-1027.7,17.8,322.6,1015.0916,-3.9976171,3107.6,0.039732434,-0.00591885424,0.040136086,0.0219913306,-1.0600788,-0.014569656,62425.0,29936.0,29265.0,21.5,-8.0,-6.5,0,None
2023-01-04 08:54:24,226.346,0.0999999999999999,100.0,1102.5,24177.0,4882.5,97.0,1034.0,347.2,4882.1,100.13913999999995,1.4719710000000004,0.04487201,0.0070360654,-1.0338686,62.40599999999999,0.04047152,0.0107290344,-1.048602,0.54047593,1.8540727,12.5296082,5.2,-7.3,100.3,-61.4,-69.6,228.7,-1049.6,7.1,319.3,1015.1133,-3.9758748,3110.3,0.04047152,-0.0779134274,0.0107290344,-0.022443794,-1.048602,-0.0003493760399999,62400.0,30001.5,29240.0,-2.5,12.0,-12.5,0,None
2023-01-04 08:54:25,227.346,0.0999999999999999,100.0,1047.0,24166.5,4877.0,97.0,1014.4,350.0,4878.2,99.71242800000002,1.4790540000000003,-0.0078562076,0.04514181,-1.0296592,62.326,-0.011418503,0.048820464,-1.0453786,0.57332299,1.8490954,15.996866,9.2,41.1,119.6,-29.3,17.1,243.2,-973.1,-9.2,305.9,1015.1465000000002,-3.9427654,3113.1,-0.011418503,0.002562106,0.048820464,0.0788357859999999,-1.0453786,-0.0022171604,62310.0,30014.0,29150.0,-4.5,4.5,-4.0,0,None
2023-01-04 08:54:26,228.31822222222223,0.1044444444444441,100.0,977.0,24217.5,4884.0,97.0,1043.3333333333333,352.8888888888889,4884.555555555556,99.28569111111108,1.485565888888889,0.027057376,0.045002118,-1.0186072,62.28000000000001,0.021904862,0.048735426,-1.0350572,0.5447405333333334,1.1684679999999998,13.21915888888889,9.88888888888889,-18.666666666666668,114.33333333333331,-51.77777777777778,18.77777777777778,242.44444444444449,-1059.0,9.88888888888889,301.77777777777777,1015.1096666666666,-3.979435777777777,3115.6666666666665,0.021904862,-0.0036302879999999,0.048735426,-0.0201135595599999,-1.0350572,0.0061905096,62280.0,30082.0,29120.0,10.0,3.0,-5.5,0,None
2023-01-04 08:54:27,229.312,0.104000000000002,100.0,992.0,24170.5,4884.5,97.0,1020.0,355.6,4887.0,98.750796,1.4928012000000002,0.0086379738,0.053397098,-1.0228752,62.278000000000006,0.00413430962,0.05833881,-1.040898,0.57583409,1.02327104,11.8781478,16.9,5.4,118.05,-56.55,-3.5,235.35,-1057.0,-8.65,302.35,1015.079,-4.01016785,3118.4,0.00413430962,0.020772848,0.05833881,0.0103651674,-1.040898,-0.0056928335999999,62275.0,30024.0,29115.0,19.5,-5.0,-9.0,0,None
2023-01-04 08:54:28,230.33980000000005,0.1018999999999976,100.0,1087.0,24175.0,4882.5,97.0,1086.4,358.7,4883.7,98.13520200000002,1.499722,0.03416649,0.04025611,-1.0261972,62.29,0.02859308,0.044493232,-1.0435453999999995,0.47988483,1.6595008999999998,12.526448,17.2,-25.4,100.7,-75.6,3.2,237.0,-1058.0,-0.2,306.9,1015.07,-4.0193202,3121.2,0.02859308,-0.003051972,0.044493232,-0.0429693139999999,-1.0435453999999995,0.016533302,62295.0,30019.5,29135.0,25.5,-9.5,-14.0,0,None
2023-01-04 08:54:29,231.3579,0.1021000000000014,100.0,1016.0,24192.0,4884.0,97.0,1008.0,361.6,4881.6,97.47073999999998,1.5075,0.0210601539999999,0.0307808339999999,-1.0212518,62.324,0.0159773758,0.036353586,-1.0397478,0.5272160300000001,2.0342986,12.5953769,14.8,16.9,115.0,-83.2,2.6,228.9,-1047.6,10.0,321.3,1015.1129,-3.9761952000000007,2880.960000000009,0.0159773758,0.005408758,0.036353586,0.0145216513999999,-1.0397478,-0.016588503,62325.0,30049.0,29165.0,15.0,-15.0,-16.0,1,29_temperature_avg_drift_-2.144999999999915
