00000_Time_epoch,00000_Time_boot_sec,00000_Span_Time_boot_sec,1_battery_remaining_avg,1_current_battery_avg,1_voltage_battery_avg,125_Vcc_avg,147_battery_remaining_avg,147_current_battery_avg,147_current_consumed_avg,165_Vcc_avg,168_direction_avg,168_speed_avg,178_pitch_avg,178_roll_avg,178_yaw_avg,182_altitude_avg,182_pitch_avg,182_roll_avg,182_yaw_avg,241_vibration_x_avg,241_vibration_y_avg,241_vibration_z_avg,27_xacc_avg,27_xgyro_avg,27_xmag_avg,27_yacc_avg,27_ygyro_avg,27_ymag_avg,27_zacc_avg,27_zgyro_avg,27_zmag_avg,29_press_abs_avg,29_press_diff_avg,29_temperature_avg,30_pitch_avg,30_pitchspeed_avg,30_roll_avg,30_rollspeed_avg,30_yaw_avg,30_yawspeed_avg,33_alt_avg,33_hdg_avg,33_relative_alt_avg,33_vx_avg,33_vy_avg,33_vz_avg,label,diagnosis
2022-12-29 14:55:52,96.01,-0.240000000000002,100.0,85.0,25140.5,4883.5,99.0,83.0,19.0,4878.5,28.68668,0.68323665,0.0080785891666666,0.0533677491666666,-1.256041416666667,41.27666666666667,0.0086203024166666,0.0591144941666666,-1.2500233333333337,0.02538588,0.02643276,0.03587386,-4.0,0.5,62.0,-73.5,1.0,279.0,-1064.5,0.0,317.0,1022.1545,-0.04261719,3275.5,0.008601447,0.00139412385,0.0591312875,0.00111595015,-1.25006875,-5.086004500000001e-05,41285.0,28837.5,-5.0,-1.5,2.0,-8.5,0,None
2022-12-29 14:55:53,97.02,0.5,100.0,80.5,25137.0,4869.5,99.0,67.0,19.0,4890.5,28.43065,0.6044563000000001,0.00829706525,0.0531950341666666,-1.2575663333333331,41.27666666666667,0.00863146225,0.0592772066666666,-1.2508501666666667,0.02595313,0.0244661649999999,0.03561902,-4.0,1.0,63.0,-72.5,0.5,278.0,-1066.5,0.0,316.5,1022.1705,-0.02675781,3277.5,0.00863146225,0.0014462042499999,0.0592772066666666,0.0011647504666666,-1.2508501666666667,0.0002667243899999,41290.0,28831.5,0.0,-1.5,2.0,-7.5,0,None
2022-12-29 14:55:54,98.03,0.5100000000000051,100.0,129.0,25095.5,4875.5,99.0,229.5,19.0,4887.5,28.08995,0.74954065,0.0081370160833332,0.0531351374999999,-1.2585961666666663,41.28,0.0086532023333333,0.0593127816666666,-1.2516060833333331,0.1445306999999999,0.20997675,1.76579065,-0.5,-0.5,65.5,-61.0,1.5,281.0,-1070.0,12.5,316.0,1022.195,-0.0025781275,3278.5,0.0086532023333333,3.1913750000000206e-05,0.0593127816666666,0.0018042927083332,-1.2516060833333331,-8.125800000000007e-05,41290.0,28827.5,0.0,-2.0,1.0,-7.5,0,None
2022-12-29 14:55:55,99.0405,0.5004999999999953,100.0,764.5,24841.5,4870.5,99.0,128.0,20.0,4887.5,27.86408,0.93797875,0.0083933285833333,0.0535937633333333,-1.2591558333333333,41.27333333333334,0.0089727565833333,0.0593526141666666,-1.2518441666666666,0.06524759,0.1536478,0.3593262,17.0,2.0,46.0,-35.0,12.0,278.5,-1061.0,14.0,312.0,1022.2665,0.06937499,3280.0,0.0089727565833333,0.0036992218166665,0.0593526141666666,0.0083381521499999,-1.2518441666666666,-7.665016666665004e-05,41280.0,28823.0,-10.0,0.5,4.0,-3.0,0,None
2022-12-29 14:55:56,100.041,0.5,100.0,1647.5,24435.5,4884.0,99.0,1772.5,22.5,4873.0,27.7596,1.1079645,0.01840930825,0.0238912529166667,-1.2539663333333333,41.76083333333334,0.0181239921666667,0.0284293575,-1.2442496666666667,0.42404205,1.3045725,3.05669,-5.0,-97.0,45.0,-18.0,-72.5,269.0,-1267.0,39.5,289.0,1022.303,0.1057812249999999,3282.0,0.0181239921666667,-0.0649718883333333,0.0284293575,-0.112548265,-1.2442496666666667,0.0071766949999999,42000.0,28881.5,710.0,31.5,41.5,145.0,0,None
2022-12-29 14:55:57,101.041,0.5,100.0,1661.0,24379.5,4870.5,99.0,1716.5,27.0,4866.0,27.841245,1.2116005,-0.0292975708333333,-0.0326792316666666,-1.255150083333333,43.97083333333333,-0.02739119,-0.0263123683333333,-1.2579551666666666,0.45665265,1.3575715000000002,2.5017805,-6.0,11.0,64.0,-29.0,18.0,230.5,-1168.0,21.0,300.5,1021.853,-0.3441406,3283.0,-0.02739119,0.0041354143333333,-0.0263123683333333,0.0089720032666666,-1.2579551666666666,-0.0120407192,44520.0,28706.0,3230.0,16.0,12.0,294.0,0,None
2022-12-29 14:55:58,102.042,0.5005000000000024,100.0,1259.5,24475.0,4862.5,99.0,1450.5,32.0,4872.0,27.52209,1.2498775,-0.0160208208333333,-0.0208030983333332,-1.2590211666666664,47.23583333333333,-0.0152842441666666,-0.0159864683333333,-1.3003625,0.44086665,1.1666495,2.2156055,-30.0,18.5,57.5,-16.0,-8.5,231.5,-1004.0,-8.0,308.5,1021.4825,-0.71464845,3284.5,-0.0152842441666666,0.0048264115833333,-0.0159864683333333,0.0031076471,-1.3003625,0.0152388076666666,47815.0,28550.5,6525.0,-0.5,-12.5,296.5,0,None
2022-12-29 14:55:59,103.0415,0.4994999999999976,100.0,913.5,24622.5,4871.0,99.0,978.5,34.5,4874.5,26.71689,1.2273515000000002,-0.0028532015,-0.008200621,-1.26146775,49.71416666666666,-0.0029092529999999,-0.0037352946666666,-1.2997126666666663,0.60806385,1.1551675,1.5837085,11.5,28.0,61.0,13.5,23.0,252.0,-871.5,11.5,318.0,1021.1895,-1.0073828,3286.0,-0.0029092529999999,0.0280085983333333,-0.0037352946666666,0.01884793525,-1.2997126666666663,-0.0012259059166666,49985.0,28556.5,8695.0,-4.0,-16.5,119.5,0,None
2022-12-29 14:56:00,104.064,0.5114999999999981,100.0,1134.0,24558.0,4881.0,99.0,1074.5,37.5,4890.0,26.44699,1.181665,0.009127115,-0.009959271,-1.2657301666666667,50.50666666666666,0.0093313959999999,-0.0078090461666666,-1.301505583333333,0.7253373999999999,0.84909735,2.579743,-6.0,-12.0,56.0,-25.5,-7.5,236.5,-1041.0,15.5,306.5,1021.081,-1.116133,3287.5,0.0093313959999999,0.0032363075,-0.0078090461666666,-0.006951442675,-1.301505583333333,-0.0071754254333333,50560.0,28535.0,9270.0,-5.5,-3.0,16.5,0,None
2022-12-29 14:56:01,105.064,0.5,100.0,1147.0,24544.5,4873.0,99.0,1136.5,40.5,4876.0,26.670585,1.1302205,-0.0046829483999999,-0.0087063384166666,-1.2756754166666666,50.72583333333333,-0.0040444394166666,-0.0065465694166666,-1.308473166666667,0.60153565,0.9086398,3.145194,-18.0,10.5,54.5,17.5,5.0,248.5,-1027.5,-2.5,338.0,1021.06,-1.1371875,3289.5,-0.0040444394166666,-0.0051755261666666,-0.0065465694166666,0.0051002499166666,-1.308473166666667,-0.0053633666666667,50755.0,28499.0,9465.0,-11.5,1.5,-2.5,0,None
2022-12-29 14:56:02,106.064,0.5,100.0,1128.5,24522.5,4872.5,99.0,1128.5,44.0,4892.5,26.92756,1.0760745,-0.0037888424333333,-0.0030021350833333,-1.2819578333333332,50.829166666666666,-0.0034307714999999,-0.0019891987499999,-1.3115100833333333,0.4611524,1.1418015,4.160375999999999,-28.5,9.0,57.5,-40.0,9.0,246.0,-1063.0,-5.5,313.0,1021.045,-1.152031,3291.0,-0.0034307714999999,0.0084339089166666,-0.0019891987499999,0.0086676414166666,-1.3115100833333333,-0.0060389716666666,50845.0,28486.5,9555.0,-10.5,2.0,-10.0,0,None
2022-12-29 14:56:03,107.104,0.5200000000000031,100.0,1157.0,24501.0,4887.5,99.0,1144.0,47.0,4882.0,27.049755,1.022145,-0.0066002699166666,0.0039334969999999,-1.2836070833333333,50.86666666666667,-0.0063656348333333,0.0049641810499999,-1.31040775,0.4576809,1.00893645,4.009552,-6.0,4.5,47.5,0.0,-0.5,252.5,-1082.0,4.0,316.5,1021.055,-1.14168,3292.5,-0.0063656348333333,-0.0052093852499999,0.0049641810499999,0.01252894275,-1.31040775,-0.0021327828333333,50870.0,28492.5,9580.0,-6.5,4.0,-11.0,0,None
2022-12-29 14:56:04,107.874,0.519999999999996,100.0,1153.0,24529.0,4888.0,99.0,1155.0,49.0,4893.0,26.9149,0.9856953,-0.010006472,0.0028154724666666,-1.2853916666666667,50.87,-0.0095112983333333,0.0032318592333333,-1.3099826666666667,0.4607814,1.191495,3.935929,-18.0,-4.0,61.0,-34.0,8.0,281.0,-1076.0,-2.0,322.0,1021.061,-1.135937,3294.0,-0.0095112983333333,0.0086058806666666,0.0032318592333333,-0.0134909283333333,-1.3099826666666667,0.006236999,50870.0,28496.0,9580.0,1.0,4.0,-13.0,0,None
2022-12-29 14:56:05,108.634,0.5100000000000051,100.0,1152.0,24507.5,4885.0,99.0,1179.5,52.0,4889.5,26.48261,0.9552801,-0.0066352526666666,-0.0040721165,-1.2858395833333334,50.855,-0.0061656212499999,-0.0029962748749999,-1.3087015,0.5360815,1.03398515,3.3647675,-14.5,-12.0,57.0,10.0,1.0,244.5,-1066.0,6.5,318.0,1021.063,-1.1341015,3295.0,-0.0061656212499999,0.0015787632333333,-0.0029962748749999,-0.0008876849166666,-1.3087015,0.0018605563333333,50855.0,28501.5,9565.0,2.0,4.5,-10.5,0,None
2022-12-29 14:56:06,109.664,0.519999999999996,100.0,1169.5,24494.0,4881.5,99.0,1149.0,55.5,4888.5,25.734235,0.9181504,-0.0075393246666666,-0.0081590664166666,-1.288627083333333,50.85,-0.0071936963333333,-0.0069042914166666,-1.3094988333333335,0.4826638,1.0331509,2.91949,-25.5,-2.5,60.0,-27.0,10.0,250.5,-1071.5,-0.5,301.5,1021.0725,-1.1245699999999998,3296.5,-0.0071936963333333,-0.0002911168333333,-0.0069042914166666,-0.0096906098333333,-1.3094988333333335,0.0084441008333333,50850.0,28498.5,9560.0,2.5,4.0,-9.5,0,None
2022-12-29 14:56:07,110.694,0.509999999999998,100.0,1168.5,24462.5,4870.5,99.0,1168.0,58.5,4877.0,24.82938,0.8782786,-0.0053638791666666,-0.00752926225,-1.2855545,50.85,-0.0046921390833333,-0.0063491241666666,-1.3045525000000002,0.5012095,1.09379805,3.0034265,-20.5,3.5,61.5,-4.0,4.0,246.5,-1061.0,0.5,313.0,1021.038,-1.1591015,3297.5,-0.0046921390833333,0.0041996343333333,-0.0063491241666666,0.0128713014999999,-1.3045525000000002,0.0020723256666667,50850.0,28532.0,9560.0,-0.5,2.5,-9.5,0,None
2022-12-29 14:56:08,111.724,0.5200000000000031,100.0,1164.5,24468.5,4884.0,99.0,1137.0,62.0,4860.0,23.709375,0.83270425,-0.00208752565,-0.0024184072666666,-1.2859761666666667,50.86,-0.0015472918499999,-0.0014887985833333,-1.3036036666666666,0.55491115,0.94563805,3.4856635,-11.0,-0.5,60.0,-16.0,18.0,266.0,-1035.5,0.0,337.0,1021.067,-1.13,3299.5,-0.0015472918499999,0.0035913056666666,-0.0014887985833333,-0.0012431429666666,-1.3036036666666666,-0.0052247654999999,50865.0,28531.5,9575.0,1.0,4.0,-11.5,0,None
2022-12-29 14:56:09,112.764,0.509999999999998,100.0,1161.0,24439.5,4882.5,99.0,1173.0,65.5,4866.5,22.643925,0.7936637,-0.0044697537499999,-0.0048011770833333,-1.2955185833333334,50.8425,-0.0043464889166666,-0.0035983832666666,-1.3113278333333334,0.50847245,1.06345465,3.798152,-19.5,1.0,61.0,7.0,-3.0,249.0,-1065.5,-7.0,308.0,1021.083,-1.114258,3300.5,-0.0043464889166666,0.0040502576916666,-0.0035983832666666,0.008044668,-1.3113278333333334,0.0044857743999999,50845.0,28488.5,9555.0,0.0,5.5,-8.0,0,None
2022-12-29 14:56:10,114.07,0.2680000000000007,100.0,1153.3333333333333,24412.33333333333,4876.333333333333,99.0,1152.0,70.2,4825.0,21.201434,0.7480439600000001,-0.0017974953555554,0.0014184411133333,-1.289790611111111,50.84333333333333,-0.0008612244333333,0.0016577624638888,-1.3034975,0.50069188,0.96346318,3.3222226,-15.2,5.4,54.2,-22.2,9.0,253.8,-1056.2,8.2,325.6,1021.0658,-1.1312344,3302.6,-0.0008612244333333,0.0016794712222222,0.0016577624638888,0.0015452696827778,-1.3034975,0.0059228427555555,50843.333333333336,28532.0,9553.333333333334,0.6666666666666666,7.0,-8.333333333333334,0,None
2022-12-29 14:56:11,114.89277777777778,0.1067777777777775,100.0,1157.5,24423.5,4880.5,99.0,1158.0,73.66666666666667,4849.888888888889,20.18517222222222,0.7196783999999999,-0.0042039076,0.0027148975999999,-1.285084,50.85,-0.0033726574,0.0020736097,-1.296752,0.5009562333333333,1.0349117333333333,3.380668888888889,-15.11111111111111,-2.1666666666666665,55.66666666666666,-7.277777777777778,-6.388888888888889,234.22222222222223,-1072.7222222222222,9.72222222222222,302.55555555555554,1021.0627777777778,-1.134383611111111,3304.333333333333,-0.0033726574,-0.0065628627999999,0.0020736097,0.0004027796599999,-1.296752,0.0193667158,50850.0,28568.0,9560.0,3.0,10.0,-9.0,0,None
2022-12-29 14:56:12,115.8438888888889,0.1066666666666675,100.0,1177.5,24411.5,4890.0,99.0,1146.3333333333333,76.33333333333333,4868.666666666667,19.05657222222222,0.6902747,-0.0058868659999999,-0.0025590347499999,-1.27908025,50.8475,-0.00515236775,-0.0024100735,-1.2900215000000002,0.4714954444444445,0.9986873888888887,3.4975478888888887,-16.0,-1.3333333333333333,68.33333333333333,-33.55555555555556,5.555555555555555,251.11111111111111,-1060.888888888889,2.7777777777777777,314.8888888888889,1021.0692222222222,-1.1277689999999998,3305.555555555556,-0.00515236775,-0.00866568025,-0.0024100735,-0.00664850625,-1.2900215000000002,0.013524228675,50850.0,28601.5,9560.0,6.0,9.5,-9.0,0,None
2022-12-29 14:56:13,116.847,0.1039999999999991,100.0,1145.5,24336.5,4824.0,99.0,1158.4,79.8,4873.0,17.718777999999997,0.6619498800000001,-0.0050625584,-0.0041361736,-1.2778786,50.852,-0.0041995826,-0.0035437767999999,-1.2887862,0.43189699,1.0181823799999998,3.2804123,-20.85,1.8,64.3,1.2,3.5,246.2,-1066.25,-4.6,314.6,1021.0581,-1.13900785,3306.7,-0.0041995826,-0.0011861511999999,-0.0035437767999999,0.004003502,-1.2887862,0.0108108928,50850.0,28614.5,9560.0,4.5,8.5,-10.0,0,None
2022-12-29 14:56:14,117.873,0.1019999999999995,100.0,1180.5,24324.0,4885.0,99.0,1175.1,83.2,4854.0,16.302088,0.63502864,-0.0072330779999999,-0.0038927616,-1.2819052000000002,50.86,-0.006915699,-0.003200799,-1.2920254000000002,0.47860406,1.0316850199999998,3.0061434,-15.8,-0.2,61.3,-19.2,-1.6,255.4,-1068.9,-6.1,319.8,1021.0615999999998,-1.1355781,3308.2,-0.006915699,0.0036491325999999,-0.003200799,-0.0026610950799999,-1.2920254000000002,-0.0054947056,50860.0,28600.5,9570.0,4.5,7.0,-11.5,0,None
2022-12-29 14:56:15,118.8638888888889,0.1066666666666675,100.0,1169.5,24331.0,4797.0,99.0,1180.6666666666667,86.33333333333333,4834.888888888889,14.755481111111113,0.6104676777777779,-0.0066550368,-0.0042416843999999,-1.2869381999999998,50.856,-0.0059931794,-0.0033270854,-1.2960936000000003,0.4758434777777778,1.0233850444444446,2.571110333333333,-13.833333333333334,2.611111111111111,61.22222222222222,-19.83333333333333,-1.2777777777777777,241.8333333333333,-1073.2222222222222,-0.7222222222222222,303.3333333333333,1021.0645,-1.1325042777777776,3309.4444444444443,-0.0059931794,-6.749600000000369e-06,-0.0033270854,0.00356095296,-1.2960936000000003,-0.019068978,50855.0,28578.5,9565.0,4.0,5.0,-10.0,0,None
2022-12-29 14:56:16,119.88899999999998,0.1060000000000002,100.0,1176.5,24388.0,4893.0,99.0,1173.6,89.5,4870.2,12.96117,0.5855060799999999,-0.0051542508,-0.0064638184,-1.2960526,50.856,-0.0040339982,-0.0047645234,-1.30412,0.4952684100000001,1.0244698,2.3987469,-12.8,-1.3,56.0,-8.5,15.0,248.4,-1062.8,-4.4,318.4,1021.0706,-1.1265703,3311.0,-0.0040339982,0.0162093562,-0.0047645234,-0.0007953744,-1.30412,-0.0095897644,50860.0,28534.5,9570.0,4.5,1.0,-8.5,0,None
2022-12-29 14:56:17,120.88166666666667,0.1044444444444441,100.0,1164.0,24301.0,4876.0,99.0,1178.0,92.88888888888889,4846.555555555556,11.018526666666666,0.5614100000000001,-0.016900782,-0.0044515256,-1.3025056,50.85600000000001,-0.0161207116,-0.0026459995999999,-1.3096216,0.4972806111111111,1.034913311111111,2.323067555555556,-21.27777777777778,4.555555555555555,58.388888888888886,-8.38888888888889,-77.38888888888889,253.38888888888889,-1072.388888888889,-1.8888888888888888,311.22222222222223,1021.0658333333332,-1.1313152222222222,3312.1666666666665,-0.016033757,-0.083725419084,-0.0026056726,0.0052632993999999,-1.3096012,-0.0006443419999999,50855.0,28496.0,9565.0,2.0,1.5,-8.0,0,None
2022-12-29 14:56:18,121.877,0.1060000000000002,100.0,1301.0,24304.5,4878.5,99.0,1285.0,96.4,4837.0,9.2010026,0.53703556,-0.1191254819999999,-0.0038098024,-1.297861,51.054,-0.116466066,-0.0026337998,-1.3046692,0.40091508,1.18077454,3.5255347,-23.1,-3.3,96.3,-14.0,-25.1,253.9,-1116.3,15.8,303.4,1021.0383000000002,-1.1587499,3313.5,-0.116392026,-0.031627522,-0.0025594694,0.00019039718,-1.3046396,0.0072297704,51015.0,28521.5,9725.0,19.0,-58.5,24.5,0,None
2022-12-29 14:56:19,122.86611111111112,0.1044444444444441,100.0,1191.5,24270.0,4808.5,99.0,1198.7777777777778,99.66666666666669,4885.0,7.633818000000001,0.5107047555555556,-0.11567828,-0.0153944662,-1.2992782,51.55800000000001,-0.114021,-0.0137788706,-1.3057698,0.4616332666666667,1.0909855333333334,4.967122111111112,-32.72222222222222,-12.444444444444445,95.72222222222224,-2.388888888888889,5.833333333333333,243.44444444444449,-1067.3333333333333,-11.166666666666666,298.3333333333333,1020.9691666666666,-1.2279472777777778,3314.555555555556,-0.114021,0.0042618694,-0.0137788706,-0.0075086455,-1.3057698,-0.0101847186,51520.0,28525.5,10230.0,50.5,-167.5,38.5,0,None
2022-12-29 14:56:20,123.853,0.1019999999999995,100.0,1198.5,24351.5,4878.0,99.0,1178.3,103.2,4849.7,5.584105200000001,0.484267,-0.12331314,-0.0166208859999999,-1.3066614,52.088,-0.12384262,-0.015232428,-1.3112108,0.52876202,1.11714226,7.375353800000001,-48.0,-3.3,97.5,-9.7,-16.0,244.5,-1064.4,-5.6,304.2,1020.9151,-1.2819689,3254.4955555555584,-0.12384342,-0.0107949048,-0.01522367,-0.0008898774,-1.3112932000000002,-0.0145787302,52050.0,28487.5,10760.0,71.0,-258.0,37.0,1,29_temperature_avg_drift_-2.144999999999915
2022-12-29 14:56:21,124.893,0.1060000000000002,100.0,1148.0,24366.0,4883.0,99.0,1156.1,106.3,4870.8,2.7108508,0.45842908,-0.1303183799999999,-0.0212505819999999,-1.3044658,52.58,-0.13256428,-0.0193762139999999,-1.3086028000000005,0.5721771,1.10106984,7.8949791,-61.8,0.0,102.5,-3.5,-2.8,248.2,-1077.3,3.6,305.0,1020.8999,-1.2972422,3252.3505555555585,-0.13256428,-0.0133680534,-0.0193762139999999,-0.0065975836,-1.3086028000000005,-0.0007871388,52540.0,28503.0,11250.0,89.0,-343.0,39.5,1,29_temperature_avg_drift_-2.144999999999915
2022-12-29 14:56:22,125.89722222222224,0.1044444444444441,100.0,1095.5,24291.5,4813.5,99.0,1086.2222222222222,109.55555555555556,4842.444444444444,-1.0693880333333334,0.432574911111111,-0.12469478,-0.0221015959999999,-1.304499,53.066,-0.126845,-0.020445302,-1.308475,0.6301279999999999,1.1437235555555554,7.989873888888888,-74.61111111111111,-2.5,103.55555555555556,7.0,18.77777777777778,251.66666666666663,-1073.7777777777778,-6.888888888888889,322.8888888888889,1020.8603888888888,-1.3368185,3250.2055555555585,-0.126845,0.0139124036,-0.020445302,-0.0072665693999999,-1.308475,-0.0047360222,53030.0,28502.0,11740.0,106.0,-418.0,46.0,1,29_temperature_avg_drift_-2.144999999999915
2022-12-29 14:56:23,126.887,0.1040000000000006,100.0,1090.0,24342.0,4886.5,99.0,1091.7,112.4,4843.1,-5.3632822,0.40937878,-0.11219338,-0.016878284,-1.309788,53.556,-0.1147753799999999,-0.0129715214,-1.3161766,0.69964615,1.2306755,8.224915900000001,-84.9,18.1,97.8,-3.1,7.7,252.3,-1073.6,-1.2,321.4,1020.8026,-1.3943907000000002,3248.060555555559,-0.1147753799999999,0.0128537096,-0.0129715214,0.0203289382,-1.3161766,0.0059642218,53520.0,28459.0,12230.0,114.0,-473.0,46.0,1,29_temperature_avg_drift_-2.144999999999915
2022-12-29 14:56:24,127.8638888888889,0.1044444444444425,100.0,1092.0,24295.5,4894.0,99.0,1042.888888888889,115.33333333333331,4869.888888888889,-10.116128222222224,0.3893367666666666,-0.1004737474999999,-0.00254346725,-1.3027915,53.9825,-0.1035871974999999,3.724050000000019e-05,-1.31036675,0.7716600222222223,1.1503154555555557,7.208066555555555,-89.77777777777777,-0.1111111111111111,91.66666666666669,8.055555555555555,-9.38888888888889,250.77777777777777,-1040.4444444444443,-1.6666666666666667,307.55555555555554,1020.7579444444444,-1.4391103333333335,3245.915555555559,-0.1032097974999999,0.0008102625,0.00026730175,-0.0076383919,-1.31023375,-0.005211965,53990.0,28492.0,12700.0,126.5,-502.0,42.0,1,29_temperature_avg_drift_-2.144999999999915
2022-12-29 14:56:25,128.871,0.1060000000000002,100.0,948.0,24428.0,4890.0,99.0,935.1111111111112,118.22222222222224,4887.1,-15.269662000000002,0.37184132,-0.099277268,-5.0858200000000224e-05,-1.3058128,54.258,-0.101990484,0.0037444386399999,-1.314606,0.8601875699999999,1.5168358000000002,6.4287957,-97.4,2.9,99.1,-32.5,118.9,253.9,-1059.7,-15.5,314.0,1020.7126999999998,-1.484297,3243.770555555559,-0.101990484,0.093672394,0.0037444386399999,0.012881316,-1.314606,0.007157483,54285.0,28468.0,12995.0,142.0,-525.5,13.5,1,29_temperature_avg_drift_-2.144999999999915
2022-12-29 14:56:26,129.87277777777777,0.1044444444444441,100.0,946.5,24368.0,4894.0,99.0,859.5555555555555,120.66666666666669,4889.444444444444,-19.99323555555556,0.3583385666666666,0.084435678,0.00249640048,-1.302269,54.304,0.079233888,0.0065164568,-1.3101136,0.938549,1.842508555555556,11.984023555555558,-66.38888888888889,3.5,35.55555555555556,1.3333333333333333,126.0,255.3333333333333,-1042.0,-7.5,339.3333333333333,1020.7489444444444,-1.448163888888889,3241.625555555559,0.079233888,0.1135749659999999,0.0065164568,0.010193654,-1.3101136,-0.0120050579999999,54295.0,28495.0,13005.0,129.0,-437.5,0.0,1,29_temperature_avg_drift_-2.144999999999915
2022-12-29 14:56:27,130.86700000000002,0.104000000000002,100.0,1045.5,24371.5,4805.5,99.0,994.2,123.1,4845.4,-24.03324,0.3437622999999999,0.0258830002,0.134519686,-1.3150372,54.264,0.0227808252,0.137337164,-1.3176093999999998,0.95245477,1.5680375999999998,11.957266099999998,-64.6,199.6,46.2,-16.2,-127.3,288.6,-1095.5,14.1,276.7,1020.7028,-1.4943124,3239.480555555559,0.0230961391999999,-0.1442443,0.137342724,0.2107072851999999,-1.3176156,0.0077389308,54265.0,28450.5,12975.0,157.0,-291.0,-3.5,1,29_temperature_avg_drift_-2.144999999999915
2022-12-29 14:56:28,131.90500000000003,0.1039999999999991,100.0,981.0,24337.0,4809.5,99.0,988.2,126.0,4844.6,-26.420820000000003,0.3298181599999999,0.00933236038,0.048796418,-1.3050989999999998,54.336,0.00825725632,0.052696936,-1.3050894,0.70848957,1.2663633,6.7202255,-77.0,-269.5,58.6,-33.4,109.5,267.4,-1043.0,21.6,299.6,1020.6071000000002,-1.5899529,3237.335555555559,0.00825725632,0.1055332919999999,0.052696936,-0.25984389,-1.3050894,0.0221601754,54360.0,28543.5,13070.0,252.0,-210.0,-5.0,1,29_temperature_avg_drift_-2.144999999999915
2022-12-29 14:56:29,132.925,0.0999999999999999,100.0,1156.0,24325.0,4891.5,99.0,1079.3,129.1,4852.1,-27.796104,0.32036336,0.102971938,-0.054120896,-1.286226,54.436,0.100673388,-0.0464888899999999,-1.2785902,0.73541001,1.3623856,8.402831800000001,-47.4,12.7,29.4,-25.1,-61.5,231.9,-1075.3,-1.1,341.8,1020.615,-1.581961,3235.190555555559,0.100673388,-0.0342697521999999,-0.0464888899999999,0.018087938,-1.2785902,-0.00721802474,54435.0,28685.0,13145.0,151.0,-107.5,-18.0,1,29_temperature_avg_drift_-2.144999999999915
2022-12-29 14:56:30,133.89277777777778,0.1022222222222208,100.0,1039.5,24376.0,4894.5,99.0,1015.8888888888888,131.88888888888889,4894.888888888889,-29.203102222222217,0.3154803888888889,0.0127280314,-0.05475504276,-1.3053868,54.5,0.0150252585999999,-0.050917694,-1.2913974,0.6021876111111112,1.1804354444444445,8.244131444444443,-40.72222222222222,72.94444444444444,57.55555555555556,-24.27777777777778,127.16666666666669,230.11111111111111,-1060.4444444444443,-27.88888888888889,333.1666666666667,1020.5743888888888,-1.6226997222222224,3233.0455555555595,0.0150252585999999,0.1109290479999999,-0.050917694,0.060631822,-1.2913974,-0.030505784,54510.0,28586.5,13220.0,52.5,-70.0,-23.5,1,29_temperature_avg_drift_-2.144999999999915
2022-12-29 14:56:31,134.849,0.0999999999999999,100.0,1124.0,24249.0,4892.0,99.0,1144.6,134.8,4876.0,-30.893788,0.3133178599999999,0.062377484,0.0136227668,-1.3211592,54.516,0.062107504,0.014153752,-1.304949,0.6721061199999999,1.2576905000000005,5.329551499999999,-35.8,6.7,26.8,-15.3,-166.8,260.7,-1054.6,0.8,316.8,1020.5608,-1.6363671999999998,3230.9005555555595,0.062107504,-0.184800662,0.014153752,0.0291456599999999,-1.304949,-0.0011610056,54520.0,28518.5,13230.0,15.5,12.0,-24.5,1,29_temperature_avg_drift_-2.144999999999915
2022-12-29 14:56:32,135.851,0.1020000000000009,100.0,1078.5,24355.5,4872.0,99.0,1057.4,137.8,4849.2,-32.420818,0.31419356,-0.0211694632,-0.00119493386,-1.3279864,54.562,-0.0198251046,-0.00104690204,-1.3113616,0.5958023,1.25148,5.698748999999999,-29.4,-27.6,60.3,-23.6,54.3,253.5,-1067.9,-13.4,311.2,1020.5765,-1.6205546000000002,3228.7555555555596,-0.0198251046,0.0688981,-0.00104690204,-0.022592942,-1.3113616,-0.0066807034,54560.0,28476.5,13270.0,16.5,8.0,-28.0,1,29_temperature_avg_drift_-2.144999999999915
2022-12-29 14:56:33,136.86499999999998,0.0999999999999999,100.0,1106.5,24266.5,4825.0,99.0,1081.8,140.8,4846.6,-34.07336399999999,0.3173401,0.008806211,-0.0084678448,-1.3324444,54.54,0.0077587338,-0.0084612178,-1.3161334,0.61713171,1.08298671,8.5572001,-30.3,17.2,47.5,-15.7,-17.2,259.4,-1066.2,5.2,332.5,1020.5943999999996,-1.6026874,3226.6105555555596,0.0077587338,-0.0092277756,-0.0084612178,0.021981014,-1.3161334,0.0007170807999999,54530.0,28462.5,13240.0,1.5,18.0,-23.0,1,29_temperature_avg_drift_-2.144999999999915
2022-12-29 14:56:34,137.86499999999998,0.0999999999999999,100.0,1098.0,24336.0,4897.0,99.0,1095.5,143.8,4894.6,-35.705112,0.32103878,-0.0085722996,-0.00847192184,-1.3229306,54.484,-0.0096743448,-0.0080141851,-1.3089066,0.5372046300000001,1.12338566,8.2008524,-24.7,-14.2,56.4,-15.2,-0.9,248.7,-1070.5,9.8,313.5,1020.6171,-1.5798593,3332.8,-0.0096743448,0.00525066462,-0.0080141851,-0.0139235442,-1.3089066,0.0221673714,54480.0,28507.5,13190.0,-2.0,20.0,-22.0,0,None
2022-12-29 14:56:35,138.86499999999998,0.0999999999999999,100.0,1132.5,24300.5,4897.0,99.0,1122.3,146.8,4894.2,-37.38053,0.3234257399999999,-0.0039029717399999,-0.017167856,-1.315,54.432,-0.005770137,-0.01659297,-1.3023596000000002,0.51856533,1.06552648,5.542828600000001,-21.2,-2.9,50.8,-13.5,8.8,249.6,-1069.2,-0.2,323.9,1020.644,-1.5531719999999998,3334.3,-0.005770137,0.01352031456,-0.01659297,-0.0031212289999999,-1.3023596000000002,-0.00134960754,54425.0,28537.5,13135.0,-12.5,14.5,-14.5,0,None
2022-12-29 14:56:36,139.881,0.102000000000001,100.0,1119.0,24249.5,4884.0,99.0,1122.0,150.0,4867.9,-39.419248,0.32334232,-0.0021385113999999,-0.0108442686,-1.3212716,54.38399999999999,-0.0040991338,-0.010105417,-1.3106046,0.4580100100000001,1.11440372,4.4844861,-22.1,9.1,52.0,-12.1,1.1,254.6,-1071.7,-4.4,322.1,1020.662,-1.5349296,3335.3,-0.0040991338,0.0059546432,-0.010105417,0.0088945828,-1.3106046,-0.0031848374,54380.0,28487.0,13090.0,-22.5,13.5,-11.0,0,None
2022-12-29 14:56:37,140.88500000000005,0.0999999999999999,100.0,1146.5,24227.5,4877.0,99.0,1154.0,153.2,4851.9,-41.501646,0.3219087,-0.0061659634,-0.0037032322,-1.3122382,54.354,-0.0080979276,-0.00257569754,-1.3032886,0.5175273899999999,1.10638571,3.592331,-18.3,14.6,58.4,-14.5,-11.4,259.4,-1072.1,9.5,317.2,1020.6738,-1.5233515000000002,3336.7,-0.0080979276,-0.0128830838,-0.00257569754,0.0151827079999999,-1.3032886,0.0094431588,54350.0,28538.0,13060.0,-25.0,14.5,-8.5,0,None
2022-12-29 14:56:38,141.88500000000005,0.0999999999999999,100.0,1144.0,24308.5,4822.0,99.0,1144.8,156.4,4852.7,-43.194734,0.32597718,-0.014161055,0.0049627972,-1.318328,54.34400000000001,-0.0152777493999999,0.0065640552,-1.3103015999999998,0.51658564,1.0342459100000003,3.5181032,-21.8,-2.5,54.1,-14.3,9.8,248.4,-1067.0,-18.3,306.3,1020.6674,-1.5296719000000003,3337.6,-0.0152777493999999,0.0052822008,0.0065640552,-0.00284393952,-1.3103015999999998,-0.018347433,54345.0,28480.0,13055.0,-18.0,7.5,-7.0,0,None
2022-12-29 14:56:39,142.88500000000005,0.0999999999999999,100.0,1123.5,24314.5,4890.0,99.0,1121.3,159.5,4892.1,-44.926234,0.33247752,-0.0087860944,0.0026386364,-1.3247368000000002,54.34000000000001,-0.0098852826,0.0044664416,-1.318965,0.4954136099999999,0.98004074,4.226445,-17.9,9.4,54.4,-17.9,-2.5,252.4,-1070.0,-2.4,309.6,1020.6731000000002,-1.5240389,3339.0,-0.0098852826,-0.0069465092,0.0044664416,0.0085442269999999,-1.318965,7.777568000000022e-05,54340.0,28441.0,13050.0,-15.0,4.5,-4.5,0,None
2022-12-29 14:56:40,143.88500000000005,0.0999999999999999,100.0,1097.5,24240.5,4808.5,98.3,1097.7,162.6,4888.5,-46.533708,0.3399391,-0.008994032,0.0096626211999999,-1.3237055999999998,54.348,-0.0097967937999999,0.0117684904,-1.3189856,0.49302783,1.1768845000000003,4.5061661,-21.4,2.3,46.6,-22.7,4.8,254.8,-1065.7,1.8,314.2,1020.6751,-1.5219375000000002,3339.8,-0.0097967937999999,0.0071583787999999,0.0117684904,0.0038594416999999,-1.3189856,0.0102522868,54350.0,28444.5,13060.0,-10.0,4.0,-5.5,0,None
2022-12-29 14:56:41,144.88700000000003,0.1019999999999981,100.0,1123.0,24283.5,4871.5,98.0,1126.0,165.7,4888.5,-47.933892,0.3480000399999999,-0.015085286,0.010555627,-1.3098066,54.34400000000001,-0.015546352,0.0124889552,-1.3064801999999998,0.47434227,1.13762841,3.733460800000001,-23.3,-9.8,53.9,-16.1,-1.6,254.9,-1065.1,17.1,306.6,1020.6694,-1.5276248,3341.0,-0.015546352,-0.0051457077,0.0124889552,-0.0029665681999999,-1.3064801999999998,0.0100922324,54345.0,28525.5,13055.0,-2.0,5.0,-7.5,0,None
2022-12-29 14:56:42,145.88033333333334,0.1045555555555557,100.0,1086.5,24230.5,4891.5,98.0,1105.5555555555557,168.88888888888889,4844.111111111111,-49.10652,0.3567762666666667,-0.017320586,0.0022367162199999,-1.3038886,54.348,-0.016949612,0.0046592592,-1.3013476000000002,0.4460694111111111,1.1511377777777776,4.290832666666666,-24.22222222222222,4.777777777777778,55.888888888888886,-17.666666666666668,-0.7222222222222222,248.61111111111111,-1070.7777777777778,-4.888888888888889,308.3333333333333,1020.6672777777776,-1.5297395555555555,3342.0,-0.016949612,0.00476000642,0.0046592592,0.0037569282,-1.3013476000000002,0.0040099112,54355.0,28540.0,13065.0,1.5,-0.5,-6.5,0,None
2022-12-29 14:56:43,146.84933333333333,0.1133333333333344,100.0,1112.0,24272.5,4889.0,98.0,1114.3333333333333,171.77777777777777,4874.555555555556,-50.20139666666666,0.3673228777777778,-0.011177758,0.00202156715,-1.3070075,54.3675,-0.010979736,0.00390907875,-1.30570475,0.5640455222222222,1.098477588888889,3.376886333333333,-21.77777777777778,-5.722222222222222,56.05555555555556,-19.666666666666668,7.111111111111111,258.1111111111111,-1065.0555555555557,2.833333333333333,323.55555555555554,1020.660888888889,-1.5362196666666668,3343.222222222222,-0.010979736,0.00194604175,0.00390907875,-0.00685312,-1.30570475,-0.003727733,54370.0,28523.0,13080.0,3.0,-4.0,-9.0,0,None
2022-12-29 14:56:44,147.904,0.1060000000000002,100.0,1109.0,24270.5,4895.5,98.0,1111.8,175.1,4875.7,-51.21870800000001,0.37890946,-0.0076278131666666,0.0026059710833333,-1.296133166666667,54.376666666666665,-0.0074883829999999,0.0040270076666666,-1.296034,0.47754164,1.1555871999999998,4.366668,-25.6,9.8,57.2,-21.9,-0.4,245.0,-1066.2,2.9,303.8,1020.6554999999998,-1.5414766,3344.3,-0.0074883829999999,-0.0007879961666666,0.0040270076666666,0.0035896135,-1.296034,0.0067344156666666,54380.0,28590.5,13090.0,2.5,-1.5,-10.0,0,None
2022-12-29 14:56:45,148.85822222222222,0.0977777777777772,100.0,1095.5,24240.5,4819.0,98.0,1110.6666666666667,178.11111111111111,4889.555555555556,-52.05867222222222,0.3892242222222222,-0.0083953635,0.00142431,-1.3004907499999998,54.38,-0.00826059725,0.00276895525,-1.30116325,0.4602009333333334,1.1175749333333334,4.186800444444444,-21.666666666666668,-10.333333333333334,55.0,-14.444444444444445,-7.555555555555555,252.0,-1063.0,-9.88888888888889,315.55555555555554,1020.6566666666666,-1.5405554444444445,3345.333333333333,-0.00826059725,-0.00974599815,0.00276895525,-0.0100294315,-1.30116325,-0.0193854925,54380.0,28553.0,13090.0,4.0,1.0,-9.0,0,None
2022-12-29 14:56:46,149.864,0.1080000000000012,100.0,1127.0,24219.0,4890.0,98.0,1113.5,181.1,4848.3,-52.832562,0.3994464199999999,-0.013712336,-0.0068423842,-1.3099974,54.386,-0.0123048878,-0.0053681352,-1.3108306,0.4153469399999999,1.1467182,5.5769284,-23.35,1.15,51.3,-14.55,0.9,241.65,-1063.5,-1.15,309.35,1020.65455,-1.5425819499999998,3346.5,-0.0123048878,0.0027426968,-0.0053681352,0.00274504256,-1.3108306,0.0020716289999999,54385.0,28495.5,13095.0,1.0,1.5,-10.0,0,None
2022-12-29 14:56:47,150.8909,0.1000999999999976,100.0,1121.0,24240.0,4888.0,98.0,1121.3,184.2,4890.6,-53.57003399999999,0.4099060599999999,-0.0130865272,-0.001096696204,-1.3021288000000002,54.396,-0.0117157062,0.00025254802,-1.3042212,0.44199215,1.13841161,4.352546200000001,-20.8,7.0,55.1,-20.6,8.4,250.3,-1063.4,7.9,310.0,1020.6399,-1.5571249,3347.5,-0.0117157062,0.0074339387999999,0.00025254802,0.00221534158,-1.3042212,0.0116503728,54395.0,28520.5,13105.0,-2.5,-1.5,-10.0,0,None
2022-12-29 14:56:48,151.8889,0.0999999999999999,100.0,1140.0,24269.0,4888.5,98.0,1130.2,187.5,4878.1,-54.30540599999999,0.42050666,-0.009805797,-0.0057142268,-1.3085216000000002,54.414,-0.0087659598,-0.00452352252,-1.3112594000000002,0.50342351,1.10957448,3.2040937,-22.6,-12.3,55.5,-13.4,-1.7,245.7,-1063.2,-14.9,307.8,1020.6367000000002,-1.5604374,3348.7,-0.0087659598,-0.0033832717999999,-0.00452352252,-0.0186830844,-1.3112594000000002,-0.0169706499999999,54415.0,28501.0,13125.0,-1.0,-1.5,-13.5,0,None
2022-12-29 14:56:49,152.889,0.0999999999999999,100.0,1126.0,24200.5,4894.0,98.0,1125.5,190.5,4862.6,-54.995802000000005,0.43103884,-0.007753272,-0.0032487839,-1.307522,54.41799999999999,-0.0059860065,-0.00146885804,-1.3108782,0.5407483300000001,0.93794946,5.4657024,-24.6,51.0,55.4,-10.9,21.5,256.2,-1065.5,8.5,313.9,1020.6477,-1.5494843,3349.8,-0.0059860065,0.021395026,-0.00146885804,0.0395082206,-1.3108782,0.0119519916,54420.0,28474.5,13130.0,-8.0,-2.5,-14.5,0,None
2022-12-29 14:56:50,153.89100000000002,0.0999999999999999,100.0,1152.5,24240.0,4819.0,98.0,1153.2,193.8,4849.7,-55.691086,0.44102376,0.01613891,0.1027233099999999,-1.295555,54.39399999999999,0.016542042,0.102518874,-1.3007932,0.4260778099999999,1.15287734,4.2954322,-18.9,-64.5,44.9,-25.5,-37.8,277.5,-1071.9,11.8,276.9,1020.6531,-1.5438124,3350.9,0.016542042,-0.035412584,0.102518874,-0.0462334939999999,-1.3007932,0.0080539316,54395.0,28542.0,13105.0,19.0,17.5,-13.5,0,None
2022-12-29 14:56:51,154.8889,0.0999999999999999,100.0,1142.5,24170.0,4819.5,98.0,1131.3,196.8,4846.4,-56.18930400000001,0.45013716,-0.032371656,-0.098941046,-1.2947446,54.396,-0.031127074,-0.09469605,-1.298933,0.4812318299999999,1.0546765800000002,3.0707798,-19.0,-107.5,66.5,-19.2,24.7,228.7,-1072.3,-2.8,341.9,1020.6565,-1.5406642,3352.0,-0.031127074,0.0218056444,-0.09469605,-0.125386376,-1.298933,-0.00267201164,54395.0,28564.5,13105.0,50.5,29.5,-11.0,0,None
2022-12-29 14:56:52,155.903,0.102000000000001,100.0,1149.5,24243.5,4891.5,98.0,1159.9,200.2,4887.5,-56.433162,0.4574923,0.0066911096,-0.115918958,-1.2964126,54.382000000000005,0.0080395496,-0.11235313,-1.3014488,0.47176553,1.0976958300000002,4.361784800000001,-17.6,87.0,50.7,-9.1,39.9,215.7,-1084.0,9.0,352.1,1020.6521,-1.5449531,3353.2,0.0080395496,0.0321061178,-0.11235313,0.090374828,-1.3014488,-0.0029601332,54385.0,28545.0,13095.0,-64.5,-15.5,-10.5,0,None
2022-12-29 14:56:53,156.92299999999997,0.102000000000001,100.0,1099.0,24261.5,4891.5,98.0,1097.4,203.4,4891.4,-56.618004000000006,0.4630623,0.03415032,-0.0017083248,-1.3081934,54.408,0.03457189,-0.0027765356,-1.3143896000000002,0.49606527,1.08264534,6.3558732,-21.2,52.1,40.7,-11.0,72.7,247.4,-1046.7,-22.2,312.3,1020.6363,-1.5607891,3354.3,0.03457189,0.07399928162,-0.0027765356,0.07565839628,-1.3143896000000002,-0.027211158,54405.0,28492.5,13115.0,-139.5,-15.0,-10.0,0,None
2022-12-29 14:56:54,157.89700000000005,0.1022222222222208,100.0,1184.0,24151.5,4888.0,98.0,1160.4444444444443,206.3333333333333,4843.888888888889,-56.913,0.4694095,0.09370838,-0.0002313431999999,-1.311553,54.412,0.092531532,-0.0003113889999999,-1.3179412,0.4731162777777777,0.992061,7.202734888888888,-3.111111111111111,56.27777777777778,12.77777777777778,6.166666666666667,-197.88888888888889,248.94444444444449,-1066.388888888889,12.61111111111111,318.8333333333333,1020.6504444444444,-1.5466275555555555,3355.333333333333,0.092531532,-0.1498502059999999,-0.0003113889999999,0.0410620431999999,-1.3179412,0.0128528972,54415.0,28443.0,13125.0,-144.0,59.5,-15.5,0,None
2022-12-29 14:56:55,158.84700000000004,0.0999999999999999,100.0,1145.5,24214.5,4895.5,98.0,1141.6,209.5,4893.3,-57.146636,0.4744067,-0.113484632,0.0463429498,-1.2882789999999995,54.398,-0.1099699879999999,0.0451230776,-1.2959644,0.4220556,0.99454734,4.318946400000001,-15.3,-45.9,85.2,-16.9,-43.6,263.6,-1075.1,20.9,280.2,1020.6548,-1.5422578,3356.3,-0.1099699879999999,-0.0368748819999999,0.0451230776,-0.052021514,-1.2959644,0.040005088,54400.0,28548.5,13110.0,-110.5,77.5,-14.0,0,None
2022-12-29 14:56:56,159.84700000000004,0.0999999999999999,100.0,1140.5,24171.5,4825.5,98.0,1145.2,212.8,4895.3,-57.576174,0.47871516,-0.12025506,-0.0196965522,-1.297711,54.39,-0.11862322,-0.0178882834,-1.3070980000000003,0.48980664,1.0485028499999998,3.0290548,-22.9,-12.9,92.9,-14.4,37.3,249.3,-1074.9,-31.9,307.5,1020.6631999999996,-1.5339922,3357.5,-0.11862322,0.0336923698,-0.0178882834,-0.01813984606,-1.3070980000000003,-0.0147623021999999,54390.0,28539.5,13100.0,-47.5,-31.5,-11.0,0,None
2022-12-29 14:56:57,160.853,0.102000000000001,100.0,1124.0,24240.0,4888.0,98.0,1105.1,215.8,4878.0,-57.96572,0.48485604,0.08097478,0.0352505998,-1.241074,54.398,0.0775039239999999,0.03695511804,-1.2522784,0.57035709,1.0883983599999998,6.589353300000001,-21.6,39.1,40.7,-15.2,169.6,267.3,-1073.4,232.0,320.1,1020.6482,-1.5487968,3358.3,0.0775039239999999,0.184038104,0.03695511804,0.0463798319999999,-1.2522784,0.2300423566,54395.0,28605.5,13105.0,-33.0,-89.5,-10.0,0,None
2022-12-29 14:56:58,161.91699999999997,0.1060000000000002,100.0,1144.5,24177.5,4893.0,98.0,1150.8,219.1,4859.0,-58.446788000000005,0.4914656199999999,-0.0226684742,0.03783735,-0.98941044,54.40599999999999,-0.0260051844,0.039671236,-0.998818,0.5473409,1.0347479199999998,3.8193637,-13.8,-37.3,139.8,-19.3,-116.6,241.3,-1063.8,-40.9,304.8,1020.6597,-1.5373908000000005,3359.5,-0.0260051844,-0.1242104719999999,0.039671236,-0.037661888,-0.998818,-0.062732466,54410.0,30308.0,13120.0,-22.0,1.5,-14.5,0,None
2022-12-29 14:56:59,162.90144444444448,0.1044444444444441,100.0,1119.0,24214.5,4891.5,98.0,1134.111111111111,222.3333333333333,4850.111111111111,-58.77488111111112,0.4985568777777778,-0.022483352,0.018744208,-1.3721378000000002,54.38,-0.0223314026,0.021880512,-1.3832998,0.3949462888888889,1.0030621999999998,3.799679777777778,-20.27777777777778,-25.72222222222222,42.77777777777778,-12.0,32.111111111111114,261.22222222222223,-1068.1666666666667,-305.44444444444446,303.3888888888889,1020.6632777777776,-1.533858388888889,3360.333333333333,-0.0223314026,0.036034308,0.021880512,-0.034534078,-1.3832998,-0.3263388859999999,54385.0,28390.0,13095.0,9.5,-5.0,-10.5,0,None
2022-12-29 14:57:00,163.869,0.1019999999999981,100.0,1105.0,24182.0,4893.0,98.0,1114.7,225.2,4897.0,-58.844872,0.5076965,-0.00099190688,0.0103542299999999,-1.4390136,54.372,-0.00032038486,0.014161794,-1.4489088,0.50708737,1.1568124999999998,3.767222,-20.7,-2.7,9.8,-24.4,7.0,259.9,-1068.2,30.0,313.6,1020.6612,-1.5359452999999998,3361.7,-0.00032038486,0.0135240752,0.014161794,-0.0055740662,-1.4489088,0.0345089324,54370.0,27675.0,13080.0,21.0,-4.5,-9.0,0,None
2022-12-29 14:57:01,164.86700000000002,0.0980000000000018,100.0,1145.5,24196.5,4805.5,98.0,1146.4,228.5,4889.6,-58.70759,0.51728416,-0.005853907,0.011504424,-1.4363892,54.372,-0.0039105698,0.0148758924,-1.4463612,0.50019437,1.08379348,4.189574499999999,-16.9,13.5,14.0,-28.6,-1.8,261.8,-1060.9,-5.2,311.0,1020.6521,-1.5447265,3362.5,-0.0039105698,0.0014398669999999,0.0148758924,0.0137404902,-1.4463612,-0.00734972948,54370.0,27719.0,13080.0,16.5,2.5,-10.5,0,None
2022-12-29 14:57:02,165.86700000000002,0.0999999999999999,100.0,1147.0,24194.5,4888.5,98.0,1147.0,231.5,4890.0,-58.40938399999999,0.52596076,-0.0063173239999999,0.014278636,-1.4389052,54.39,-0.0037351254,0.01635099,-1.4478922,0.44814165,1.12745585,4.664286899999999,-15.2,-6.8,14.8,-27.2,-0.3,265.8,-1067.7,1.4,313.7,1057.4565444444445,-1.5466094,3363.4,-0.0037351254,0.0004238944,0.01635099,-0.00875900048,-1.4478922,-0.0004812656,54390.0,27708.5,13100.0,16.0,2.5,-10.0,1,29_press_abs_avg_drift_0.5257777777777785
2022-12-29 14:57:03,166.86700000000002,0.0999999999999999,100.0,1133.0,24166.5,4896.5,98.0,1138.2,234.8,4851.6,-57.89125999999999,0.5348814000000001,0.00205169066,0.002635049,-1.4423776,54.396,0.004918679,0.005009964,-1.4495094,0.41649858,1.07247884,4.5094214,-15.8,-8.6,11.6,-31.3,20.5,264.2,-1064.3,-6.2,315.4,1057.9823222222224,-1.5438671,3364.5,0.004918679,0.0152855921399999,0.005009964,-0.00871689948,-1.4495094,-0.010982429,54390.0,27703.0,13100.0,17.0,0.0,-10.5,1,29_press_abs_avg_drift_0.5257777777777785
2022-12-29 14:57:04,167.881,0.1019999999999981,100.0,1125.5,24224.5,4887.5,98.0,1133.6,237.9,4854.9,-57.342858,0.54272694,0.0107654624,0.007255728,-1.4446574,54.4,0.0127648162,0.0100373346,-1.4497962,0.50681506,1.0941241,4.981942200000001,-11.2,15.4,6.2,-24.7,-2.8,259.9,-1081.7,13.2,324.1,1058.5081,-1.5370624999999998,3365.5,0.0127648162,-0.0162314594,0.0100373346,0.010753751,-1.4497962,0.0108379751999999,54400.0,27678.5,13110.0,7.0,5.0,-11.5,1,29_press_abs_avg_drift_0.5257777777777785
2022-12-29 14:57:05,168.915,0.104000000000002,100.0,1161.5,24153.5,4835.0,98.0,1155.0,241.3,4849.8,-56.853756,0.5480041200000001,0.00243105134,0.0136165484,-1.4278506,54.39,0.0049144808,0.015639076,-1.4323077999999998,0.4663554599999999,1.2692424000000002,3.2918248,-17.8,-4.2,13.9,-25.9,-1.3,250.9,-1061.4,6.8,299.6,1059.033877777778,-1.539914,3366.5,0.0049144808,-0.002456462758,0.015639076,-0.00833064466,-1.4323077999999998,0.0032996735999999,54390.0,27791.5,13100.0,5.5,15.5,-12.0,1,29_press_abs_avg_drift_0.5257777777777785
2022-12-29 14:57:06,169.90144444444448,0.1044444444444441,100.0,1147.0,24191.0,4900.0,98.0,1143.5555555555557,244.3333333333333,4892.555555555556,-56.19326777777778,0.5526732,-0.001958113875,0.001735030875,-1.4382842500000002,54.39,2.949750000000068e-06,0.00352707975,-1.4429532500000002,0.5038405888888888,1.1363311111111112,3.142428222222222,-17.38888888888889,-7.666666666666667,13.166666666666666,-18.61111111111111,-6.777777777777778,256.44444444444446,-1070.2777777777778,-18.55555555555556,316.22222222222223,1059.5596555555555,-1.5411718888888888,3367.555555555556,2.949750000000068e-06,-0.017056895,0.00352707975,-0.00355018325,-1.4429532500000002,-0.0158254962499999,54390.0,27742.0,13100.0,5.5,18.0,-10.5,1,29_press_abs_avg_drift_0.5257777777777785
2022-12-29 14:57:07,170.85100000000003,0.0979999999999989,100.0,1160.5,24207.5,4898.0,98.0,1151.4,247.5,4866.2,-55.579108,0.5564788600000001,-0.0039823718,-0.0023047316,-1.448716,54.39,-0.0015497026399999,-0.00052645984,-1.4529267999999995,0.50150811,1.05421562,3.2878789000000004,-15.5,12.1,12.7,-23.0,8.2,260.6,-1063.9,2.5,315.7,1060.0854333333334,-1.5422736,3368.8,-0.0015497026399999,0.00772160312,-0.00052645984,0.0077858133999999,-1.4529267999999995,-0.0077154461999999,54390.0,27673.0,13100.0,-3.0,14.0,-10.5,1,29_press_abs_avg_drift_0.5257777777777785
2022-12-29 14:57:08,171.85100000000003,0.0999999999999999,100.0,1153.0,24147.0,4885.5,98.0,1159.8,250.7,4890.3,-55.014056,0.56010412,-0.0032733614,0.0151115942,-1.4459768,54.4,-0.0014911739599999,0.016532056,-1.4489116000000002,0.48404437,1.1128167100000002,2.7761868,-13.9,5.6,11.8,-20.9,-2.9,264.0,-1065.7,6.3,306.9,1060.6112111111113,-1.5401560999999997,3369.7,-0.0014911739599999,-0.0029190805199999,0.016532056,0.00824064202,-1.4489116000000002,0.0069710264399999,54400.0,27701.5,13110.0,-4.0,12.0,-11.5,1,29_press_abs_avg_drift_0.5257777777777785
2022-12-29 14:57:09,172.853,0.0999999999999999,100.0,1184.5,24168.5,4895.5,98.0,1168.1,253.8,4877.6,-54.442094,0.5636593000000001,-0.0059511365999999,0.0058809102,-1.4406241999999998,54.38399999999999,-0.004056523,0.0075012808,-1.442203,0.47096494,1.1407949,3.0950708,-15.9,-4.4,14.6,-21.6,2.6,259.7,-1069.8,7.5,315.3,1061.136988888889,-1.531125,3370.6,-0.004056523,-0.00310440736,0.0075012808,-0.0135599148,-1.442203,0.0093564418,54380.0,27737.5,13090.0,1.0,10.0,-11.0,1,29_press_abs_avg_drift_0.5257777777777785
2022-12-29 14:57:10,173.85110000000003,0.0999999999999999,100.0,1141.0,24107.5,4828.0,98.0,1151.0,257.2,4853.3,-53.88347600000001,0.5672855,-0.0045736212,0.0071307207999999,-1.4393714,54.372,-0.00274759094,0.0087691084,-1.4401077999999998,0.4760382700000001,1.1414423,3.0709854,-15.9,-4.3,15.6,-16.9,3.4,258.7,-1061.1,-0.8,310.7,1061.6627666666668,-1.5397655,3371.6,-0.00274759094,0.000453917,0.0087691084,-0.0005412848,-1.4401077999999998,8.582999999999993e-05,54370.0,27749.0,13080.0,1.0,7.0,-8.0,1,29_press_abs_avg_drift_0.5257777777777785
2022-12-29 14:57:11,174.863,0.102000000000001,100.0,1136.5,24189.0,4897.0,98.0,1135.9,260.3,4891.4,-53.363346,0.57089408,-0.00146775,0.0005634104333333,-1.4374026666666666,54.385,0.0004951343,0.002685468,-1.437671666666667,0.4571329111111111,1.1127412222222222,3.0905893333333334,-17.8,7.1,17.1,-22.8,6.3,256.4,-1065.3,13.0,311.0,1062.1885444444445,-1.5348125,3372.9,0.0004951343,-0.0038417913333333,0.002685468,0.0015088952,-1.437671666666667,0.0120432633333333,54385.0,27757.5,13095.0,0.0,7.0,-9.5,1,29_press_abs_avg_drift_0.5257777777777785
2022-12-29 14:57:12,175.88299999999998,0.1019999999999981,100.0,1136.5,24134.0,4885.0,98.0,1129.0,263.5,4845.8,-52.863396,0.57444984,-0.011802661,0.0108745185999999,-1.4259318,54.39,-0.0097879042,0.013375022,-1.4241422,0.43008205,1.20430688,3.0929549,-19.7,4.7,18.9,-18.7,-10.7,270.0,-1065.0,10.7,331.5,1062.7143222222223,-1.5408672,3373.9,-0.0097879042,-0.0091198172,0.013375022,0.0094684614,-1.4241422,0.0074337432,54390.0,27833.5,13100.0,-1.5,11.5,-10.5,1,29_press_abs_avg_drift_0.5257777777777785
2022-12-29 14:57:13,176.87122222222223,0.1067777777777791,100.0,1146.0,24165.0,4814.0,98.0,1140.4444444444443,266.6666666666667,4846.111111111111,-52.41025111111112,0.5779385222222222,-0.0119479,0.00777564125,-1.42264725,54.3875,-0.009907181,0.0104196025,-1.420027,0.5059988555555556,0.9822016666666666,3.487532666666666,-21.11111111111111,-2.888888888888889,27.0,-23.77777777777778,4.833333333333333,259.44444444444446,-1066.888888888889,5.055555555555555,309.72222222222223,1063.2401,-1.5370834444444446,3374.777777777778,-0.0099937135,0.006255007025,0.0103909325,-0.00411920475,-1.41989375,0.00873050525,54385.0,27865.5,13095.0,2.0,8.5,-11.0,1,29_press_abs_avg_drift_0.5257777777777785
2022-12-29 14:57:14,177.88399999999996,0.1060000000000002,100.0,1123.0,24140.5,4899.5,98.0,1124.8,269.8,4848.6,-51.962912,0.58258732,-0.015839526,0.0060170648,-1.4207704,54.384,-0.013729492,0.0082191646,-1.4163336,0.50747299,1.0024993600000005,2.6854986000000003,-22.9,-2.0,27.5,-24.5,1.6,266.2,-1061.0,2.2,320.9,1063.7658777777779,-1.5450468000000002,3375.8,-0.013717686,0.0064389862,0.0081658478,0.0011991416,-1.4162719999999998,0.0036013786,54385.0,27889.0,13095.0,2.5,5.5,-9.5,1,29_press_abs_avg_drift_0.5257777777777785
2022-12-29 14:57:15,178.89355555555554,0.1066666666666675,100.0,1135.0,24178.5,4902.0,98.0,1142.2222222222222,272.8888888888889,4856.555555555556,-51.599316666666674,0.5880489999999999,-0.013010858,0.00636050718,-1.4214048,54.396,-0.0110951748,0.0094875326,-1.4157704,0.4659101555555555,1.2067045555555558,3.147198,-24.77777777777778,7.5,26.166666666666668,-30.83333333333333,4.0,251.5,-1065.4444444444443,-6.444444444444445,304.22222222222223,1064.2916555555557,-1.5506248333333337,3376.777777777778,-0.0110951748,-0.00150372488,0.0094875326,0.0064494164,-1.4157704,0.0058027408,54395.0,27890.0,13105.0,2.0,1.5,-11.5,1,29_press_abs_avg_drift_0.5257777777777785
2022-12-29 14:57:16,179.882,0.1019999999999981,100.0,1134.0,24182.5,4902.0,98.0,1124.4,276.1,4876.5,-51.302448000000005,0.5940507,-0.0113337236,0.0056333632,-1.4288529999999997,54.398,-0.0093746088,0.0088438868,-1.4220334,0.5127232222222222,0.9068202555555556,3.824229333333333,-21.0,5.8,18.8,-20.7,-2.0,250.1,-1066.1,5.9,318.7,1020.6484,-1.5486014,3377.9,-0.0093746088,-0.0013498322,0.0088438868,0.0118940068,-1.4220334,0.010808032,54395.0,27852.0,13105.0,1.0,1.0,-11.0,0,None
2022-12-29 14:57:17,180.89,0.0999999999999999,100.0,1127.5,24110.0,4816.5,98.0,1132.3,279.2,4866.1,-51.015498,0.6006412,-0.0070381462,0.0090351628,-1.4270958,54.4,-0.0048832948,0.0115798242,-1.420116,0.49785224,1.0935357199999998,4.190688,-24.5,-7.8,22.0,-21.8,8.4,243.4,-1060.3,-7.1,292.7,1020.6562,-1.5408672,3379.1,-0.0048832948,0.0065598097999999,0.0115798242,-0.00959508396,-1.420116,-0.0099286268,54400.0,27861.0,13110.0,2.0,3.0,-12.0,0,None
2022-12-29 14:57:18,181.908,0.1039999999999991,100.0,1142.5,24172.5,4899.5,98.0,1139.6,282.5,4892.5,-50.73675999999999,0.6072262,-0.01106296,0.0084095135999999,-1.4338736,54.408,-0.0088158336,0.0110045063999999,-1.4270832000000002,0.49163872,0.96954895,4.9000991,-21.6,15.6,22.8,-21.4,-0.3,254.8,-1062.8,1.6,311.7,1020.6376,-1.559453,3380.0,-0.0088158336,0.0014381692,0.0110045063999999,0.019170144,-1.4270832000000002,0.0020583678,54410.0,27824.0,13120.0,0.0,6.0,-13.5,0,None
2022-12-29 14:57:19,182.8957777777778,0.1022222222222239,100.0,1179.5,24086.5,4830.0,98.0,1187.0,285.6666666666667,4863.666666666667,-50.45942,0.6137951555555556,-0.00760172775,0.01112516875,-1.433306,54.4075,-0.00554208775,0.013542965,-1.42622325,0.4615889444444444,1.051360177777778,5.134232777777778,-22.05555555555556,-7.555555555555555,26.166666666666668,-30.33333333333333,5.388888888888889,263.3333333333333,-1062.1666666666667,7.722222222222222,308.05555555555554,1020.644111111111,-1.553012,3381.111111111112,-0.00554208775,0.003117425,0.013542965,-0.01645485825,-1.42622325,0.003505834175,54410.0,27833.5,13120.0,2.5,8.0,-14.0,0,None
2022-12-29 14:57:20,183.87,0.102000000000001,100.0,1160.0,24140.0,4904.5,98.0,1174.2,288.8,4894.0,-50.174742,0.6201474199999999,-0.00828354825,0.005161692,-1.423466,54.40599999999999,-0.0065410458,0.008031445,-1.4161899999999998,0.45495618,1.1123677500000002,4.2093343,-20.4,-2.4,28.5,-17.4,-2.3,263.4,-1066.8,0.4,321.6,1020.6492,-1.5478515,3382.0,-0.0065410458,0.0024815595999999,0.008031445,-0.0012974722199999,-1.4161899999999998,0.0047154884,54405.0,27888.5,13115.0,2.5,8.0,-12.0,0,None
2022-12-29 14:57:21,184.888,0.1039999999999991,100.0,1135.5,24115.5,4892.5,98.0,1146.8,292.2,4891.0,-49.893354,0.6265094199999999,-0.0118371439999999,0.0042959166,-1.4313334,54.40999999999999,-0.0098744088,0.0073027107999999,-1.4216601999999998,0.4407128444444444,1.0901470555555557,4.223417777777778,-22.7,4.5,25.2,-21.3,9.9,255.9,-1063.9,-6.8,311.2,1020.6424,-1.5546330000000002,3383.1,-0.0097395335,0.0136950425,0.0076799732499999,0.0050874197,-1.4221992499999998,0.0015105994999999,54410.0,27851.0,13120.0,2.5,6.0,-12.5,0,None
2022-12-29 14:57:22,185.878,0.1044444444444441,100.0,1136.5,24068.5,4891.5,98.0,1155.2222222222222,295.22222222222223,4871.333333333333,-49.654584444444446,0.632712477777778,-0.006210971,0.00076191858,-1.4381194000000002,54.418000000000006,-0.0045666734,0.0032611293799999,-1.4276156,0.4399886555555555,1.1431894666666669,4.183904444444445,-18.88888888888889,-14.944444444444445,22.5,-17.77777777777778,-2.0,251.0,-1064.3333333333333,-4.166666666666667,310.8888888888889,1020.636,-1.5610415555555557,3384.0,-0.0045666734,-0.00521054,0.0032611293799999,-0.0171605453999999,-1.4276156,-0.002961302,54420.0,27815.5,13130.0,2.0,7.5,-14.0,0,None
2022-12-29 14:57:23,186.866,0.102000000000001,100.0,1167.0,24039.0,4897.0,98.0,1172.0,298.5,4849.9,-49.445972000000005,0.63865702,-0.0085292592,-0.0003303754,-1.4385054,54.418000000000006,-0.0063394208,0.0017724473999999,-1.4278331999999998,0.43067728,1.3115932,3.7755446,-16.5,21.9,20.3,-15.4,5.0,257.6,-1067.3,6.5,322.3,1020.6605,-1.536547,3385.1,-0.0063394208,0.0032937614,0.0017724473999999,0.017917734,-1.4278331999999998,0.0033899179999999,54415.0,27823.0,13125.0,-5.5,4.5,-13.5,0,None
2022-12-29 14:57:24,187.892,0.1039999999999991,100.0,1164.0,24125.0,4829.5,98.0,1175.4,301.8,4891.9,-49.284116,0.64408048,-0.0077227182,0.014899532,-1.4358934,54.386,-0.0054428362,0.016727004,-1.4251124000000002,0.4379373999999999,1.0852696000000002,4.084422699999999,-20.6,0.7,23.4,-26.6,1.7,258.1,-1066.5,-2.3,310.1,1020.667,-1.5302656,3386.0,-0.0054428362,-0.0011238936,0.016727004,0.0015576599999999,-1.4251124000000002,0.0041377968,54380.0,27837.0,13090.0,0.0,4.0,-10.5,0,None
2022-12-29 14:57:25,188.91,0.1019999999999981,100.0,1166.0,24125.0,4890.0,98.0,1174.5,305.2,4890.6,-49.095986,0.64943838,-0.00370457884,0.009107466,-1.4341795999999998,54.38199999999999,-0.00176986134,0.01114052,-1.4230506,0.4691161700000001,1.11622688,3.2252349,-15.4,-1.0,22.7,-11.3,4.1,257.5,-1062.6,6.7,309.2,1020.6536,-1.5435702,3387.3,-0.00176986134,7.870339999999955e-05,0.01114052,-0.003286959,-1.4230506,-0.0074697545999999,54385.0,27848.5,13095.0,5.5,6.0,-11.0,0,None
2022-12-29 14:57:26,189.92800000000005,0.0999999999999999,100.0,1182.5,24060.0,4828.0,98.0,1176.7,308.6,4849.8,-48.85974799999999,0.6545673399999999,-0.0034291261999999,0.00260559396,-1.4361026,54.392,-0.00146181154,0.00521006604,-1.4250618000000004,0.4512913099999999,1.0630432399999998,2.3712974000000004,-16.3,-7.2,25.5,-27.6,2.0,258.8,-1063.0,-5.7,306.8,1020.6472,-1.5499219000000004,3388.0,-0.00146181154,0.008361634,0.00521006604,-0.0064639542,-1.4250618000000004,-0.0023835882599999,54395.0,27828.5,13105.0,5.5,8.0,-11.0,0,None
2022-12-29 14:57:27,190.8957777777778,0.1044444444444473,100.0,1196.5,24105.5,4894.0,98.0,1186.3333333333333,311.6666666666667,4889.375,-48.60608222222223,0.6591852222222223,-0.00344358575,0.0054028129999999,-1.43581375,54.41,-0.0012968533,0.0082926854999999,-1.42445225,0.4377208555555555,1.147202377777778,2.425013,-14.666666666666666,12.166666666666666,20.11111111111111,-13.22222222222222,3.888888888888889,253.72222222222223,-1059.7222222222222,3.9444444444444446,317.6666666666667,1020.6450625,-1.5519041875,3389.125,-0.0012968533,0.0164622525,0.0082926854999999,0.0124648609999999,-1.42445225,0.00475877425,54415.0,27841.5,13125.0,0.0,6.0,-13.5,0,None
2022-12-29 14:57:28,191.8523,0.0980999999999993,100.0,1160.5,24078.5,4906.0,98.0,1170.8,314.8,4892.6,-48.388572,0.66293442,-0.0042041238,0.0106442108,-1.4319726000000002,54.416,-0.00224380094,0.012651983,-1.4213961999999998,0.4554112555555554,1.1015713777777778,3.040539444444444,-12.1,-4.8,24.9,-25.4,1.0,255.9,-1069.8,-1.7,306.4,1020.6555,-1.5416563,3390.3,-0.00224380094,-0.0022399026,0.012651983,-0.0068302556,-1.4213961999999998,0.0001265089999999,54415.0,27853.0,13125.0,3.5,5.5,-13.0,0,None
2022-12-29 14:57:29,192.8525,0.0999999999999999,100.0,1174.0,24121.5,4888.0,98.0,1156.8,318.2,4877.8,-48.1373,0.66656838,-0.00032598968,0.0041500388,-1.4440712,54.38399999999999,0.0018680603599999,0.0065456313999999,-1.4340236000000002,0.42968568,1.2474682,3.587379,-15.9,4.2,21.7,-18.5,4.1,252.7,-1065.4,-16.7,308.0,1020.6643,-1.5326953,3391.4,0.0018680603599999,0.00624456606,0.0065456313999999,0.0057751626,-1.4340236000000002,-0.0113897372,54380.0,27769.0,13090.0,2.5,5.0,-9.5,0,None
2022-12-29 14:57:30,193.8522,0.0998999999999994,100.0,1151.0,24138.5,4886.0,98.0,1143.7,321.3,4861.7,-47.872912,0.6697974,0.0014641088,0.00463027206,-1.4538486000000002,54.374,0.003508066,0.0069818146,-1.4442254,0.4577161,1.2425054,2.4683125,-11.1,-5.7,18.8,-26.2,6.2,255.5,-1061.6,-6.5,307.3,1020.6503,-1.5467501,3392.3,0.003508066,0.00645200394,0.0069818146,-0.0065661258,-1.4442254,-0.01009682308,54375.0,27717.5,13085.0,2.0,6.0,-10.0,0,None
2022-12-29 14:57:31,194.8523,0.0999999999999999,100.0,1146.5,24058.0,4818.5,97.5,1141.8,324.5,4842.5,-47.600114,0.67245466,-0.0017847234,0.0064447842,-1.449046,54.39,0.0007249107999999,0.0096179147999999,-1.4399554,0.4757763500000001,1.1584152,3.1306773000000003,-15.4,14.3,18.7,-24.9,-10.4,258.6,-1065.1,20.0,316.8,1020.6515,-1.5455313000000002,3393.2,0.0007249107999999,-0.0110812899999999,0.0096179147999999,0.01685972,-1.4399554,0.0162058958,54390.0,27771.0,13100.0,1.5,9.0,-10.5,0,None
2022-12-29 14:57:32,195.8522,0.0999999999999999,100.0,1143.0,24107.5,4894.5,97.0,1145.1,327.7,4842.2,-47.330744,0.6745821000000001,-0.0060735016,0.009567625,-1.4329358,54.392,-0.0036597219799999,0.012538025,-1.4237528000000002,0.43787794,1.12328685,2.8728517,-16.6,-9.5,25.8,-19.9,8.8,260.9,-1059.3,6.1,310.7,1020.6509,-1.5461328,3394.2,-0.0036597219799999,0.0123062162,0.012538025,-0.006742311,-1.4237528000000002,0.0045977656,54395.0,27846.5,13105.0,8.5,8.0,-11.0,0,None
2022-12-29 14:57:33,196.8544,0.1020000000000009,100.0,1134.5,24040.0,4893.0,97.0,1149.0,330.8,4887.4,-47.03239799999999,0.67722246,-0.0043237548,-0.00501418506,-1.436929,54.4,-0.0023578474,-0.0015690407,-1.428119,0.47230307,1.07771748,3.2073788,-20.7,-4.1,22.1,-18.9,-1.5,254.8,-1065.9,-9.4,317.3,1020.6453,-1.5517812000000002,3395.5,-0.0023578474,-0.0020499244,-0.0015690407,-0.0054717221999999,-1.428119,-0.00769888598,54400.0,27810.0,13110.0,5.0,7.5,-12.0,0,None
2022-12-29 14:57:34,197.8721,0.1019999999999981,100.0,1133.5,24128.5,4887.0,97.0,1135.9,334.0,4895.8,-46.793138,0.6793293600000001,-0.0077609834,0.0020117341599999,-1.4392754,54.40999999999999,-0.0062336772,0.005890703,-1.4309934,0.47787941,1.05968056,2.7251514999999995,-15.9,10.7,23.0,-20.3,-2.4,256.1,-1061.6,1.5,308.0,1020.6471,-1.549961,3396.4,-0.0062336772,-0.0021383078,0.005890703,0.0055572672,-1.4309934,-0.0039088224799999,54410.0,27801.0,13120.0,0.5,6.5,-12.0,0,None
2022-12-29 14:57:35,198.906,0.1039999999999991,100.0,1131.5,24078.0,4889.0,97.0,1137.4,337.2,4849.8,-46.62456400000001,0.6811088200000001,-0.0124348278,0.0020171864,-1.4349994,54.41,-0.0106582726,0.00558171524,-1.4272482,0.4809715,0.99052107,3.1548173000000004,-26.9,-8.5,24.9,15.0,3.4,255.9,-1067.6,-0.7,312.8,1020.6321,-1.5650078,3397.4,-0.0106582726,-0.0016499468,0.00558171524,-0.0199852062,-1.4272482,0.0011378069999999,54410.0,27825.0,13120.0,6.5,1.5,-13.0,0,None
2022-12-29 14:57:36,199.89377777777776,0.1022222222222239,100.0,1158.0,24121.0,4825.0,97.0,1142.3333333333333,340.44444444444446,4863.444444444444,-46.493528888888896,0.6834081222222222,-0.0019710695,-0.0107286685,-1.43848425,54.432500000000005,-0.0007670169499999,-0.00715744525,-1.4310490000000002,0.4359706555555556,0.9956891999999998,3.0008123333333336,-18.88888888888889,-10.666666666666666,18.166666666666668,16.27777777777778,9.5,242.11111111111111,-1067.2222222222222,-4.666666666666667,316.22222222222223,1020.6296111111112,-1.5675086111111112,3398.611111111112,-0.0007670169499999,0.0152907965,-0.00715744525,-0.01064924025,-1.4310490000000002,-0.01898073975,54430.0,27798.0,13140.0,6.0,0.0,-15.0,0,None
2022-12-29 14:57:37,200.866,0.1039999999999991,100.0,1159.0,24061.5,4823.5,97.0,1161.5,343.5,4865.2,-46.42826999999999,0.68514494,0.00117251058,-0.00756234514,-1.4452724,54.42999999999999,0.0021173116,-0.004459182,-1.4395452,0.48906432,1.0402637,2.5468327,-15.7,11.8,22.3,-14.8,-0.3,247.5,-1065.5,-2.6,314.6,1020.6388,-1.5582812,3399.4,0.0021173116,0.00111539394,-0.004459182,0.0164582116,-1.4395452,-0.0063261526,54430.0,27756.5,13140.0,0.5,3.0,-16.0,0,None
2022-12-29 14:57:38,201.9061,0.1040999999999996,100.0,1194.5,24103.0,4889.5,97.0,1196.4,346.9,4865.7,-46.41335,0.68578792,0.0061527019999999,-0.00215805424,-1.4507998,54.428,0.0075594654,0.00062524434,-1.446358,0.5079454800000001,1.00924004,4.373392900000001,-14.0,1.5,15.4,-16.5,2.9,255.0,-1065.7,-15.3,313.1,1020.6354,-1.5616172,3400.6,0.0075594654,0.0065642596,0.00062524434,0.00875245642,-1.446358,-0.0153466545999999,54430.0,27724.5,13140.0,-1.5,8.0,-16.5,0,None
2022-12-29 14:57:39,202.8805555555556,0.1021111111111123,100.0,1180.0,24108.0,4889.0,97.0,1172.888888888889,350.3333333333333,4880.444444444444,-46.386895555555554,0.6858889222222223,-0.0108244183999999,-0.0024542,-1.458783,54.416,-0.0090980406,0.0002291134199999,-1.4555724,0.4696656999999999,1.1040081555555554,3.4909486666666663,-14.555555555555555,3.611111111111111,19.55555555555556,-12.944444444444445,-18.05555555555556,260.05555555555554,-1064.111111111111,5.722222222222222,318.77777777777777,1020.6431666666664,-1.5540970555555558,3401.4444444444443,-0.0090980406,-0.0171017268,0.0002291134199999,0.0033197193999999,-1.4555724,0.0075877784,54415.0,27656.5,13125.0,-3.5,11.5,-14.5,0,None
2022-12-29 14:57:40,203.8544,0.1020000000000009,100.0,1145.5,24048.0,4902.0,97.0,1169.0,353.5,4888.8,-46.38787,0.68567438,-0.0068671266,0.0064474127999999,-1.4490303999999998,54.404,-0.0051071081,0.0088273342,-1.4463436,0.41825646,1.14372776,2.9619563,-17.1,11.9,20.7,-15.3,16.0,256.9,-1066.3,9.8,309.4,1020.6485,-1.5486327,3402.8,-0.0051071081,0.0148551913999999,0.0088273342,0.0136867624,-1.4463436,0.0037961849999999,54405.0,27706.0,13115.0,-3.0,3.0,-12.5,0,None
2022-12-29 14:57:41,204.88230000000004,0.1020999999999986,100.0,1164.0,24089.0,4897.0,97.0,1152.3,356.5,4848.2,-46.41675,0.68571818,-0.00199157076,0.0099223406,-1.4371586,54.41400000000001,-0.0004012342799999,0.012960168,-1.4354896,0.44430141,1.15323664,2.7525874,-15.4,2.8,21.2,-21.9,-7.4,270.9,-1064.0,4.9,327.4,1020.6514,-1.5457188000000002,3403.7,-0.0004012342799999,-0.0098599874,0.012960168,0.0009351878,-1.4354896,0.0015709032,54415.0,27774.0,13125.0,1.0,6.0,-12.5,0,None
