00000_Time_epoch,00000_Time_boot_sec,00000_Span_Time_boot_sec,1_battery_remaining_avg,1_current_battery_avg,1_voltage_battery_avg,125_Vcc_avg,147_battery_remaining_avg,147_current_battery_avg,147_current_consumed_avg,165_Vcc_avg,168_direction_avg,168_speed_avg,178_pitch_avg,178_roll_avg,178_yaw_avg,182_altitude_avg,182_pitch_avg,182_roll_avg,182_yaw_avg,241_vibration_x_avg,241_vibration_y_avg,241_vibration_z_avg,27_xacc_avg,27_xgyro_avg,27_xmag_avg,27_yacc_avg,27_ygyro_avg,27_ymag_avg,27_zacc_avg,27_zgyro_avg,27_zmag_avg,29_press_abs_avg,29_press_diff_avg,29_temperature_avg,30_pitch_avg,30_pitchspeed_avg,30_roll_avg,30_rollspeed_avg,30_yaw_avg,30_yawspeed_avg,33_alt_avg,33_hdg_avg,33_relative_alt_avg,33_vx_avg,33_vy_avg,33_vz_avg,label,diagnosis
2023-01-01 16:07:26,344.506,0.0999999999999999,68.0,84.0,22582.5,4883.0,99.0,80.4,79.0,4870.9,-150.8976,0.27456552,-0.0012123962,-0.022019128,-1.0873692,28.234,0.0051748164,-0.022604916,-1.128449,0.024859165,0.025619859,0.035695483,-13.7,0.0,110.9,7.5,5.8,243.1,-1059.4,-1.5,337.5,1020.9152,-0.057937499,3168.7,0.0051748164,0.0060881656,-0.022604916,0.0005384122,-1.128449,-0.0017720687999999,28225.0,29535.0,15.0,-5.0,13.0,17.5,0,None
2023-01-01 16:07:27,345.516,0.1019999999999981,68.0,164.5,22564.5,4887.5,99.0,149.3,79.5,4883.1,-151.25929,0.29892478,-0.0009164517199999,-0.02246821,-1.0871034,28.264,0.0051403392,-0.022562904,-1.1285342,0.083622983,0.1050502,0.815621631,-9.3,-0.5,111.2,6.6,6.9,244.3,-1063.3,-3.5,336.4,1020.9255,-0.047726559,3170.0,0.0051403392,0.0054275808,-0.022562904,0.00065720492,-1.1285342,-0.013652244,28260.0,29535.0,50.0,-4.0,12.5,18.5,0,None
2023-01-01 16:07:28,346.5764,0.1061000000000035,67.66666666666667,1038.6666666666667,22271.666666666668,4837.333333333333,99.0,994.6,80.6,4868.8,-150.8856,0.36971564,0.0004032748,-0.0180917193999999,-1.0865084,28.272,0.0068242132,-0.0185743156,-1.1285618,0.3740161899999999,0.71795146,2.96312822,-16.0,21.45,105.6,-6.0,12.15,239.8,-1144.7,11.4,305.2,1021.1304,0.157164062,3171.5,0.0068242132,-0.0056065955999999,-0.0185743156,0.0181136368,-1.1285618,0.016249418,28310.0,29542.666666666668,100.0,-6.333333333333333,11.666666666666666,47.333333333333336,0,None
2023-01-01 16:07:29,347.56611111111107,0.1044444444444441,67.0,1989.0,21907.0,4882.0,99.0,1943.6666666666667,85.55555555555556,4878.555555555556,-151.413,0.4486282333333333,0.00539232602,-0.0091385136,-1.0663762,29.194,0.0125119054,-0.0092898836,-1.1077065999999998,0.5048683222222223,1.0685014222222222,3.3297171111111106,1.0,-1.5555555555555556,104.33333333333331,-22.11111111111111,19.11111111111111,232.22222222222223,-1269.7777777777778,25.22222222222222,266.8888888888889,1020.9084444444444,-0.0648437577777777,3172.6666666666665,0.0125119054,0.0140154399999999,-0.0092898836,0.022290798,-1.1077065999999998,0.015411941,29110.0,29650.0,900.0,-10.0,0.0,211.0,0,None
2023-01-01 16:07:30,348.5249,0.0999999999999999,66.0,1941.0,21969.5,4885.0,99.0,1843.4,90.7,4842.5,-154.10567000000003,0.48934495,0.0110733178,0.033261296,-1.085125,31.694,0.0171912884,0.032193862,-1.1525368,0.4662012599999999,0.83047056,2.8847197,8.3,40.6,95.6,-13.6,4.0,259.2,-1107.0,-42.7,274.2,1020.531,-0.44226562,3174.2,0.0171912884,0.053708359,0.032193862,0.018451218,-1.1525368,-0.0503691859999999,30910.0,29487.0,2700.0,-11.5,-8.0,315.0,0,None
2023-01-01 16:07:31,349.54900000000004,0.1039999999999963,64.66666666666667,1342.6666666666667,22107.666666666668,4885.666666666667,99.0,1457.7,95.3,4882.7,-159.0132,0.50027504,0.0107986599999999,-0.0050780008,-1.0905674,34.684000000000005,0.018395448,-0.004135142,-1.1744156,0.4247072,1.4445326000000005,8.278108699999999,36.75,36.85,97.85,-8.3,-91.6,247.15,-972.9,17.0,307.0,1020.1399,-0.8331210950000001,3175.8,0.018395448,-0.087757618,-0.004135142,0.0004389599999999,-1.1744156,0.024682952,33945.0,29244.5,5735.0,20.0,-10.5,321.0,0,None
2023-01-01 16:07:32,350.5489,0.0999999999999999,64.0,1434.0,22092.5,4889.5,99.0,1359.6,99.0,4874.6,-168.5163,0.52574926,-0.10581136,0.08577725,-0.91060638,36.7,-0.0928330639999999,0.0858385459999999,-0.99389096,0.56243214,1.02163839,5.490361900000001,36.5,30.1,170.3,-39.3,78.9,255.1,-969.9,353.4,257.2,1019.8740999999998,-1.09908596,3177.3,-0.0928330639999999,0.0669594799999999,0.0858385459999999,0.0364640931999999,-0.99389096,0.3401748,36280.0,29797.5,8070.0,65.5,-66.5,209.0,0,None
2023-01-01 16:07:33,351.54900000000004,0.0999999999999999,63.0,1469.5,22081.5,4887.0,99.0,1422.9,103.0,4890.3,35.89194,0.5698272999999999,-0.0075351189,0.039772732,-0.5427761,37.988,-0.0011185592,0.0441090159999999,-0.6231914000000001,0.48216736,1.22155813,7.941889800000001,-3.3,6.6,224.8,-39.6,63.1,175.3,-1032.3,369.3,281.8,1019.6863,-1.2866562,3178.8,-0.0011185592,0.088765494,0.0441090159999999,0.0100756292,-0.6231914000000001,0.36280068,37660.0,31855.5,9450.0,164.0,-133.0,150.5,0,None
2023-01-01 16:07:34,352.563,0.0999999999999999,63.0,1551.5,21984.5,4821.5,99.0,1466.9,107.0,4849.5,169.548,0.6079987,-0.030368914,0.0394969759999999,-0.30544558,39.162,-0.026831254,0.046304506,-0.38543628,0.50278199,0.99933277,7.346284599999999,-18.2,3.8,273.0,-52.1,-18.0,119.7,-1038.7,39.5,282.6,1019.5196,-1.4537111,3180.4,-0.026831254,-0.0501619578,0.046304506,-0.0080488565999999,-0.38543628,0.039074188,39126.66666666666,33674.333333333336,10916.666666666666,185.0,-128.0,124.33333333333331,0,None
2023-01-01 16:07:35,353.56499999999994,0.0999999999999999,62.0,1402.5,22066.0,4886.5,99.0,1503.2,111.2,4876.6,159.32738,0.64409864,-0.0435717179999999,0.045040798,-0.33947274,40.218,-0.038406558,0.0516802339999999,-0.42273658,0.47099155,1.17811163,6.664305000000001,-18.0,-26.9,276.3,-63.6,-13.1,120.2,-1060.0,-42.3,273.9,1019.3919000000002,-1.5811563000000002,3181.7,-0.038406558,-0.0146460944,0.0516802339999999,-0.029381262,-0.42273658,-0.0356936712,40455.0,33523.5,12245.0,216.0,-127.5,110.0,0,None
2023-01-01 16:07:36,354.56499999999994,0.0999999999999999,62.0,1372.5,22013.5,4890.0,99.0,1396.5,115.0,4890.4,149.53119999999996,0.68995134,-0.042034126,0.0344260439999999,-0.40988752,41.18599999999999,-0.034620878,0.040816624,-0.4942207799999999,0.5025514899999999,1.26048471,9.861787,-10.8,13.0,270.4,-53.4,16.9,145.9,-1050.2,-93.7,282.8,1019.2826,-1.6904296,3183.4,-0.034620878,0.036507946,0.040816624,0.02116172,-0.4942207799999999,-0.083479838,41395.0,33065.5,13185.0,246.5,-148.5,99.0,0,None
2023-01-01 16:07:37,355.56699999999995,0.1020000000000038,61.0,1611.5,22007.5,4886.5,99.0,1547.6,119.1,4888.1,140.49434000000002,0.75085032,-0.0123011732,0.036288446,-0.4766211999999999,42.088,-0.0035558719999999,0.042742124,-0.5631653400000001,0.48191554,1.4767402000000005,8.2053214,-16.7,-30.9,250.4,-67.9,36.3,159.1,-1083.5,-55.3,276.2,1019.1682,-1.8051092,3184.7,-0.0035558719999999,0.069615702,0.042742124,-0.056201983,-0.5631653400000001,-0.069964794,42310.0,32680.5,14100.0,251.5,-156.5,106.0,0,None
2023-01-01 16:07:38,356.5751111111111,0.1088888888888845,60.5,1643.0,21940.5,4882.5,99.0,1538.5555555555557,123.55555555555556,4838.0,132.6028,0.8284539666666666,-0.016611464,0.045047942,-0.53177958,43.086,-0.00720048912,0.052400968,-0.62161196,0.5192294444444444,1.4223455333333337,8.64997,-11.11111111111111,53.66666666666666,236.3333333333333,-74.61111111111111,1.0555555555555556,163.16666666666666,-1013.0555555555557,-22.77777777777778,283.3888888888889,1019.0514444444444,-1.9218661666666663,3186.4444444444443,-0.00720048912,-0.0088981659999999,0.052400968,0.023281638,-0.62161196,-0.0211545748,43080.0,32399.0,14870.0,246.0,-172.0,104.0,0,None
2023-01-01 16:07:39,357.5438888888889,0.1044444444444441,60.0,1590.0,21860.0,4883.0,99.0,1528.3333333333333,127.77777777777776,4868.333333333333,125.82198888888888,0.9217291444444444,-0.011966576,0.0494524749999999,-0.521999275,44.0375,-0.001129331525,0.05544035,-0.6124244249999999,0.4317006777777777,1.4502822888888889,7.170872777777778,-19.55555555555556,-54.0,237.88888888888889,-63.66666666666666,-12.77777777777778,173.0,-1085.0,-5.555555555555555,280.55555555555554,1018.9515555555556,-2.021545111111111,3188.0,-0.001129331525,0.0041885025,0.05544035,-0.05543687775,-0.6124244249999999,-0.020902075275,43840.0,32495.5,15630.0,246.5,-162.0,109.0,0,None
2023-01-01 16:07:40,358.5451,0.1060000000000002,60.0,1269.6666666666667,22019.666666666668,4879.333333333333,99.0,1188.8,131.5,4839.2,120.22187999999996,1.0291067699999998,-0.0219838186,0.02949624,-0.56867214,45.008,-0.010147697,0.037081268,-0.6616430799999999,0.5817242300000001,1.3711581800000003,13.320828700000002,7.55,29.7,238.75,-70.8,8.95,178.75,-1050.25,-40.3,301.4,1018.89265,-2.08069535,3189.5,-0.010147697,-0.019641782,0.037081268,0.0393270301,-0.6616430799999999,-0.0236261038,44920.0,32226.5,16710.0,248.0,-177.0,117.5,0,None
2023-01-01 16:07:41,359.54,0.1045555555555589,60.0,1454.0,22002.0,4888.0,99.0,1467.7777777777778,135.22222222222223,4883.444444444444,115.6698,1.1519894444444445,0.056317148,0.079180918,-0.49164972,45.982,0.065844444,0.086267198,-0.5852495600000001,0.581080288888889,1.1707847666666666,10.336765888888888,-20.0,16.88888888888889,215.22222222222223,-80.55555555555556,69.88888888888889,177.11111111111111,-1049.3333333333333,122.66666666666669,298.1111111111111,1018.722,-2.2512325555555552,3190.8888888888887,0.065844444,0.04491958,0.086267198,-0.0112290356,-0.5852495600000001,0.108676318,45890.0,32580.5,17680.0,244.0,-185.5,112.5,0,None
2023-01-01 16:07:42,360.5481,0.1079999999999983,59.0,1481.0,22030.0,4886.666666666667,99.0,1355.9,139.1,4857.6,111.68766,1.2857110000000005,-0.01996806,0.066602304,-0.4839599199999999,47.048,-0.0078726328,0.0737108019999999,-0.57942612,0.53722075,1.1659073,13.5931993,-7.2,3.45,246.35,-87.35,-71.5,163.15,-1072.65,-56.45,280.9,1018.62915,-2.3439453,3192.4,-0.0078726328,-0.0240116699999999,0.0737108019999999,0.0249328659999999,-0.57942612,-0.0625929788,46955.0,32712.5,18745.0,209.5,-150.0,118.5,0,None
2023-01-01 16:07:43,361.5901,0.1023000000000024,59.0,1334.5,21970.5,4889.5,99.0,1431.9,143.1,4884.8,108.4737,1.4237559999999996,0.00862502864,0.06406718,-0.5220119999999999,48.034,0.0201128187999999,0.070255858,-0.6186717,0.5136683,1.4263111,10.4206963,0.1,-28.4,237.5,-91.1,57.2,178.8,-1069.2,-28.5,292.9,1018.5343,-2.4387891,3194.2,0.0201128187999999,0.048942656,0.070255858,-0.023634292,-0.6186717,-0.025503724,47945.0,32472.5,19735.0,238.5,-164.0,115.0,0,None
2023-01-01 16:07:44,362.5723333333333,0.1022222222222176,59.0,1608.0,21985.0,4746.0,99.0,1427.2222222222222,147.22222222222223,4880.222222222223,105.82710000000002,1.567259,0.0343312475,0.0595479975,-0.5323688000000001,48.9425,0.04541776,0.0662706825,-0.629856875,0.5439848555555555,1.4999454444444444,10.497271777777776,6.888888888888889,33.44444444444444,221.0,-81.44444444444444,3.333333333333333,183.77777777777777,-1039.5555555555557,7.222222222222222,293.0,1018.4217777777778,-2.551666555555556,3195.4444444444443,0.04541776,-0.017537153175,0.0662706825,0.0317904529999999,-0.629856875,-0.0144114524999999,48955.0,32395.0,20745.0,228.5,-167.5,121.5,0,None
2023-01-01 16:07:45,363.553,0.1020000000000038,58.0,1233.5,22050.5,4874.5,99.0,1353.4,150.8,4883.9,103.78536,1.715796,0.0257131479999999,0.074548302,-0.5173851600000001,49.89,0.036274218,0.081076302,-0.6160827600000001,0.5614735399999999,1.3709416,12.6087427,14.3,5.9,230.0,-80.35,28.6,177.15,-1044.65,36.65,289.9,1018.29,-2.6830116,3197.0,0.036274218,0.0465349998,0.081076302,-0.0209222484,-0.6160827600000001,0.0333482778,50000.0,32485.5,21790.0,226.5,-163.5,125.5,0,None
2023-01-01 16:07:46,364.561,0.1039999999999963,58.0,1437.0,21953.0,4832.666666666667,99.0,1448.9,154.7,4880.6,102.21551999999998,1.8678886,0.032021362,0.0716770499999999,-0.49576756,50.88,0.041666776,0.077383196,-0.5959738399999999,0.4812146199999999,1.5047652,10.1731507,11.2,-12.3,231.6,-83.4,-45.3,175.1,-1075.5,-22.7,294.0,1018.1791,-2.7940078,3198.6,0.041666776,-0.04181215,0.077383196,-0.0046814579999999,-0.5959738399999999,-0.016216386,50990.0,32575.5,22780.0,219.0,-145.0,124.0,0,None
2023-01-01 16:07:47,365.5634444444444,0.1044444444444441,58.0,1236.0,22046.0,4883.0,99.0,1390.111111111111,158.55555555555554,4878.888888888889,101.07865555555556,2.022240333333333,0.0152236654,0.056415532,-0.5340665,51.95,0.0265549099999999,0.0622030339999999,-0.63605466,0.5555372888888889,1.389916511111111,12.101780222222224,19.88888888888889,-13.666666666666666,231.66666666666663,-84.33333333333333,46.44444444444444,176.55555555555554,-1041.7777777777778,-32.44444444444444,292.3333333333333,1018.060111111111,-2.9130207777777777,3199.6666666666665,0.0265549099999999,0.03084311,0.0622030339999999,-0.022528926,-0.63605466,-0.0309049866,52065.0,32337.0,23855.0,230.0,-155.5,125.0,0,None
2023-01-01 16:07:48,366.575,0.1060000000000002,57.66666666666666,1292.0,21984.33333333333,4875.666666666667,98.4,1333.0,162.6,4877.4,100.34724,2.1755644,0.0365973339999999,0.05349137,-0.53938488,53.052,0.046521194,0.058552108,-0.6439423200000001,0.55953421,1.43152643,11.596476,7.5,-3.05,216.9,-90.15,-14.1,168.3,-1063.6,8.3,293.45,1017.9341499999998,-3.0390078000000003,3201.4,0.046521194,-0.0166162973999999,0.058552108,-0.032049744,-0.6439423200000001,0.0097943812,53160.0,32315.0,24950.0,212.5,-157.5,117.5,0,None
2023-01-01 16:07:49,367.5523333333333,0.1022222222222239,57.0,1194.0,22051.0,4875.0,98.0,1216.888888888889,165.77777777777777,4832.777777777777,99.89272,2.317775444444444,0.008493585,0.0809631099999999,-0.5277775,54.02,0.0187885035,0.085316295,-0.634489675,0.5404754333333333,1.3846246777777778,13.743577888888888,14.333333333333334,46.55555555555556,229.88888888888889,-88.77777777777777,12.333333333333334,193.3333333333333,-1034.6666666666667,32.0,300.44444444444446,1017.8238888888887,-3.149262,3202.6666666666665,0.0187885035,0.01458568525,0.085316295,0.062714945,-0.634489675,0.028491045,54205.0,32402.5,25995.0,210.5,-162.0,114.0,0,None
2023-01-01 16:07:50,368.579,0.1100000000000022,57.0,1339.3333333333333,21940.33333333333,4880.666666666667,98.0,1363.5,169.5,4851.7,99.55904,2.4701150000000007,0.0118787978166666,0.06881757,-0.5008137666666667,55.01166666666668,0.0226238046666666,0.072130035,-0.6084064666666668,0.4917002999999999,1.3683996,12.425451900000002,4.4,-49.25,234.25,-87.55,31.9,168.5,-1041.45,-10.8,286.75,1017.70605,-3.26708205,3204.0,0.0226238046666666,0.0410784028333333,0.072130035,-0.0863723883333333,-0.6084064666666668,-0.0143562608333333,55195.0,32514.0,26985.0,235.0,-153.5,120.0,0,None
2023-01-01 16:07:51,369.58344444444447,0.1066666666666643,57.0,1274.0,22028.0,4877.0,98.0,1224.5555555555557,173.33333333333334,4866.0,99.33683333333336,2.610164111111111,0.0270432325,0.0344449099999999,-0.5619512249999999,56.0225,0.03715449,0.03967855,-0.6714024749999999,0.5320377444444444,1.5690771111111108,12.044758888888886,-0.5555555555555556,9.61111111111111,220.72222222222223,-56.77777777777778,-28.83333333333333,173.11111111111111,-1081.5,-68.27777777777777,307.6666666666667,1017.6335555555556,-3.339526777777778,3205.6666666666665,0.03715449,-0.0391744049999999,0.03967855,0.048791905,-0.6714024749999999,-0.0518439599999999,55960.0,32160.0,27750.0,214.0,-151.0,120.0,0,None
2023-01-01 16:07:52,370.5567777777777,0.1066666666666643,57.0,1250.0,21965.0,4881.0,98.0,1165.5555555555557,176.44444444444446,4836.222222222223,99.27274777777778,2.734714444444444,0.0005167443999999,0.0321583115999999,-0.59808242,56.872,0.0117552478,0.0351202739999999,-0.7094336799999998,0.5144459000000001,1.4351456666666664,10.465074555555557,2.2222222222222223,-72.44444444444444,226.11111111111111,-75.22222222222223,-29.22222222222222,184.22222222222223,-1028.7777777777778,-89.77777777777777,299.3333333333333,1017.4873333333334,-3.485911222222222,3207.0,0.0117552478,-0.0293470438,0.0351202739999999,-0.0522399979999999,-0.7094336799999998,-0.0882819547999999,56695.0,32036.5,28485.0,209.5,-152.5,115.5,0,None
2023-01-01 16:07:53,371.52566666666667,0.111111111111111,57.0,1106.5,22086.5,4883.0,98.0,1021.8888888888888,179.33333333333334,4872.111111111111,99.42152666666664,2.846163666666667,-0.0120615284999999,0.00379735925,-0.7477432749999999,57.47,-0.000973341,0.00600010775,-0.861285675,0.5493357777777779,1.1784818888888888,10.410399222222225,20.88888888888889,32.388888888888886,198.22222222222223,-72.0,61.27777777777778,199.3333333333333,-990.9444444444443,-154.44444444444446,307.22222222222223,1017.4276111111112,-3.5455165,3208.222222222222,-0.000973341,0.0634418325,0.00600010775,0.03874313125,-0.861285675,-0.1329476125,57425.0,31154.5,29215.0,208.0,-201.0,69.0,0,None
2023-01-01 16:07:54,372.571,0.1060000000000002,57.0,1271.0,22009.0,4878.0,98.0,1170.1,182.5,4886.4,99.856632,2.9377334,0.0457100916666666,0.0106248531666666,-0.8130516,57.678333333333335,0.0545441049999999,0.0121931389999999,-0.9283555666666666,0.57825467,1.2755978999999995,13.8841992,4.45,-27.75,157.05,-50.85,15.3,-376.225,-1075.4,-11.7,302.35,1017.37985,-3.59333965,3209.5,0.0545441049999999,0.04694986,0.0121931389999999,-0.0411742716666666,-0.9283555666666666,-0.0140232178333333,57665.0,30665.5,29455.0,193.5,-223.0,37.5,1,27_ymag_avg_abrupt_-591.825
2023-01-01 16:07:55,373.5478888888889,0.1022222222222239,57.0,1138.5,22008.5,4882.5,98.0,1168.111111111111,185.88888888888889,4886.777777777777,100.29503333333332,3.0138173333333333,0.057968785,0.0309009599999999,-0.7827340749999999,57.78999999999999,0.0663958499999999,0.03310531,-0.898437275,0.6407906444444444,1.5254644444444443,17.935055555555554,2.7777777777777777,74.22222222222223,157.22222222222223,-42.55555555555556,-6.777777777777778,-369.93611111111113,-1045.6666666666667,60.77777777777778,314.44444444444446,1017.378,-3.595381777777777,3210.8888888888887,0.0663958499999999,-0.0539815499999999,0.03310531,0.1032455645,-0.898437275,0.03436707,57785.0,30826.5,29575.0,152.0,-193.0,33.0,1,27_ymag_avg_abrupt_-591.825
2023-01-01 16:07:56,374.545,0.1060000000000001,57.0,1197.5,21995.0,4809.5,98.0,1176.4,189.1,4848.0,100.73474,3.0904707999999994,0.0041975526,0.0362736,-0.74952822,57.85600000000001,0.013648082,0.038167514,-0.8664826800000001,0.60185702,1.2296428,14.636615999999998,1.2,-27.4,187.1,-41.0,-36.85,-377.07500000000005,-1043.15,26.55,295.15,1017.3456000000002,-3.62749215,3212.3,0.013648082,0.02432916,0.038167514,-0.035281894,-0.8664826800000001,0.03276342,57855.0,31037.5,29645.0,149.5,-171.5,21.5,1,27_ymag_avg_abrupt_-591.825
2023-01-01 16:07:57,375.581,0.1019999999999981,57.0,1281.5,21950.0,4811.0,98.0,1215.0,192.5,4873.3,101.01398000000002,3.1535402,0.0129292626,0.0066796938,-0.75256076,57.902,0.020881384,0.0097189207999999,-0.87097818,0.5272219999999999,1.45842041,12.873473100000002,-4.9,-60.4,186.0,-33.0,41.2,-383.42500000000007,-1059.7,-23.9,297.6,1017.3391,-3.6341484,3213.5,0.020881384,0.095826144,0.0097189207999999,-0.033861044,-0.87097818,-0.033401362,57905.0,31012.0,29695.0,149.0,-169.5,18.5,1,27_ymag_avg_abrupt_-591.825
2023-01-01 16:07:58,376.589,0.0999999999999999,57.0,1051.0,22060.0,4883.0,98.0,1083.9,195.7,4845.9,101.22414,3.2050116,-0.055496638,-0.0011891169999999,-0.75075572,57.852,-0.047056216,0.0013300266,-0.8698145399999999,0.54796369,1.2732497,14.272113,-21.5,68.1,203.5,-34.1,-108.6,-382.82500000000005,-1029.8,23.5,301.7,1017.4342,-3.5390390000000003,3214.8,-0.047056216,-0.0639554599999999,0.0013300266,0.062189686,-0.8698145399999999,0.0149438587999999,57860.0,31012.0,29650.0,129.5,-186.0,24.0,1,27_ymag_avg_abrupt_-591.825
2023-01-01 16:07:59,377.589,0.0999999999999999,57.0,1123.0,22056.5,4883.0,98.0,1193.2,198.8,4885.1,101.44052,3.2493338,-0.031523962,0.04992115,-0.69693002,57.714,-0.0242975759999999,0.051575244,-0.81854932,0.59289064,1.9522193,15.295628000000002,-7.5,20.2,215.1,-49.4,153.4,-384.42500000000007,-1098.5,49.2,281.7,1017.3576,-3.6155467,3216.2,-0.0242975759999999,0.145090458,0.051575244,0.01246984,-0.81854932,0.05529145,57715.0,31305.0,29505.0,189.5,-243.5,32.5,1,27_ymag_avg_abrupt_-591.825
2023-01-01 16:08:00,378.589,0.0999999999999999,57.0,1123.0,21990.5,4885.0,98.0,1102.3,202.0,4885.9,101.58272,3.2883474,0.0218521159999999,0.0375425947999999,-0.6579106799999999,57.760000000000005,0.02436334,0.03983046,-0.78058128,0.52733307,1.36709536,11.251094900000002,-12.3,-41.4,200.8,-35.3,-149.9,-394.02500000000003,-1057.3,-13.5,307.7,1017.4298,-3.5433673,3217.2,0.02436334,-0.162319352,0.03983046,-0.0172125734,-0.78058128,-0.0093386926,57765.0,31530.0,29555.0,190.5,-204.5,26.5,1,27_ymag_avg_abrupt_-591.825
2023-01-01 16:08:01,379.589,0.0999999999999999,57.0,1062.0,22065.5,4871.5,98.0,1120.9,205.2,4885.9,101.68460000000002,3.3244016000000003,-0.0005079283999999,0.014998738,-0.6999956,57.722,0.0045202887,0.0180589856,-0.8234584999999999,0.5734421,1.24800389,10.5596805,-15.4,-15.1,207.1,-21.7,84.1,-384.32500000000005,-1093.6,-84.3,305.9,1017.4157,-3.5576170999999994,3218.6,0.0045202887,0.058240342,0.0180589856,0.00049424,-0.8234584999999999,-0.070699076,57720.0,31289.0,29510.0,200.5,-200.0,28.0,1,27_ymag_avg_abrupt_-591.825
2023-01-01 16:08:02,380.589,0.0999999999999999,57.0,1150.0,21977.5,4812.5,98.0,1203.7,208.3,4858.8,101.82492000000002,3.3551784000000007,-0.0208322116,-0.0016789611999999,-0.7683644399999999,57.67999999999999,-0.014962985,0.0013913153999999,-0.8932731800000001,0.45086586,1.12986625,7.018012799999999,-10.4,30.2,191.6,-26.5,-35.0,-396.32500000000005,-1065.7,-65.8,292.4,1017.4226,-3.550742100000001,3219.7,-0.014962985,0.0092145999999999,0.0013913153999999,0.0138051719999999,-0.8932731800000001,-0.06703579,57680.0,30864.0,29470.0,190.5,-203.5,24.5,1,27_ymag_avg_abrupt_-591.825
2023-01-01 16:08:03,381.5612222222222,0.1022222222222239,56.5,1246.0,22026.5,4875.5,98.0,1194.6666666666667,211.88888888888889,4843.555555555556,102.02482222222224,3.378758111111112,-0.0467711262,0.030879568,-0.78168348,57.722,-0.039423949,0.03291544,-0.90812948,0.5815625111111111,1.477131111111111,12.066735111111113,-13.666666666666666,9.666666666666666,202.22222222222223,-41.44444444444444,97.77777777777776,-360.4916666666668,-1075.111111111111,7.111111111111111,295.0,1017.293111111111,-3.680112666666666,3220.555555555556,-0.039423949,0.075618772,0.03291544,0.0217018047999999,-0.90812948,0.0242384734,57720.0,30801.5,29510.0,221.5,-244.0,30.0,1,27_ymag_avg_abrupt_-591.825
2023-01-01 16:08:04,382.513,0.0999999999999999,56.0,1167.0,22028.0,4881.5,98.0,1227.8,215.2,4888.1,102.21581,3.4003966999999995,0.021283876,-0.0250540292,-0.8161143799999999,57.866,0.026701154,-0.0215259219999999,-0.94253032,0.5866990700000001,1.3082734,9.7030563,-7.3,-62.9,168.9,-36.3,10.9,-384.225,-1091.5,-57.3,308.8,1017.2895999999998,-3.6835934,3221.7,0.026701154,-0.0125400291999999,-0.0215259219999999,-0.05658338888,-0.94253032,-0.06418497,57865.0,30605.0,29655.0,217.0,-255.0,13.5,1,27_ymag_avg_abrupt_-591.825
2023-01-01 16:08:05,383.513,0.0999999999999999,56.0,1287.0,21951.0,4882.5,98.0,1243.9,218.5,4891.1,102.39606999999998,3.4220435,0.1402519,0.0159661316,-0.86758886,57.91799999999999,0.144256058,0.0185100728,-0.99616268,0.5677814499999999,1.4461777,11.4651933,2.0,80.5,126.7,-34.2,142.0,-370.12500000000006,-1094.8,-65.2,318.3,1017.2708,-3.7024453,3223.0,0.144256058,0.08246574,0.0185100728,0.0678471,-0.99616268,-0.063073838,57920.0,30295.5,29710.0,152.0,-221.0,14.0,1,27_ymag_avg_abrupt_-591.825
2023-01-01 16:08:06,384.5131,0.0999999999999999,56.0,1144.5,21966.0,4883.5,98.0,1157.2,221.8,4891.0,102.54456,3.4420235,0.1901236599999999,0.0168436414,-0.91364996,57.932,0.19468868,0.0165606822,-1.0434936,0.46762356,1.11906931,6.428533,21.5,-32.6,86.6,-15.1,14.6,-355.32500000000005,-1092.2,-11.5,333.5,1017.315,-3.6583124,3224.0,0.19468868,0.0411350959999999,0.0165606822,-0.0265699624,-1.0434936,-0.037197842,57935.0,30021.0,29725.0,77.5,-90.5,9.0,1,27_ymag_avg_abrupt_-591.825
2023-01-01 16:08:07,385.521,0.1019999999999981,56.0,1098.5,22025.5,4869.0,98.0,1148.2,225.2,4853.7,102.70125,3.467684600000001,0.1360746199999999,0.0109138034,-0.9203513,57.804,0.14428052,0.0081824636,-1.0492924,0.58957941,1.11144378,7.602709,42.2,-11.5,91.0,-21.5,-46.3,-360.32500000000005,-1086.4,7.5,327.6,1017.3343,-3.6388673,3225.2,0.14406998,-0.065960324,0.00882982434,0.0013180019999999,-1.0494168,0.019725418,57810.0,29971.5,29600.0,5.5,18.0,14.5,1,27_ymag_avg_abrupt_-591.825
2023-01-01 16:08:08,386.529,0.0999999999999999,56.0,1085.5,22039.0,4886.0,98.0,1115.9,228.3,4865.2,102.89926,3.5003142,0.072870184,0.035453418,-0.9159112,57.76800000000001,0.0830003,0.0310258,-1.0447348,0.53117631,1.02932806,6.6642599,51.1,51.4,121.3,-29.8,-55.5,234.9,-1066.8,2.2,312.9,1017.3035,-3.6697734,3226.3,0.0830003,-0.059944266,0.0310258,0.0078077419999999,-1.0447348,0.0154535214,57770.0,30006.0,29560.0,-33.5,47.5,17.5,0,None
2023-01-01 16:08:09,387.499,0.1133333333333376,56.0,923.5,22038.0,4816.5,98.0,990.9444444444443,231.0,4877.0,103.04604444444443,3.533937111111111,0.06942687,0.037797496,-0.9001450200000001,57.752,0.0793199659999999,0.032387496,-1.0296072,0.8280748666666666,1.0628581666666663,7.214563666666667,54.888888888888886,-15.555555555555555,127.27777777777776,-47.72222222222222,20.166666666666668,236.61111111111111,-1046.5555555555557,11.5,308.3888888888889,1017.2932777777776,-3.679817611111111,3227.3888888888887,0.0793199659999999,-0.0098453397999999,0.032387496,0.000157144,-1.0296072,0.01811737,57755.0,30092.5,29545.0,-31.5,42.5,13.0,0,None
2023-01-01 16:08:10,388.549,0.0999999999999999,56.0,921.5,22100.0,4881.0,98.0,969.8,233.9,4891.6,103.13758,3.5679492,0.044962236,0.052090718,-0.8872923199999999,57.716,0.053611856,0.046332496,-1.0183596,0.7900278000000001,1.1717994100000002,5.7610838,25.6,19.5,138.9,-50.1,-49.4,242.9,-1071.5,-14.6,308.1,1017.291,-3.6822265,3228.9,0.053611856,-0.0161848892,0.046332496,0.018859844,-1.0183596,0.004963107,57720.0,30165.0,29510.0,-29.5,48.5,9.0,0,None
2023-01-01 16:08:11,389.549,0.0999999999999999,56.0,1037.5,22013.0,4884.0,98.0,1101.7,236.8,4871.1,103.15532,3.5945938000000006,0.0041341183999999,0.038532014,-0.90704446,57.62800000000001,0.0119588038,0.034066972,-1.037557,0.58051319,0.89723247,6.104464600000001,11.4,-32.8,146.0,-40.0,-25.9,241.0,-1074.3,-35.3,294.5,1017.2951,-3.677890600000001,3229.9,0.0119588038,-0.0401207778,0.034066972,-0.0315496481,-1.037557,-0.0090315234,57635.0,30056.0,29425.0,-3.5,48.0,8.0,0,None
2023-01-01 16:08:12,390.559,0.1019999999999981,56.0,941.5,22083.5,4885.0,98.0,958.8,239.7,4848.5,103.06032,3.6041578,0.0136224204,-0.001486601,-0.92517384,57.566,0.0212448752,-0.0042268107999999,-1.0552588,0.66779079,1.11852145,9.433678300000002,20.5,-46.4,144.9,-29.3,52.1,235.0,-1050.9,-17.2,314.3,1017.3713,-3.6017968,3230.9,0.0212448752,0.07362669,-0.0042268107999999,-0.05465687,-1.0552588,-0.0048044048,57570.0,29954.5,29360.0,11.0,20.0,15.5,0,None
2023-01-01 16:08:13,391.58,0.1021000000000014,56.5,867.5,22099.5,4885.0,98.0,968.0,242.3,4888.3,102.9183,3.597419,0.046570866,-0.0045708546,-0.90899092,57.424,0.052794428,-0.00571776442,-1.0386146000000005,0.77910354,1.11954749,7.291779400000001,32.5,42.3,135.8,-41.0,-15.8,229.6,-1059.4,52.5,322.8,1017.3634,-3.6098358,3232.1,0.05366406,-0.008735382,-0.0067670605999999,0.048648266,-1.0385818,0.036597586,57425.0,30042.5,29215.0,-9.0,10.5,22.0,0,None
2023-01-01 16:08:14,392.59,0.0999999999999999,56.5,1049.5,21974.0,4887.5,98.0,1063.1,245.0,4892.2,102.81132,3.5880010000000007,0.036037434,0.042461042,-0.87848034,57.386,0.043373954,0.04131644,-1.0082288,0.80052194,1.1663563,7.826465399999999,45.8,31.0,149.5,-41.0,51.1,239.7,-1062.1,-0.8,318.1,1017.2842,-3.6889765,3233.2,0.043373954,0.05387868438,0.04131644,0.0464297178,-1.0082288,-0.0126455448,57385.0,30221.5,29175.0,-14.5,-7.5,16.0,0,None
2023-01-01 16:08:15,393.5511111111112,0.1044444444444441,56.0,1256.5,21939.5,4888.0,98.0,1182.4444444444443,248.22222222222223,4876.444444444444,102.72617777777776,3.581344222222223,0.0741232025,0.0404395825,-0.879731625,57.4125,0.0815223225,0.0407516525,-1.0087365,0.6058871666666666,1.457690888888889,11.679950333333334,73.77777777777777,37.333333333333336,130.77777777777777,-105.22222222222224,38.22222222222222,235.66666666666663,-1063.7777777777778,-2.333333333333333,301.6666666666667,1017.2144444444444,-3.7586892222222223,3234.0,0.0815223225,0.0248400064999999,0.0407516525,0.0289126525,-1.0087365,-0.02275903525,57425.0,30223.0,29215.0,-14.5,-27.5,9.5,0,None
2023-01-01 16:08:16,394.544,0.1039999999999963,56.0,1085.0,21966.5,4816.5,98.0,1123.9,251.5,4889.7,102.5669,3.5869904000000004,0.08406206,0.079864902,-0.88706316,57.458000000000006,0.091449756,0.081381714,-1.0159104,0.59569279,1.17447452,7.8524405,73.45,-7.0,125.35,-77.35,19.6,247.9,-1084.65,-18.65,304.85,1017.228,-3.74525375,3235.2,0.091449756,0.013394016,0.081381714,0.0173221925999999,-1.0159104,-0.0243382737999999,57450.0,30166.5,29240.0,-4.5,-22.0,0.0,0,None
2023-01-01 16:08:17,395.5444444444445,0.1044444444444441,56.0,1132.5,22005.0,4882.5,98.0,1151.888888888889,254.66666666666663,4892.555555555556,102.3408,3.604175777777777,0.100658666,0.0571985879999999,-0.89157902,57.364,0.10849578,0.0605218,-1.0188448,0.6565749333333333,0.9587581555555558,9.047949,86.44444444444444,-0.4444444444444444,118.33333333333331,-72.33333333333333,10.444444444444445,242.11111111111111,-1015.1111111111112,1.2222222222222223,307.55555555555554,1017.2514444444444,-3.7216318888888886,3236.222222222222,0.10849578,0.025024192,0.0605218,-0.0295273766,-1.0188448,0.0006510597999999,57340.0,30159.5,29130.0,-4.0,-0.5,1.5,0,None
2023-01-01 16:08:18,396.544,0.104000000000002,56.0,1211.0,21922.5,4889.0,98.0,1070.5,257.8,4894.1,102.07636,3.6338422,0.093295584,0.06925493,-0.89397544,57.258,0.102931244,0.073272828,-1.0204882,0.80266743,1.08267795,8.455702899999999,85.9,18.65,120.15,-65.05,16.25,249.65,-1052.5,-10.05,308.1,1017.26225,-3.71111315,3237.3,0.102931244,0.02368975,0.073272828,-0.000692286,-1.0204882,0.0068809608,57230.0,30149.5,29020.0,-6.5,5.5,8.5,0,None
2023-01-01 16:08:19,397.582,0.104000000000002,56.0,1040.0,22031.5,4885.5,98.0,1104.6,260.8,4847.7,101.8039,3.6715991999999993,0.0982984619999999,0.061129608,-0.89710628,57.09400000000001,0.1087016199999999,0.064668646,-1.0224884,0.67578131,1.01010908,8.010057100000001,75.6,-42.4,120.5,-84.2,10.8,249.1,-1047.8,-4.0,312.3,1017.2933,-3.6798592,3238.5,0.1087016199999999,-0.0246675001999999,0.064668646,-0.051165426,-1.0224884,0.0022502127999999,57065.0,30148.0,28855.0,0.5,20.0,4.5,0,None
2023-01-01 16:08:20,398.59333333333336,0.1088888888888845,56.0,1068.0,21964.5,4885.0,98.0,1047.4444444444443,263.77777777777777,4841.0,101.5013,3.719892888888889,0.083437696,0.044969568,-0.89328432,56.92,0.094488358,0.049301412,-1.017131,0.779679688888889,1.0525508555555556,7.523286222222222,69.16666666666667,23.05555555555556,122.72222222222224,-72.77777777777777,-16.055555555555557,242.38888888888889,-1062.2222222222222,-4.555555555555555,314.94444444444446,1017.3382222222222,-3.6349956666666654,3239.5,0.094488358,-0.029387396,0.049301412,0.0162210719999999,-1.017131,-0.0062750402,56940.0,30185.0,28730.0,-8.0,32.0,10.0,0,None
2023-01-01 16:08:21,399.58,0.1020000000000038,56.0,914.0,22088.0,4886.0,98.0,942.1,266.5,4873.8,101.27812000000002,3.7670382,0.0658645,0.047035126,-0.88321682,56.782,0.077307108,0.051413218,-1.00624734,0.91418445,1.1770878000000002,6.981622,73.5,-11.5,134.2,-54.3,-4.6,241.2,-1090.1,11.9,316.8,1017.3605,-3.612718800000001,3240.2,0.077307108,0.00256169242,0.051413218,-0.01090269226,-1.00624734,0.01745424602,56835.0,30198.0,28625.0,-9.0,32.0,18.5,0,None
2023-01-01 16:08:22,400.5711111111111,0.1044444444444441,56.0,1045.0,22001.5,4882.5,98.0,995.6666666666666,269.22222222222223,4891.333333333333,101.05956666666664,3.8142687777777775,0.064536945,0.0426733449999999,-0.882784325,56.645,0.07622119,0.046214005,-1.004854,0.8692403333333334,1.1287490444444443,7.099935666666666,76.22222222222223,-17.88888888888889,136.55555555555554,-61.77777777777778,16.77777777777778,245.88888888888889,-1056.0,0.6666666666666666,314.0,1017.3602222222222,-3.6130727777777776,3241.222222222222,0.07622119,-0.0607357174999999,0.046214005,-0.0223978862499999,-1.004854,-0.0290036625,56675.0,30262.0,28465.0,-3.0,23.0,17.0,0,None
2023-01-01 16:08:23,401.562,0.1039999999999963,56.0,994.5,21979.0,4813.5,98.0,1044.9,272.0,4890.0,100.83704,3.8582024,0.076965268,0.0306289659999999,-0.8901320399999999,56.532,0.088620688,0.034592044,-1.0110772,0.73279082,1.03022693,6.469446700000001,68.15,-8.05,129.4,-61.05,38.55,238.8,-1054.7,-15.5,322.1,1017.3595,-3.6136446000000007,3242.4,0.088620688,0.048498487,0.034592044,-0.0152652726,-1.0110772,-0.01062919608,56540.0,30217.5,28330.0,-3.0,12.5,21.0,0,None
2023-01-01 16:08:24,402.58,0.1111111111111111,56.0,876.0,22048.0,4877.5,98.0,930.8888888888888,274.8888888888889,4893.444444444444,100.6540777777778,3.8993465555555553,0.09124056,0.0584159199999999,-0.88422892,56.512,0.102371724,0.062771926,-1.0048876,0.7594347333333332,1.1489081333333333,7.716826666666666,77.05555555555556,61.16666666666666,121.94444444444444,-98.88888888888889,-1.3333333333333333,240.11111111111111,-1026.388888888889,14.333333333333334,319.1111111111111,1017.2580555555556,-3.715082333333333,3243.333333333333,0.102371724,-0.036316717,0.062771926,0.093641538,-1.0048876,0.0026345421799999,56510.0,30236.0,28300.0,-32.0,0.5,23.5,0,None
2023-01-01 16:08:25,403.55555555555554,0.1066666666666706,56.0,894.0,22012.5,4823.0,98.0,1025.4444444444443,277.55555555555554,4892.444444444444,100.47114444444446,3.943059555555555,0.0986393825,0.1287146499999999,-0.90256155,56.56,0.1108126225,0.1317922249999999,-1.0226555,0.8356682555555555,1.042102822222222,8.171367444444446,88.33333333333333,68.11111111111111,115.88888888888889,-94.33333333333331,23.444444444444443,261.77777777777777,-1078.0,-37.77777777777778,296.44444444444446,1017.2006666666668,-3.7725693333333337,3244.111111111112,0.1108126225,0.0606887475,0.1317922249999999,0.0907555874999999,-1.0226555,-0.037361495,56565.0,30153.5,28355.0,-29.5,-13.0,5.0,0,None
2023-01-01 16:08:26,404.592,0.1099999999999965,56.0,1606.5,21876.0,4889.0,98.0,1476.4,281.1,4877.4,100.17854,3.995911,0.1285435833333333,0.0964199216666666,-0.89131075,56.47333333333332,0.1403039333333333,0.1017361166666666,-1.0083775,0.6913775400000001,1.51076996,11.7799468,122.0,-41.65,104.35,-125.25,7.0,260.8,-1052.05,52.3,311.05,1017.19105,-3.7821171,3245.25,0.1403039333333333,0.0352248918333333,0.1017361166666666,-0.0171861493333333,-1.0083775,0.03751719,56465.0,30212.0,28255.0,0.0,-1.0,-9.5,0,None
2023-01-01 16:08:27,405.6088888888889,0.1066666666666706,56.0,1510.5,21807.0,4881.0,98.0,1243.0,285.1111111111111,4893.555555555556,99.83066,4.056829111111111,0.13344535,0.1031953774999999,-0.8597883,56.5025,0.146476375,0.109616065,-0.975466875,0.7217231333333333,1.4497955555555555,11.87734977777778,111.77777777777776,-8.333333333333334,113.0,-112.05555555555556,12.5,248.0,-1074.5,0.2777777777777778,294.6666666666667,1017.1936666666668,-3.779535333333333,3246.0,0.146476375,-0.0255364824999999,0.109616065,-0.088499125,-0.975466875,-0.0008604407499999,56495.0,30401.5,28285.0,0.5,-2.0,8.5,0,None
2023-01-01 16:08:28,406.58222222222224,0.1066666666666643,56.0,916.0,22042.0,4888.0,98.0,1001.8888888888888,288.0,4858.666666666667,99.49362666666669,4.122068222222223,0.12913702,0.0957293059999999,-0.8732548400000001,56.552,0.14187676,0.1017870799999999,-0.98826526,0.9611883888888888,1.1145393222222222,8.72478188888889,106.05555555555556,-34.611111111111114,117.33333333333331,-87.77777777777777,-49.61111111111112,251.61111111111111,-1054.3333333333333,-34.27777777777778,308.05555555555554,1017.2907222222224,-3.682595444444444,3247.0,0.14187676,0.013323578,0.1017870799999999,-0.015790592,-0.98826526,-0.0162067945999999,56545.0,30323.5,28335.0,12.5,39.5,-2.0,0,None
2023-01-01 16:08:29,407.54,0.1088888888888908,56.0,932.5,21994.5,4886.0,98.0,1038.4444444444443,290.6666666666667,4856.111111111111,99.18653777777776,4.188795333333334,0.099678925,0.0254755275,-0.90008205,56.385,0.113864175,0.0332498425,-1.01325475,0.7671964444444445,0.9379166666666668,6.417879666666667,88.55555555555556,-40.22222222222222,118.88888888888889,-80.77777777777777,-3.333333333333333,237.11111111111111,-1064.7777777777778,-9.666666666666666,320.77777777777777,1017.3256666666668,-3.647352444444445,3247.777777777778,0.113864175,0.002732562,0.0332498425,-0.0601648725,-1.01325475,-0.0065549575,56360.0,30192.0,28150.0,2.0,44.0,10.5,0,None
2023-01-01 16:08:30,408.564,0.1060000000000002,56.0,888.0,22069.5,4809.0,98.0,919.7,293.5,4841.0,98.960752,4.2545726,0.08225023,0.03643003,-0.88787875,56.303333333333335,0.09672855,0.0430093166666666,-0.99999375,0.8173068500000001,1.07013308,7.120434299999999,81.6,17.9,127.75,-80.7,-7.65,241.35,-1025.2,42.35,321.8,1017.366,-3.60738665,3248.7,0.09672855,-0.0562856566666666,0.0430093166666666,-0.01995142,-0.99999375,0.0424926583333333,56290.0,30321.5,28080.0,-24.0,33.5,16.5,0,None
2023-01-01 16:08:31,409.5755555555555,0.1044444444444441,56.0,1025.0,22057.0,4877.0,98.0,890.8888888888889,296.0,4871.222222222223,98.8046022222222,4.310864333333333,0.053490175,0.0651976824999999,-0.8572897,56.255,0.067033445,0.0708295499999999,-0.968421575,0.8640649333333332,1.3010608555555556,10.324447,68.66666666666667,77.11111111111111,147.55555555555554,-124.44444444444444,-3.2222222222222223,239.3333333333333,-1010.7777777777778,-4.777777777777778,323.77777777777777,1017.358,-3.6152952222222217,3249.111111111112,0.067033445,-0.0276118599999999,0.0708295499999999,0.1979376925,-0.968421575,-0.01058388,56250.0,30470.0,28040.0,-40.0,28.0,26.0,0,None
2023-01-01 16:08:32,410.56200000000007,0.1039999999999963,56.0,824.5,21951.5,4822.0,98.0,829.4,298.3,4888.7,98.62619799999996,4.360764399999999,0.0817129359999999,0.112332228,-0.8828352199999999,56.312,0.096171778,0.116613622,-0.99256216,1.0286815,1.5998239,11.9877067,79.9,2.85,133.35,-84.75,89.35,253.3,-1057.35,-30.75,294.05,1017.3124,-3.6607813,3250.15,0.096171778,0.0567769219999999,0.116613622,0.0978044959999999,-0.99256216,-0.032699526,56285.0,30354.0,28075.0,-22.0,-7.0,19.0,0,None
2023-01-01 16:08:33,411.6060000000001,0.104000000000002,56.0,1063.0,21982.0,4888.5,98.0,1049.0,301.2,4889.0,98.381414,4.410528000000001,0.097533582,0.068262194,-0.87682654,56.302,0.1111787,0.07393527,-0.9859502,0.87234864,1.2491678,10.8042987,91.4,-27.8,125.2,-114.2,2.3,241.8,-968.6,7.2,300.5,1017.2462000000002,-3.7269921999999993,3250.9,0.1111787,-0.0347991468,0.07393527,-0.0574603626,-0.9859502,0.005572842,56315.0,30338.5,28105.0,-1.0,-3.0,6.0,0,None
2023-01-01 16:08:34,412.59777777777776,0.1066666666666643,56.0,1023.0,21948.0,4890.0,98.0,1000.8888888888888,303.8888888888889,4877.666666666667,98.10069,4.463783222222222,0.114319006,0.1235957199999999,-0.90691872,56.36999999999999,0.128966972,0.1300221399999999,-1.0159315999999998,0.8497055888888887,1.1743333333333332,12.153108666666668,98.66666666666669,101.72222222222224,116.27777777777776,-140.72222222222223,55.94444444444444,261.5,-996.0,-27.0,295.77777777777777,1017.2432777777778,-3.729973722222223,3251.6666666666665,0.128966972,0.050155392,0.1300221399999999,0.0860347279999999,-1.0159315999999998,-0.0198916708,56350.0,30206.0,28140.0,-32.0,-29.0,8.5,0,None
2023-01-01 16:08:35,413.57400000000007,0.1020000000000038,56.0,1331.5,21956.5,4883.5,98.0,974.5,306.6,4845.2,97.771448,4.5213920000000005,0.12630622,0.16140356,-0.9196195,56.42,0.14044508,0.1677540599999999,-1.0272542000000002,0.75675332,1.2445999999999997,11.8412976,95.5,-8.3,100.6,-133.8,10.0,274.2,-1032.0,-7.7,284.6,1017.2411,-3.7320466999999993,3252.6,0.14033122,-0.0509798677999999,0.1680470399999999,-0.0366504656,-1.0271454,-0.0105519884,56415.0,30120.5,28205.0,-29.0,-6.0,11.0,0,None
2023-01-01 16:08:36,414.62000000000006,0.1039999999999963,56.0,1296.0,21905.0,4891.0,98.0,1253.1,310.1,4888.8,97.369316,4.584685,0.10929982,0.14200398,-0.91715918,56.396,0.12367894,0.14929438,-1.0235419999999995,0.7677693699999999,1.23086308,14.453627,129.2,-30.3,106.2,-107.9,-15.8,272.8,-1084.3,6.9,457.2,1017.258,-3.7150468,3253.4,0.12367894,0.068683054,0.14929438,-0.0167377879999999,-1.0235419999999995,0.0113888999999999,56395.0,30128.0,28185.0,1.0,19.0,2.5,1,27_zmag_avg_abrupt_175.5
2023-01-01 16:08:37,415.59333333333336,0.1022222222222239,56.0,891.0,22005.5,4817.5,98.0,1087.888888888889,313.44444444444446,4890.666666666667,96.93060444444444,4.652241222222223,0.116742075,0.1038937425,-0.8960239249999999,56.3975,0.131126925,0.11319439,-1.00101055,0.8043142888888889,1.3933912222222222,11.832882777777776,109.27777777777776,-53.5,110.5,-144.83333333333334,10.055555555555555,262.3888888888889,-995.0555555555557,17.944444444444443,466.72222222222223,1017.301277777778,-3.671918055555556,3254.111111111112,0.131126925,0.0761789025,0.11319439,0.029344145,-1.00101055,0.0190460225,56405.0,30250.0,28195.0,24.0,30.5,13.0,1,27_zmag_avg_abrupt_175.5
2023-01-01 16:08:38,416.5800000000001,0.104000000000002,56.0,1388.5,21883.5,4880.0,98.0,1214.3,316.5,4843.9,96.505586,4.719420800000001,0.108389278,0.10688407,-0.8996911000000001,56.35,0.12350456,0.1164133639999999,-1.00399066,0.72294031,1.5707348,11.6470019,121.2,56.0,116.7,-196.7,2.5,258.9,-1060.2,-28.4,465.6,1017.2455,-3.7277186,3255.0,0.12350456,0.0102620714,0.1164133639999999,0.093440985,-1.00399066,-0.0249372998,56345.0,30252.0,28135.0,-2.5,14.5,18.0,1,27_zmag_avg_abrupt_175.5
2023-01-01 16:08:39,417.62000000000006,0.1039999999999963,56.0,1270.5,21944.0,4889.0,98.0,1464.3,320.2,4857.1,96.09132,4.7862376,0.14014144,0.14772786,-0.91743086,56.366,0.15441172,0.1559037,-1.0216246000000002,0.76663052,1.3537579,12.247984999999996,95.2,-24.6,103.1,-179.3,19.1,270.1,-1015.7,-25.2,446.7,1017.2819,-3.691203,3255.8,0.15441172,0.11165080794,0.1559037,0.072528124,-1.0216246000000002,-0.00383759,56370.0,30138.5,28160.0,-10.0,5.5,2.5,1,27_zmag_avg_abrupt_175.5
2023-01-01 16:08:40,418.6222222222223,0.1088888888888908,55.0,1338.0,21903.5,4884.5,97.55555555555556,1203.5555555555557,324.1111111111111,4868.333333333333,95.63433555555554,4.858049666666666,0.072707002,0.1356040399999999,-0.8885251799999999,56.324,0.086262046,0.14506236,-0.9929954,0.7255841444444443,1.4069096666666665,12.05664177777778,78.83333333333333,8.055555555555555,125.72222222222224,-127.44444444444444,-116.94444444444444,257.3333333333333,-1100.6666666666667,55.61111111111112,456.6666666666667,1017.343388888889,-3.629934944444444,3256.611111111112,0.086262046,-0.0637996099999999,0.14506236,-0.0407904474,-0.9929954,0.0603517339999999,56330.0,30320.5,28120.0,-24.5,46.0,15.5,1,27_zmag_avg_abrupt_175.5
2023-01-01 16:08:41,419.6044444444444,0.1088888888888908,55.0,898.0,21976.5,4881.0,97.0,1042.888888888889,327.1111111111111,4885.666666666667,95.16434,4.922694666666666,0.0426012925,0.133884025,-0.8842839,56.3225,0.0578933499999999,0.142670825,-0.986891475,0.7999234666666667,1.2200349666666668,10.255922444444444,96.38888888888889,-20.22222222222222,142.05555555555554,-136.22222222222223,74.61111111111111,266.72222222222223,-995.8333333333334,-32.5,448.6111111111111,1017.3592777777778,-3.613780111111111,3257.333333333333,0.0578933499999999,0.08571883,0.142670825,-0.04551073,-0.986891475,-0.0392226825,56320.0,30343.5,28110.0,17.0,23.0,19.0,1,27_zmag_avg_abrupt_175.5
2023-01-01 16:08:42,420.58600000000007,0.1019999999999981,55.0,1428.5,21877.5,4811.5,97.0,1383.4,330.6,4860.0,94.678574,4.979744999999999,0.10030226,0.076132312,-0.90106846,56.194,0.1131245999999999,0.08581428,-1.00194692,0.7691229999999999,0.91774278,12.459021,90.6,-77.7,115.4,-119.2,18.5,244.2,-1072.4,-3.1,469.2,1017.3863,-3.5868825,3258.1,0.1131245999999999,0.03684901174,0.08581428,-0.094448962,-1.00194692,0.00768522,56170.0,30265.0,27960.0,31.0,10.0,26.0,1,27_zmag_avg_abrupt_175.5
2023-01-01 16:08:43,421.622,0.1019999999999981,55.0,1494.5,21771.5,4816.5,97.0,1269.5,334.2,4892.2,94.23653,5.0340966,0.0946635316666666,0.0726416433333333,-0.8990926999999999,56.18833333333333,0.1071822466666666,0.0827603383333333,-0.9989159833333332,0.76455709,1.15408829,12.0586432,85.8,48.1,123.7,-107.8,-12.1,253.6,-1022.6,-0.8,487.0,1017.3893,-3.5837264,3258.9,0.1071822466666666,0.0196920983333333,0.0827603383333333,-0.0145739178333333,-0.9989159833333332,-0.012582701,56205.0,30277.5,27995.0,0.0,9.5,24.5,1,27_zmag_avg_abrupt_175.5
2023-01-01 16:08:44,422.6288888888889,0.1066666666666707,55.0,1491.0,21868.5,4890.0,97.0,1717.111111111111,338.22222222222223,4891.111111111111,93.86572,5.0874134444444445,0.11262385,0.0799186775,-0.8938678499999999,56.1125,0.12469905,0.0894640275,-0.9917837,0.6261635222222223,1.524344777777778,12.088219222222222,95.94444444444444,9.22222222222222,111.77777777777776,-120.33333333333331,32.0,253.5,-1091.5555555555557,-2.4444444444444446,468.5,1017.3896111111112,-3.5835981111111104,3259.833333333333,0.12469905,0.0451609975,0.0894640275,-0.006608845,-0.9917837,-0.0053637075,56115.0,30314.0,27905.0,-8.0,-7.0,33.0,1,27_zmag_avg_abrupt_175.5
2023-01-01 16:08:45,423.61,0.1019999999999981,54.5,1733.0,21772.0,4889.5,97.0,1703.8,343.1,4891.9,93.58188400000002,5.135982200000001,0.12249766,0.096774172,-0.88654598,56.154,0.1344387199999999,0.1056270199999999,-0.98426882,0.56128221,1.35170511,11.739301100000002,106.9,3.8,116.5,-106.7,3.0,250.3,-1036.8,14.4,469.9,1017.3903,-3.5827734,3260.5,0.1344387199999999,-0.045539706,0.1056270199999999,0.08438784,-0.98426882,0.018340918,56160.0,30373.5,27950.0,-10.5,4.0,24.5,1,27_zmag_avg_abrupt_175.5
2023-01-01 16:08:46,424.59333333333336,0.1066666666666643,54.0,1827.5,21706.5,4896.0,97.0,1488.0,347.6666666666667,4879.666666666667,93.32274444444444,5.187419,0.1024283119999999,0.068550376,-0.8742268799999999,56.23,0.114966202,0.077433314,-0.97208164,0.6084385333333333,1.4482665555555554,11.408160666666667,97.11111111111111,-51.888888888888886,119.05555555555556,-98.27777777777776,1.9444444444444444,239.61111111111111,-1040.7222222222222,6.555555555555555,467.55555555555554,1017.3742777777776,-3.5989191666666662,3261.111111111112,0.114966202,-0.035082614,0.077433314,-0.06214745,-0.97208164,0.0123751239999999,56260.0,30447.0,28050.0,-3.0,9.5,29.5,1,27_zmag_avg_abrupt_175.5
2023-01-01 16:08:47,425.59800000000007,0.1060000000000002,54.0,1212.5,21868.5,4894.5,97.0,1342.0,351.2,4845.3,93.107784,5.2378574,0.11088088,0.0599915479999999,-0.88858678,56.284000000000006,0.12392212,0.068244156,-0.98613432,0.69105943,1.20736105,7.7809764,102.5,-9.3,118.9,-77.1,6.1,245.6,-1075.1,-15.2,487.1,1017.3782,-3.5950078000000003,3262.0,0.12392212,0.03328027,0.068244156,-0.0191707679999999,-0.98613432,-0.0090662271999999,56280.0,30341.5,28070.0,-3.5,8.5,21.0,1,27_zmag_avg_abrupt_175.5
2023-01-01 16:08:48,426.5911111111111,0.1022222222222239,54.0,1597.5,21733.5,4881.5,97.0,1639.4444444444443,355.44444444444446,4898.0,92.94971444444444,5.2854573333333335,0.116727425,0.0508392325,-0.890357575,56.22500000000001,0.1284900375,0.058929695,-0.98759055,0.499923511111111,1.2641545111111112,11.157685666666666,76.88888888888889,-23.5,114.22222222222224,-81.33333333333333,-47.388888888888886,231.77777777777777,-1070.7777777777778,7.611111111111111,470.27777777777777,1017.3676666666668,-3.605620611111112,3262.777777777778,0.1284900375,-0.04465422975,0.058929695,-0.04622789775,-0.98759055,0.007643204025,56230.0,30349.0,28020.0,-23.0,27.0,8.0,1,27_zmag_avg_abrupt_175.5
2023-01-01 16:08:49,427.586,0.1060000000000002,54.0,799.0,21999.0,4893.0,97.0,992.4,358.9,4893.8,92.831632,5.329406199999999,0.070242322,0.0460549539999999,-0.90094394,56.326,0.084147692,0.053554352,-0.99949486,0.7061029499999999,1.14177128,8.6060914,98.0,44.3,135.2,-61.6,9.2,234.5,-1044.1,-15.6,484.4,1017.3538,-3.61925,3263.2,0.084147692,-0.01366869,0.053554352,0.057686942,-0.99949486,-0.0130150859999999,56300.0,30300.5,28090.0,-24.5,17.0,32.5,1,27_zmag_avg_abrupt_175.5
2023-01-01 16:08:50,428.5955555555556,0.1066666666666643,54.0,771.0,21956.0,4892.5,97.0,915.6666666666666,361.6666666666667,4897.444444444444,92.74542555555551,5.366457555555555,0.084127326,0.0414328002,-0.90601034,56.316,0.096398984,0.04693202,-1.0045814,0.9846836111111112,1.1254121333333331,8.814242777777777,64.22222222222223,-82.16666666666667,132.27777777777777,-54.27777777777778,-4.611111111111111,237.94444444444449,-1072.111111111111,-15.11111111111111,315.8333333333333,1017.4026111111112,-3.570681388888889,3264.111111111112,0.096398984,0.0264211639999999,0.04693202,-0.097925764,-1.0045814,-0.0078754784,56335.0,30254.5,28125.0,-4.0,18.5,17.5,0,None
2023-01-01 16:08:51,429.61,0.1060000000000002,54.0,1041.0,21992.5,4891.0,97.0,1020.2,364.4,4879.1,92.685655,5.397718299999999,0.057168552,0.01618832826,-0.91149886,56.24400000000001,0.0695310979999999,0.0222796558,-1.0098108,0.77396147,1.05102565,6.703106,51.3,27.9,135.1,-50.1,-18.0,226.1,-1075.1,-2.2,322.6,1017.3825,-3.590671799999999,3264.8,0.0695310979999999,-0.0063576499999999,0.0222796558,0.0048036433999999,-1.0098108,-0.0001604627999999,56245.0,30209.0,28035.0,-23.0,18.5,18.0,0,None
2023-01-01 16:08:52,430.6155555555556,0.1044444444444441,54.0,1070.0,21896.0,4892.5,97.0,1088.888888888889,367.3333333333333,4864.111111111111,92.6820911111111,5.41940011111111,0.040174535,0.03919726,-0.9165719,56.2375,0.0518059899999999,0.044210595,-1.0145035,0.698282811111111,1.2682836666666666,7.996322333333334,27.666666666666668,17.77777777777778,142.0,-53.16666666666666,-14.11111111111111,242.0,-1039.2222222222222,-34.833333333333336,316.8333333333333,1017.3460555555556,-3.627009277777778,3265.111111111112,0.0518059899999999,-0.0068246375,0.044210595,0.05559281425,-1.0145035,-0.02816684,56240.0,30195.5,28030.0,-27.5,15.0,20.0,0,None
2023-01-01 16:08:53,431.5666666666667,0.1088888888888908,54.0,995.5,21968.5,4888.0,97.0,1111.2222222222222,370.22222222222223,4857.333333333333,92.67266666666669,5.431100777777779,0.03599206,0.047972272,-0.91947992,56.284000000000006,0.048149286,0.052455176,-1.0175714,0.643710388888889,0.8636975555555556,7.019229333333333,72.38888888888889,-27.05555555555556,143.27777777777777,-68.72222222222223,67.66666666666667,248.27777777777777,-1027.2222222222222,19.444444444444443,304.3888888888889,1017.3162222222222,-3.6569704444444446,3265.8888888888887,0.048149286,0.058893864,0.052455176,-0.020999208,-1.0175714,0.0062347179999999,56290.0,30178.5,28080.0,-5.0,-0.5,14.5,0,None
2023-01-01 16:08:54,432.5940000000001,0.1060000000000002,54.0,1399.0,21872.0,4889.0,97.0,1245.5,373.8,4865.1,92.623048,5.437058599999999,0.075822158,0.0349624159999999,-0.9072522,56.326,0.085883498,0.0404059,-1.00418424,0.54345737,1.03181998,8.155083199999998,56.5,20.0,129.1,-75.0,0.4,241.2,-1028.3,14.1,300.0,1017.3073,-3.6658436,3266.8,0.085883498,0.0077820999999999,0.0404059,0.022542106,-1.00418424,0.0235179596,56325.0,30257.0,28115.0,-8.5,-7.0,14.5,0,None
2023-01-01 16:08:55,433.59333333333336,0.1066666666666643,54.0,1215.5,21827.0,4816.5,97.0,1190.111111111111,377.22222222222223,4895.111111111111,92.57717666666667,5.441570333333334,0.052683944,0.040308288,-0.9005638999999999,56.366,0.063644738,0.046306176,-0.99825872,0.5812342666666667,1.2505142555555553,6.722362333333333,58.55555555555556,-12.27777777777778,143.05555555555554,-63.27777777777778,0.6111111111111112,229.0,-1049.611111111111,13.166666666666666,301.3888888888889,1017.3172777777776,-3.6558112777777776,3267.3888888888887,0.063644738,0.025715874,0.046306176,-0.0249699993999999,-0.99825872,-0.009710749,56365.0,30283.0,28155.0,-3.5,-5.5,16.0,0,None
2023-01-01 16:08:56,434.6000000000001,0.1060000000000002,54.0,1216.5,21904.5,4888.0,97.0,994.3,380.2,4850.9,92.53427200000002,5.4465962,0.059768346,0.043977002,-0.8996703,56.39,0.069700654,0.0501547799999999,-0.99700036,0.65219562,1.1825733,8.691022499999999,50.0,21.6,140.9,-72.5,20.4,236.3,-1027.7,-26.1,314.2,1017.2807,-3.6922578,3268.2,0.069700654,0.009421104,0.0501547799999999,-0.0086390344,-0.99700036,-0.0164504974599999,56395.0,30293.5,28185.0,-7.5,-4.0,13.0,0,None
2023-01-01 16:08:57,435.6133333333334,0.1044444444444441,54.0,1174.0,21855.0,4890.0,97.0,1186.3333333333333,383.3333333333333,4849.666666666667,92.49542,5.451501777777779,0.064115585,0.0718803675,-0.914787175,56.42999999999999,0.074393145,0.0773340725,-1.01111875,0.6455867222222222,1.0335174777777776,9.046050222222224,47.27777777777778,29.5,131.55555555555554,-76.11111111111111,-17.666666666666668,256.55555555555554,-1034.111111111111,-34.5,300.22222222222223,1017.2392222222222,-3.733854,3268.833333333333,0.074393145,-0.043599835,0.0773340725,0.0975809525,-1.01111875,-0.020241613,56440.0,30183.0,28230.0,5.0,-2.5,4.0,0,None
2023-01-01 16:08:58,436.55555555555554,0.1088888888888908,54.0,996.5,21959.5,4893.0,97.0,1216.2222222222222,386.3333333333333,4844.666666666667,92.45361444444444,5.456786222222223,0.072982594,0.046495426,-0.92926188,56.44200000000001,0.0831278739999999,0.0517659379999999,-1.0244778,0.7406488999999999,0.9778103222222224,7.717572888888889,80.66666666666667,-60.27777777777778,126.05555555555556,-54.05555555555556,86.61111111111111,245.61111111111111,-1036.3333333333333,-10.22222222222222,300.3333333333333,1017.3063333333332,-3.666901,3269.333333333333,0.0831278739999999,0.051829392,0.0517659379999999,-0.127004894,-1.0244778,-0.0158346914,56420.0,30144.0,28210.0,28.0,2.5,4.0,0,None
2023-01-01 16:08:59,437.5940000000001,0.1060000000000002,54.0,1413.0,21802.0,4889.0,97.0,1595.8,390.6,4878.4,92.426384,5.4642706,0.1277032,0.0286690759999999,-0.8948272000000002,56.372,0.13793834,0.03640088,-0.98879666,0.60096672,1.4216406,12.8058404,111.2,15.2,111.9,-65.2,12.0,224.6,-1038.5,46.5,308.2,1017.1888,-3.78457,3270.2,0.13793834,-0.011802692,0.03640088,-0.02249337,-0.98879666,0.0695591439999999,56395.0,30395.0,28185.0,7.5,-10.0,1.0,0,None
2023-01-01 16:09:00,438.6066666666667,0.1066666666666643,54.0,1677.0,21744.0,4890.5,97.0,1309.7777777777778,394.6666666666667,4881.777777777777,92.44852777777778,5.4751332222222215,0.1226360039999999,0.0276995158,-0.8831897,56.50599999999999,0.133264036,0.03460755,-0.97723136,0.7044297777777778,1.2733634666666669,8.895509888888888,59.0,-36.94444444444444,115.72222222222224,-34.27777777777778,-14.77777777777778,231.0,-1071.2777777777778,16.333333333333332,313.72222222222223,1017.3313333333332,-3.641736,3270.9444444444443,0.132043432,-0.0864233559999999,0.034586228,0.0243687319999999,-0.97685908,0.0179735499999999,56540.0,30369.0,28330.0,5.0,8.0,1.0,0,None
2023-01-01 16:09:01,439.58888888888896,0.1133333333333376,54.0,1109.0,21909.5,4884.0,97.0,1115.888888888889,398.0,4895.111111111111,92.51796666666668,5.486251222222223,0.086815614,0.0017043298,-0.8853078,56.38199999999999,0.099300208,0.0093514454,-0.97853788,0.6514193444444445,1.179072311111111,6.951992555555556,75.0,-12.72222222222222,133.27777777777777,-42.27777777777778,-49.27777777777778,225.8333333333333,-1058.0,-40.16666666666666,322.72222222222223,1017.3491111111113,-3.624058055555556,3271.4444444444443,0.099300208,-0.071185944,0.0093514454,-0.01720472,-0.97853788,-0.0619877799999999,56410.0,30454.0,28200.0,-19.0,47.5,13.0,0,None
2023-01-01 16:09:02,440.602,0.1019999999999981,54.0,964.5,21911.5,4890.0,97.0,940.4,401.1,4891.1,92.629392,5.4954198,0.057657338,0.02915547614,-0.91415556,56.356,0.07071905,0.0352565901999999,-1.0083395999999998,0.93708002,1.17147357,8.547149300000001,62.9,56.1,140.8,-56.6,3.4,227.9,-1030.7,-21.0,316.9,1017.3496,-3.623625000000001,3272.1,0.07030982,0.038676496,0.0349307222,0.0568490639999999,-1.008456,-0.0115187774399999,56360.0,30239.0,28150.0,-41.0,23.5,19.0,0,None
2023-01-01 16:09:03,441.59777777777776,0.1066666666666643,54.0,748.5,22034.0,4892.0,97.0,1099.6666666666667,403.77777777777777,4859.555555555556,92.74756666666669,5.501729888888889,0.0802619025,0.040493705,-0.919192725,56.3125,0.091611825,0.0451989075,-1.01316875,0.8726629555555555,1.231007,9.133433,82.05555555555556,-16.5,126.33333333333331,-55.66666666666666,15.72222222222222,230.0,-1030.5,4.555555555555555,304.3333333333333,1017.3386666666664,-3.6343227222222216,3273.0,0.091611825,-0.03788151,0.0451989075,0.0262460925,-1.01316875,0.0015503874999999,56320.0,30215.0,28110.0,-26.5,10.5,16.0,0,None
2023-01-01 16:09:04,442.596,0.104000000000002,54.0,983.0,21895.5,4893.0,97.0,977.5,406.5,4876.2,92.854456,5.5075156000000005,0.064117432,0.045699026,-0.90848956,56.292,0.074794498,0.050345714,-1.0026210599999998,0.8354367100000001,1.12294275,7.613019200000001,55.5,26.1,136.2,-61.1,-26.2,235.9,-1103.2,-25.4,311.2,1017.3643,-3.60875,3273.7,0.074794498,-0.0047123579999999,0.050345714,0.0495982199999999,-1.0026210599999998,-0.0254169296,56305.0,30261.5,28095.0,-19.5,9.0,19.0,0,None
2023-01-01 16:09:05,443.59333333333336,0.1044444444444441,54.0,867.0,21992.5,4888.0,97.0,956.0,409.22222222222223,4847.0,92.9429722222222,5.513112777777779,0.051802354,0.0380292139999999,-0.92828682,56.062,0.06204497,0.042545506,-1.0219261999999998,0.9351282222222222,1.2387171111111113,8.657235555555555,54.388888888888886,-16.555555555555557,133.94444444444446,-43.5,-62.22222222222222,245.5555555555556,-1020.8333333333334,-16.72222222222222,316.77777777777777,1017.3666111111112,-3.6065059444444447,3274.111111111112,0.06204497,-0.07284042,0.042545506,-0.0167894439999999,-1.0219261999999998,-0.017382014,56060.0,30146.0,27850.0,-2.5,21.0,17.5,0,None
2023-01-01 16:09:06,444.5780000000001,0.104000000000002,54.0,1103.0,21864.0,4820.5,97.0,961.3,411.8,4894.7,92.99763,5.516467799999999,0.05118124,0.01123173494,-0.92198714,55.83200000000001,0.061670462,0.0156041964,-1.0145379799999998,1.04621234,1.17861366,9.401917999999998,38.6,-73.2,140.1,-49.4,63.2,235.0,-1044.9,22.8,320.0,1017.3434,-3.6296639,3274.7,0.061670462,0.193694124,0.0156041964,-0.044972326,-1.0145379799999998,0.0135277663999999,55850.0,30184.5,27640.0,12.0,23.0,15.5,0,None
2023-01-01 16:09:07,445.5844444444445,0.1088888888888845,54.0,1019.0,21971.5,4892.5,97.0,1003.7777777777778,414.77777777777777,4879.111111111111,93.05693555555554,5.514646777777778,0.04311188,-0.00686602725,-0.892456125,55.7275,0.0534190875,-0.0009773935,-0.9851514,0.7589551444444446,1.136374711111111,7.207194222222224,40.61111111111112,54.72222222222222,148.72222222222223,-57.44444444444444,-4.388888888888889,218.0,-1059.388888888889,-1.6111111111111112,321.77777777777777,1017.2697222222222,-3.703454777777777,3275.5,0.0534190875,0.039991595,-0.0009773935,0.0660448475,-0.9851514,0.0065973799999999,55735.0,30359.5,27525.0,-16.0,-1.5,15.5,0,None
2023-01-01 16:09:08,446.6040000000001,0.1060000000000001,54.0,927.0,21984.0,4896.5,97.0,1034.2,417.5,4893.1,93.140956,5.5104918000000005,0.049067294,0.045077658,-0.8936243399999999,55.698,0.058548934,0.049033814,-0.9872589,0.77043308,1.06822269,7.142639900000001,32.3,37.0,148.5,-78.8,-10.8,236.8,-1046.1,-5.9,311.0,1017.2515,-3.721531,3276.1,0.058548934,-0.044340698,0.049033814,0.045153036,-0.9872589,-0.01613859998,55675.0,30334.0,27465.0,-21.0,-1.0,7.0,0,None
2023-01-01 16:09:09,447.6111111111111,0.1044444444444441,54.0,773.0,22018.0,4823.0,97.0,1028.2222222222222,420.22222222222223,4900.888888888889,93.20905111111114,5.505659888888889,0.039705628,0.054955316,-0.90049048,55.63000000000001,0.048707914,0.058557286,-0.99425282,0.6323065222222222,1.1400075222222223,8.436740666666667,38.388888888888886,-16.944444444444443,146.33333333333334,-39.44444444444444,13.944444444444445,240.0555555555556,-1036.611111111111,-5.0,293.6111111111111,1017.2350555555556,-3.738133611111112,3276.833333333333,0.048707914,0.0061508639999999,0.058557286,-0.0514372285999999,-0.99425282,-0.0003541007999999,55625.0,30303.5,27415.0,-2.5,0.5,-0.5,0,None
2023-01-01 16:09:10,448.6,0.1060000000000002,54.0,1241.0,21874.5,4897.0,97.0,1030.5,423.2,4891.6,93.23067,5.500333599999999,0.03981275,0.034571842,-0.9106573,55.538,0.048559732,0.038869938,-1.0037102,0.7095086,1.03365372,6.525185899999999,17.0,-24.0,142.5,-49.7,-18.7,235.4,-1031.1,-17.7,306.4,1017.244,-3.7291169,3277.6,0.048559732,0.0040279412,0.038869938,-0.0031223871999999,-1.0037102,-0.0039408381999999,55525.0,30244.5,27315.0,6.0,10.0,5.0,0,None
