00000_Time_epoch,00000_Time_boot_sec,00000_Span_Time_boot_sec,1_battery_remaining_avg,1_current_battery_avg,1_voltage_battery_avg,125_Vcc_avg,147_battery_remaining_avg,147_current_battery_avg,147_current_consumed_avg,165_Vcc_avg,168_direction_avg,168_speed_avg,178_pitch_avg,178_roll_avg,178_yaw_avg,182_altitude_avg,182_pitch_avg,182_roll_avg,182_yaw_avg,241_vibration_x_avg,241_vibration_y_avg,241_vibration_z_avg,27_xacc_avg,27_xgyro_avg,27_xmag_avg,27_yacc_avg,27_ygyro_avg,27_ymag_avg,27_zacc_avg,27_zgyro_avg,27_zmag_avg,29_press_abs_avg,29_press_diff_avg,29_temperature_avg,30_pitch_avg,30_pitchspeed_avg,30_roll_avg,30_rollspeed_avg,30_yaw_avg,30_yawspeed_avg,33_alt_avg,33_hdg_avg,33_relative_alt_avg,33_vx_avg,33_vy_avg,33_vz_avg,label,diagnosis
2023-01-04 06:53:23,210.939,-0.2399999999999948,93.0,88.0,23783.0,4864.0,99.0,88.0,45.0,4877.0,-154.04185,0.2010616499999999,-0.001869604,-0.0152977366666666,-1.2131495,27.16,0.0036680518333333,-0.0104877816666666,-1.218683,0.02259727,0.03561131,0.2388058,-14.0,4.0,78.0,-1.0,3.0,253.0,-1063.0,0.0,340.0,1019.564,-0.1533594,3016.0,0.0036680518333333,0.0042173856666666,-0.0104877816666666,0.003216779,-1.218683,0.00049428055,27160.0,29017.5,-10.0,2.0,13.0,-32.5,0,None
2023-01-04 06:53:24,211.999,0.5299999999999869,93.0,83.0,23783.5,4872.0,99.0,85.0,45.0,4873.0,-156.40474999999998,0.176834,-0.0017447899166666,-0.0152030641666666,-1.2144796666666666,27.0525,0.0034339896666666,-0.0103403108333333,-1.219167,0.02817245,0.026842905,0.099392895,-14.5,3.0,75.5,0.5,3.5,250.0,-1075.5,0.0,339.5,1019.561,-0.1558593999999999,3018.0,0.0034339896666666,0.00414906375,-0.0103403108333333,0.0033091119166666,-1.219167,-0.0004617248166666,27045.0,29015.0,-125.0,3.0,13.0,-34.5,0,None
2023-01-04 06:53:25,213.0095,0.5005000000000024,93.0,117.0,23769.0,4860.0,99.0,140.0,45.0,4868.0,-155.92855,0.2191608,-0.00180692025,-0.0153769575,-1.2155335833333334,26.9525,0.0034073035833333,-0.0101514983333333,-1.2195240833333334,0.051841765,0.14179612,0.84527647,-7.5,2.5,76.5,19.5,6.0,252.0,-1079.0,2.0,341.5,1019.586,-0.13097655,3020.5,0.0034073035833333,0.0034666718333333,-0.0101514983333333,0.00334063245,-1.2195240833333334,0.0073426258416667,26955.0,29014.0,-215.0,4.0,14.0,-35.5,0,None
2023-01-04 06:53:26,214.041,0.5204999999999984,93.0,1175.5,23449.0,4858.5,99.0,833.0,47.0,4873.0,-155.08595,0.2707268499999999,0.0113921999999999,-0.0119578508333332,-1.2158104166666666,27.066666666666663,0.01680624775,-0.00643248085,-1.2166853333333332,0.3295440249999999,0.710295,1.8810295,-17.5,59.0,65.0,33.5,40.0,260.0,-1151.5,-17.0,288.0,1019.816,0.09910154,3022.5,0.01680624775,0.0259379208333333,-0.00643248085,0.0131645949999999,-1.2166853333333332,0.0071031455833333,27120.0,29034.0,-50.0,-2.5,15.5,35.0,0,None
2023-01-04 06:53:27,215.131,0.5500000000000114,91.5,1885.75,23258.0,4872.5,99.0,1839.5,52.0,4875.0,-154.5085,0.3034198999999999,-0.011156151,0.00107615005,-1.2183064166666666,28.734166666666667,-0.0056681812083333,0.0048248720833333,-1.213051916666667,0.4845697,1.01373435,2.3311345,-9.0,34.0,61.0,-17.0,-16.75,245.0,-1201.5,0.5,316.5,1019.345,-0.371914025,3026.0,-0.0056681812083333,-0.0297584403333333,0.0048248720833333,-0.0076351415833333,-1.213051916666667,-0.0121634768333333,28975.0,29045.0,1805.0,-4.0,13.0,207.0,0,None
2023-01-04 06:53:28,216.152,0.5004999999999882,90.5,1645.0,23232.5,4852.5,99.0,1817.0,57.5,4871.5,-151.7409,0.3122541,-0.0047381071666667,0.0084210272499999,-1.2242568333333337,31.988333333333333,0.0013325326666666,0.0144347498333332,-1.3193915833333332,0.4603576,0.96126885,1.9698315,4.0,-19.5,55.0,11.0,87.0,265.0,-1076.5,12.5,325.5,1018.939,-0.77796875,3028.5,0.0013325326666666,0.0186720723333333,0.0144347498333332,0.0348883129166666,-1.3193915833333332,-0.0051804193333333,32330.0,28441.0,5160.0,1.0,-6.5,295.0,0,None
2023-01-04 06:53:29,217.171,0.5095000000000027,90.0,970.0,23396.5,4875.5,99.0,1227.0,62.0,4870.5,-147.6024,0.3047978999999999,0.0111447680833333,0.0095918594166666,-1.2337820833333333,35.28583333333333,0.0165695891666666,0.0161275880833332,-1.3233789166666663,0.52126115,0.84851885,2.72578,10.0,-24.0,63.5,-3.0,34.5,251.5,-836.5,5.5,315.0,1018.616,-1.1008595,3031.0,0.0165695891666666,0.0048742974166666,0.0161275880833332,-0.0201141633333333,-1.3233789166666663,-0.0064815384999999,35310.0,28419.0,8140.0,10.5,-6.5,186.5,0,None
2023-01-04 06:53:30,218.171,0.5,89.0,1163.5,23365.5,4866.5,99.0,1120.0,65.0,4873.5,-149.8752,0.2755615,0.0358561575,0.0018152728333333,-1.2315195833333334,36.48416666666667,0.0417163175,0.0108119823,-1.3179915,0.5382895999999999,0.9804994,2.46321,13.5,44.5,44.5,-34.5,9.0,260.5,-986.0,2.0,327.0,1018.468,-1.2490625,3033.5,0.0417163175,0.004419175,0.0108119823,0.0295390774999999,-1.3179915,0.0050622795,36485.0,28450.5,9315.0,1.0,1.0,38.0,0,None
2023-01-04 06:53:31,219.2015,0.5204999999999984,89.0,1177.5,23330.0,4879.5,99.0,1188.5,68.0,4861.0,-159.29825,0.2519878,0.0221751825,0.0288979825,-1.2444688333333334,36.88083333333333,0.0282129316666666,0.035971615,-1.3265368333333334,0.4639073,0.8333122,3.175389,15.5,-4.0,52.5,-30.5,-5.0,254.5,-1040.5,11.5,305.5,1018.395,-1.3222265,3035.5,0.0282129316666666,-0.0174646168333333,0.035971615,0.0062477078333333,-1.3265368333333334,-0.0012508241666666,36885.0,28400.5,9715.0,2.5,19.0,-6.5,0,None
2023-01-04 06:53:32,220.2115,0.5,88.0,1176.5,23356.0,4872.0,99.0,1161.5,71.0,4869.0,-174.54435,0.2256836,0.0181765891666666,0.0191550258333332,-1.25297525,37.075833333333335,0.02405973,0.0257285125,-1.3309133333333332,0.5207202,0.79360595,2.0666325,20.0,10.5,53.0,-38.5,35.5,271.5,-1042.5,-10.5,321.5,1018.3705,-1.3464845,3037.5,0.02405973,0.0135650008333332,0.0257285125,-0.0028238935833333,-1.3309133333333332,-0.0049910911666667,37075.0,28378.5,9905.0,15.0,23.0,-23.5,0,None
2023-01-04 06:53:33,221.2115,0.5,88.0,1146.0,23327.0,4865.5,99.0,1167.0,74.5,4864.0,164.08455,0.20684855,0.0152153871666666,0.01282193975,-1.26926275,37.148333333333326,0.0211406141666666,0.0197606316666666,-1.3424815833333337,0.35881235,1.0353215,3.3261380000000003,20.0,11.5,57.0,-39.5,36.0,248.0,-1070.5,21.5,299.0,1018.375,-1.3421095,3040.5,0.0211406141666666,0.0046256883333333,0.0197606316666666,-0.010260797,-1.3424815833333337,0.0151772034166666,37150.0,28305.5,9980.0,22.0,23.0,-31.5,0,None
2023-01-04 06:53:34,222.231,0.5095000000000027,87.5,1166.5,23313.0,4870.0,99.0,1149.5,78.0,4868.5,137.85055,0.2217367,0.0282342616666666,-0.0039564881666667,-1.257530416666667,37.16833333333334,0.0345123875,0.0027585549166666,-1.3264955833333334,0.40783875,1.0425938,2.933557,-2.5,-21.5,47.0,-34.0,-14.5,244.5,-1076.5,-3.5,312.0,1018.394,-1.3229685,3043.0,0.0345123875,0.0053997613333333,0.0027585549166666,-0.0260495058333333,-1.3264955833333334,0.0068459253333333,37170.0,28401.5,10000.0,24.5,26.5,-33.5,0,None
2023-01-04 06:53:35,223.231,0.5,87.0,1134.5,23314.5,4873.5,99.0,1139.0,81.0,4862.5,122.1148,0.2694146,-0.0029617390999999,-0.02057390125,-1.2453226666666666,37.185,0.0036354023333333,-0.0128129783333333,-1.3111446666666666,0.37312645,0.89955615,2.983781,-6.5,41.0,70.5,-6.5,-157.0,249.0,-1066.5,-8.5,337.0,1018.386,-1.330625,3045.5,0.0036354023333333,-0.0799920133333333,-0.0128129783333333,0.0317724034999999,-1.3111446666666666,-0.0004042549166666,37185.0,28487.5,10015.0,3.5,22.5,-29.5,0,None
2023-01-04 06:53:36,224.2315,0.5,87.0,1246.5,23304.0,4872.5,99.0,1213.5,84.0,4873.0,115.2277,0.3267879,-0.1997106083333332,0.0053285029166666,-1.25077325,37.19166666666666,-0.1903304833333333,0.0103390705833333,-1.3144423333333335,0.42316325,0.856337,2.0463195,-19.5,-19.5,131.0,-34.0,-20.5,275.5,-1079.5,6.0,316.0,1018.3755,-1.3415625,3047.5,-0.1903304833333333,-0.1136329191583333,0.0103390705833333,-4.675633333335073e-05,-1.3144423333333335,0.0044422518333333,37190.0,28467.5,10020.0,27.0,-87.5,-31.5,0,None
2023-01-04 06:53:37,225.2315,0.5,86.5,1460.5,23249.5,4872.0,99.0,1314.0,88.0,4872.5,112.86275,0.3841871999999999,-0.1779436083333332,-0.0137914483333333,-1.2460244166666667,37.305,-0.1716473916666666,-0.0078791177833333,-1.306876666666667,0.44574985,1.104927,2.6760145,-18.0,-16.5,124.5,-11.5,9.0,274.5,-1181.5,9.5,309.5,1018.3605,-1.3567965,3050.5,-0.1716473916666666,0.0351884666666666,-0.0078791177833333,-0.0198040283333333,-1.306876666666667,-0.0085375381666666,37295.0,28515.0,10125.0,85.5,-285.5,-1.0,0,None
2023-01-04 06:53:38,226.252,0.5105000000000075,86.0,1554.0,23186.5,4877.5,99.0,1623.0,92.5,4874.0,111.97855,0.43548355,-0.1851976083333333,-0.0143568369166666,-1.2710428333333337,38.3625,-0.18116865,-0.0067657085833332,-1.3285975,0.4276572,1.019248,2.0489055,-53.0,28.0,115.0,-12.5,5.5,237.0,-1155.0,2.5,292.5,1018.2365,-1.4804689999999998,3052.5,-0.18116865,-0.0108072393333333,-0.0067657085833332,0.023698152075,-1.3285975,-0.0014202319999999,38350.0,28383.0,11180.0,117.0,-456.0,128.5,0,None
2023-01-04 06:53:39,227.2715,0.5094999999999885,85.5,1410.5,23257.5,4882.0,99.0,1475.0,97.0,4870.5,111.47655,0.47984345,-0.1786114416666666,-0.0139162321666666,-1.2729843333333335,40.23916666666667,-0.1763546999999999,-0.0052693966666666,-1.3257266666666667,0.55824145,1.01622095,4.500164,-78.0,-59.0,114.5,4.0,12.5,244.0,-1047.5,-24.0,293.0,1017.9825,-1.734414,3054.5,-0.1762341166666666,0.0132830823333333,-0.0052381384999999,-0.0441813234999999,-1.3257201666666667,0.0050228754166666,40235.0,28409.0,13065.0,159.0,-594.5,153.5,0,None
2023-01-04 06:53:40,228.2715,0.5005000000000024,85.0,1323.5,23241.0,4880.0,99.0,1398.0,100.5,4869.0,111.36825,0.5099603500000001,-0.1827557416666666,-0.0353282083333333,-1.2827079166666668,42.10583333333334,-0.180776325,-0.0236480783333333,-1.3335518333333334,0.5723311,1.164961,4.856438499999999,-102.5,46.0,115.5,-7.5,10.5,230.5,-1041.0,-12.5,300.0,1017.7685,-1.94875,3057.5,-0.180776325,0.0124415551666666,-0.0236480783333333,0.0075481066666666,-1.3335518333333334,-0.008143862625,42110.0,28360.5,14940.0,178.5,-699.5,150.0,0,None
2023-01-04 06:53:41,229.302,0.5200000000000102,85.0,1292.0,23295.0,4881.5,99.0,1456.5,104.0,4873.0,111.52315,0.53213705,-0.1671147333333333,-0.0288807725,-1.2797069166666666,43.98583333333333,-0.1658055333333332,-0.016771325,-1.329242,0.6664089,0.92954195,6.1872115,-84.5,18.0,120.0,-8.5,-96.5,271.0,-1024.5,10.0,334.5,1017.571,-2.1457810000000004,3059.5,-0.1658055333333332,0.0789618208333333,-0.016771325,0.0103226469166666,-1.329242,0.0110185969333333,43950.0,28385.5,16780.0,192.0,-792.0,151.5,0,None
2023-01-04 06:53:42,230.322,0.5099999999999909,85.0,1269.0,23303.0,4878.5,99.0,1377.5,108.0,4879.5,111.6835,0.5533631999999999,-0.1390811166666666,-0.0168131463333333,-1.2813729166666668,45.928333333333335,-0.1387472583333333,-0.0031862994166666,-1.3304459999999998,0.6880818,0.91190615,8.153162,-113.0,39.0,117.0,20.0,28.5,251.0,-996.5,-3.5,298.0,1017.3485,-2.368281,3061.5,-0.1387472583333333,0.023503309,-0.0031862994166666,0.0166549174999999,-1.3304459999999998,0.0026767795833333,45885.0,28375.0,18715.0,200.0,-858.0,153.5,0,None
2023-01-04 06:53:43,231.3625,0.5200000000000102,84.5,1208.5,23310.0,4882.5,99.0,1160.0,112.0,4873.5,111.73985,0.5825444,-0.1259157999999999,-0.0019254895,-1.2788796666666666,47.93666666666667,-0.1264643999999999,0.0113935224999999,-1.326397,0.6882804499999999,1.0438501,7.9700215,-132.0,-6.5,105.5,-13.0,60.0,238.0,-1022.5,9.0,278.5,1017.179,-2.5378905,3064.5,-0.1264643999999999,0.050745155,0.0113935224999999,-0.0038024326666666,-1.326397,0.0068085053333333,47800.0,28395.0,20630.0,220.5,-882.0,152.5,0,None
2023-01-04 06:53:44,232.392,0.5099999999999909,84.0,1048.5,23329.0,4881.0,99.0,1022.5,115.0,4861.5,111.57445,0.6146777999999999,0.0509174033333333,0.0007057677499999,-1.2856009166666666,49.865,0.0471806583333332,0.0141509828333333,-1.327342,0.8615013,1.450244,7.5722355,-146.0,67.5,68.5,-9.5,247.0,244.0,-1027.5,-1.5,311.5,1016.999,-2.717969,3066.5,0.0471806583333332,0.21723529,0.0141509828333333,0.0332091758333333,-1.327342,-0.0261003509999999,49640.0,28391.0,22470.0,220.5,-843.5,158.5,0,None
2023-01-04 06:53:45,233.182,0.539999999999992,84.0,1145.0,23323.0,4874.0,99.0,1184.0,117.0,4874.0,110.9336,0.6530322,0.08398685,0.019157815,-1.291611,51.205,0.080579875,0.032498945,-1.326985,0.6923884,1.269541,7.830599,-76.0,17.0,37.0,-57.0,-122.0,237.0,-1084.0,-4.0,301.0,1016.85,-2.866953,3068.0,0.080579875,-0.102672775,0.032498945,0.067716785,-1.326985,-0.014497234,50970.0,28414.0,23800.0,189.0,-708.0,160.0,0,None
2023-01-04 06:53:46,233.9425,0.5105000000000075,84.0,1259.5,23271.0,4878.0,99.0,1227.5,120.0,4866.0,109.9974,0.6935816,0.0470535441666666,0.0408113716666666,-1.3063219166666666,52.635000000000005,0.0469484675,0.0526099741666666,-1.3321375,0.76785125,1.217861,5.8333755,-84.0,-15.0,38.5,-31.0,4.0,276.0,-1060.5,-24.0,319.0,1016.6335,-3.083711,3070.0,0.0469484675,-0.0066192791666666,0.0526099741666666,0.0049841491666666,-1.3321375,-0.0181907391666666,52390.0,28371.0,25220.0,171.0,-595.5,161.5,0,None
2023-01-04 06:53:47,234.982,0.5194999999999936,84.0,1289.5,23265.0,4875.0,99.0,1257.0,124.0,4879.0,108.4954,0.7420640000000001,0.09126355,0.0504950616666666,-1.3204019166666665,54.65416666666667,0.0913472466666666,0.0597152441666666,-1.3342635,0.62620095,1.05414405,5.973929500000001,-60.5,32.5,29.0,-27.0,82.0,268.0,-1091.0,-23.5,310.0,1016.3555,-3.3616795,3072.0,0.0913472466666666,0.0393763984166666,0.0597152441666666,0.0023845346666666,-1.3342635,-0.0301455866666666,54385.0,28365.0,27215.0,154.0,-474.0,159.0,0,None
2023-01-04 06:53:48,236.0025,0.5105000000000075,84.0,1260.5,23280.0,4879.5,99.0,1297.0,127.0,4865.5,106.2055,0.78319425,0.1128222499999999,0.0539097766666666,-1.3316668333333337,56.64583333333333,0.1132039999999999,0.0630873083333332,-1.3365339166666668,0.59684885,0.9552532,4.367676,-61.0,39.0,14.5,-45.5,16.0,269.5,-1050.0,-4.5,328.5,1016.1275,-3.589492,3074.5,0.1132039999999999,0.03388479335,0.0630873083333332,0.04119815,-1.3365339166666668,0.0217902958333332,56370.0,28324.5,29200.0,127.0,-329.5,154.0,0,None
2023-01-04 06:53:49,237.013,0.5,84.0,1136.5,23309.0,4877.0,99.0,1162.5,131.0,4878.0,103.5015,0.8111402999999999,0.1132534916666666,0.0615204291666666,-1.3228329166666666,58.48083333333334,0.1140014583333333,0.0694988991666666,-1.3222013333333331,0.5806041,1.1510274,4.388797,-32.0,-4.5,15.5,-23.5,-17.5,264.0,-995.0,29.0,292.0,1015.919,-3.7980075,3076.5,0.1140014583333333,0.0111081118333333,0.0694988991666666,-0.0194089691666666,-1.3222013333333331,0.0032566883333333,58270.0,28420.0,31100.0,111.0,-192.5,122.5,0,None
2023-01-04 06:53:50,238.033,0.5099999999999909,84.0,1078.0,23319.5,4873.0,99.0,1019.5,133.5,4882.5,100.356925,0.83743415,0.1584014416666666,0.0266098966666666,-1.3249739166666663,59.18333333333334,0.1587541083333333,0.0332724408333333,-1.3217258333333337,0.594892,1.01809845,3.896756,-41.5,-15.0,6.0,-16.0,74.0,256.5,-964.5,-11.5,319.0,1015.744,-3.973203,3078.5,0.1587541083333333,0.0106311625833332,0.0332724408333333,-0.0475370783333332,-1.3217258333333337,0.0116088869999999,59185.0,28429.0,32015.0,88.0,-70.5,-17.5,0,None
2023-01-04 06:53:51,239.053,0.5100000000000051,84.0,1228.5,23299.0,4886.5,99.0,1246.0,137.0,4883.5,97.18881,0.86996995,0.0541002316666666,0.0185674158333333,-1.3186171666666668,59.17333333333333,0.05755154,0.0251180466666666,-1.314364,0.41467895,0.9195352,5.692078,0.0,14.5,31.0,-37.0,-121.5,261.5,-1067.5,13.5,326.0,1015.746,-3.971055,3081.5,0.05755154,-0.0938346762499999,0.0251180466666666,0.0122720265833333,-1.314364,0.0018105329999999,59170.0,28466.0,32000.0,40.0,43.0,-41.5,1,27_xacc_avg_constant_0
2023-01-04 06:53:52,240.053,0.5,84.0,1189.5,23297.0,4881.5,99.0,1189.5,140.5,4885.5,94.51023,0.9087733,0.021209718,0.0313324791666666,-1.3424567500000002,59.185,0.0246959774166666,0.0354534191666666,-1.3382686666666666,0.4588272,1.497495,8.164558,0.0,39.0,41.5,-5.0,-11.5,248.0,-1075.0,-49.0,295.5,1015.711,-4.0057030000000005,3083.5,0.0246959774166666,-0.0215503837499999,0.0354534191666666,0.0171889824999999,-1.3382686666666666,-0.0379579016666666,59185.0,28373.5,32015.0,21.5,58.0,-47.0,1,27_xacc_avg_constant_0
2023-01-04 06:53:53,241.073,0.5100000000000051,84.0,1177.5,23289.5,4885.0,99.0,1177.5,144.0,4880.0,92.14287,0.9425437,0.0104709021666667,0.0102692202416666,-1.3539071666666669,59.155,0.0130004976666667,0.013353745,-1.3500596666666669,0.4630359,0.9421419,4.0579415,0.0,-45.0,50.0,-22.5,37.5,261.5,-1039.5,5.0,304.5,1015.722,-3.995078,3085.5,0.0130004976666667,0.0467315408333333,0.013353745,-0.0503900591666666,-1.3500596666666669,0.0241141041666666,59165.0,28237.5,31995.0,30.5,39.0,-49.0,1,27_xacc_avg_constant_0
2023-01-04 06:53:54,242.093,0.5099999999999909,84.0,1168.0,23291.5,4887.0,99.0,1168.0,147.0,4880.5,90.17562,0.97264355,0.0509696016666666,-0.00534367095,-1.3396168333333334,59.07666666666667,0.0526737691666666,-0.0014776675,-1.336525083333333,0.2992958,1.229054,2.9607475,0.0,9.0,36.0,-19.5,15.75,235.75,-1061.25,17.5,306.5,1015.73125,-3.98562525,3088.25,0.0526737691666666,0.0484541525,-0.0014776675,0.0093414080333332,-1.336525083333333,0.0144045729333333,59085.0,28336.0,31915.0,12.0,23.0,-47.5,1,27_xacc_avg_constant_0
2023-01-04 06:53:55,243.103,0.5100000000000051,84.0,1207.0,23289.5,4889.5,99.0,1207.0,150.5,4882.0,88.92928,1.00775095,0.0472071175,0.0002264107999999,-1.3275268333333332,58.985,0.0484919825,0.0057949395833333,-1.3250693333333334,0.42137185,1.03456615,4.0278,0.0,8.0,41.0,-25.5,-23.0,256.0,-1048.0,28.0,321.5,1015.7845,-3.932344,3090.5,0.0484919825,-0.0194646061666666,0.0057949395833333,0.0079747801666666,-1.3250693333333334,0.0265588775,58995.0,28402.5,31825.0,-10.0,37.5,-43.0,1,27_xacc_avg_constant_0
2023-01-04 06:53:56,244.0935,0.4904999999999972,83.0,1186.0,23284.0,4885.5,99.0,1186.0,154.0,4872.0,88.40128999999999,1.047393,0.0130038646666666,0.0015759835833333,-1.3237975833333335,58.88083333333333,0.0161627025,0.0069919043333333,-1.32265075,0.3706283,1.06683655,4.2259905,0.0,23.5,48.0,-23.5,17.5,251.5,-1047.5,2.0,312.5,1015.8035,-3.9133205,3092.5,0.0161627025,-0.0231970966666666,0.0069919043333333,0.0035224278333333,-1.32265075,-0.0047981839166666,58890.0,28427.0,31720.0,-20.0,40.5,-37.5,1,27_xacc_avg_constant_0
2023-01-04 06:53:57,245.094,0.5,83.0,1176.0,23261.0,4875.0,99.0,1176.0,157.0,4874.0,88.0595,1.0820935,0.0079370929166666,0.0044673614999999,-1.3252614166666667,58.80166666666666,0.0109897491666666,0.0110402515,-1.324595,0.5937972,0.84019255,2.8456775,0.0,-2.5,48.5,-3.5,2.5,257.0,-1078.0,12.5,310.0,1015.804,-3.9127735,3094.5,0.0109897491666666,0.0044251275,0.0110402515,0.0017920609166665,-1.324595,0.0339567808333333,58810.0,28403.0,31640.0,-20.5,24.5,-33.5,1,27_xacc_avg_constant_0
2023-01-04 06:53:58,246.094,0.5,83.0,1212.0,23251.0,4877.5,99.0,1212.0,160.5,4872.5,87.67161999999999,1.1080770000000002,0.0074579385833333,0.0061909096666666,-1.3202485,58.7375,0.0107040595,0.0143623408333332,-1.3199474166666665,0.5647818499999999,1.0265889,3.2892325,0.0,-4.5,48.0,-30.5,-8.5,255.5,-1066.0,31.5,299.5,1015.7865,-3.930078,3096.5,0.0107040595,7.646216666665033e-05,0.0143623408333332,0.0076083798833333,-1.3199474166666665,0.0149135554166666,58745.0,28434.0,31575.0,-17.0,12.0,-32.5,1,27_xacc_avg_constant_0
2023-01-04 06:53:59,247.2516666666667,0.1445555555555573,83.0,1203.6666666666667,23261.0,4886.0,98.0,1194.4444444444443,165.55555555555554,4876.555555555556,87.19312000000001,1.1289893333333332,0.0021708329666666,0.0104202128916666,-1.32411175,58.6825,0.0060065713333333,0.01889262025,-1.3246533333333332,0.5108031625,1.1059746125,2.783093375,0.0,30.375,51.5,-49.0,1.125,259.125,-1075.375,-28.75,315.875,1015.8055555555557,-3.911440666666667,3099.111111111112,0.0060065713333333,0.0107092318333333,0.01889262025,0.0296284841666666,-1.3246533333333332,-0.037666275,58686.66666666666,28420.666666666668,31516.666666666668,-13.0,0.3333333333333333,-32.666666666666664,1,27_xacc_avg_constant_0
2023-01-04 06:54:00,248.1761111111111,0.1044444444444441,83.0,1182.0,23258.5,4887.0,98.0,1171.6666666666667,168.66666666666666,4882.444444444444,86.73977,1.1401324444444445,0.0065001975,0.0162917625,-1.323541,58.6075,0.01035801575,0.0255394774999999,-1.32514675,0.4490098777777778,0.9501704,3.217768222222223,0.0,-2.2222222222222223,46.0,-17.11111111111111,1.7777777777777777,259.0,-1069.6666666666667,27.22222222222222,310.77777777777777,1015.8107777777778,-3.906258555555556,3101.0,0.01035801575,0.0073907637499999,0.0255394774999999,0.0005487775,-1.32514675,0.00940406325,58600.0,28413.0,31430.0,-0.5,-5.0,-30.5,1,27_xacc_avg_constant_0
2023-01-04 06:54:01,249.155,0.1019999999999981,83.0,1175.0,23267.5,4889.0,98.0,1165.2,172.1,4880.9,86.15486799999998,1.1480400000000002,0.0053014008,0.01261123,-1.3177632,58.554,0.009687712,0.022003972,-1.3199518,0.3416102199999999,0.97196585,2.5456842,0.0,4.3,47.9,-52.1,-1.8,256.2,-1089.0,-4.0,312.6,1015.8013,-3.915492,3102.8,0.009687712,0.024575309,0.022003972,0.0034012308,-1.3199518,0.0017750221599999,58540.0,28437.0,31370.0,6.0,-5.0,-30.0,1,27_xacc_avg_constant_0
2023-01-04 06:54:02,250.1553,0.1001000000000004,83.0,1147.0,23268.0,4874.5,98.0,1147.1,175.2,4884.1,85.48638199999999,1.154035,0.008966501,0.0128112604,-1.3173932000000002,58.52,0.0140225319999999,0.022191686,-1.320491,0.32533424,1.2206342,3.6345468,0.0,4.0,48.8,-24.0,15.4,261.2,-1071.8,15.4,320.0,1015.7965,-3.9205078,3104.8,0.0140225319999999,0.0119347876,0.022191686,-0.0010512721,-1.320491,0.0114878894,58505.0,28435.5,31335.0,11.0,-3.5,-31.0,1,27_xacc_avg_constant_0
2023-01-04 06:54:03,251.1551,0.0998999999999994,83.0,1163.0,23276.5,4882.5,98.0,1142.4,178.5,4883.9,84.79293399999999,1.1590816000000002,0.0118243152,0.0056213534,-1.3132278000000002,58.484,0.017054768,0.015554116,-1.3165977999999998,0.3463012,0.8813340499999999,2.6674961,0.0,1.7,48.5,-15.7,17.9,258.8,-1070.7,5.5,326.5,1015.788,-3.928851400000001,3106.7,0.017054768,-0.0010818051999999,0.015554116,0.0036174003999999,-1.3165977999999998,-0.0150706871999999,58475.0,28456.0,31305.0,12.0,0.0,-32.5,1,27_xacc_avg_constant_0
2023-01-04 06:54:04,252.1551,0.0999999999999999,83.0,1109.0,23280.5,4885.0,98.0,1134.3,181.6,4883.8,84.14742,1.1640816,0.01353347,0.0056924794,-1.3181764,58.45,0.01960724,0.014361688,-1.3222056,0.46618556,1.0586254899999998,3.0982242,0.0,2.3,47.4,-22.0,7.1,260.7,-1078.8,-21.9,318.2,1015.779,-3.9377969,3108.8,0.01960724,0.014922119,0.014361688,0.0048001497999999,-1.3222056,-0.023333089,58440.0,28421.5,31270.0,10.5,1.0,-34.0,1,27_xacc_avg_constant_0
2023-01-04 06:54:05,253.1552,0.0999999999999999,83.0,1126.0,23264.5,4889.0,98.0,1130.6,184.8,4883.4,83.579428,1.1695672,0.022513586,0.0101111062,-1.32313,58.422,0.028473238,0.018183414,-1.3281002,0.4853811099999999,0.55293075,3.2352899,4.0,6.2,43.2,-25.9,11.1,258.9,-1060.9,-5.7,319.0,1015.7722,-3.9447968,3110.5,0.028473238,0.0090021485999999,0.018183414,0.0068883069999999,-1.3281002,0.0016804289999999,58410.0,28382.0,31240.0,8.0,5.0,-36.5,0,None
2023-01-04 06:54:06,254.155,0.0999999999999999,83.0,1170.0,23264.0,4885.5,98.0,1157.9,187.8,4883.9,83.07284200000001,1.1770352,0.026144666,0.0079489738,-1.3243618,58.386,0.0327118059999999,0.016343756,-1.330019,0.40590855,0.96054762,2.941648,10.1,2.4,39.6,-4.1,7.8,256.2,-1073.4,11.1,324.5,1015.7761,-3.9407108,3112.5,0.0327118059999999,0.0226115524,0.016343756,0.0060732104,-1.330019,-0.0055270501999999,58375.0,28380.5,31205.0,5.5,12.0,-38.5,0,None
2023-01-04 06:54:07,255.1558,0.1001000000000004,83.0,1173.5,23247.0,4874.0,98.0,1172.888888888889,191.3333333333333,4879.5,82.623486,1.1876468,0.028925566,0.013467538,-1.3239004,58.330000000000005,0.035379274,0.021161404,-1.33018,0.37841109,0.8078142500000001,3.1937072,8.2,2.7,37.8,-30.8,-0.4,259.7,-1068.6,2.3,320.7,1015.7794,-3.9375938000000006,3114.7,0.035379274,-0.0089090905999999,0.021161404,0.009247457,-1.33018,-0.0007665942,58310.0,28381.0,31140.0,4.0,23.5,-36.5,0,None
2023-01-04 06:54:08,256.15599999999995,0.0999999999999999,83.0,1170.5,23244.0,4878.5,98.0,1165.5,194.5,4874.8,82.23528,1.2015597999999996,0.0126977602,0.0172431119999999,-1.3227948,58.278,0.0190170634,0.0246301219999999,-1.329636,0.36879069,0.73705334,2.5980648000000004,5.9,-6.7,44.0,-25.3,-16.3,262.6,-1072.5,6.6,319.2,1015.7792999999998,-3.9375938,3116.4,0.0190170634,-0.0188454513999999,0.0246301219999999,0.0033475649999999,-1.329636,0.005093349,58270.0,28386.0,31100.0,7.5,26.5,-36.0,0,None
2023-01-04 06:54:09,257.1659,0.1043000000000006,83.0,1170.0,23243.5,4880.0,98.0,1158.8,197.6,4877.3,81.85103999999998,1.2159354000000002,0.0094002374,0.011357069,-1.318432,58.236,0.015150242,0.0187490559999999,-1.3254038,0.5755992200000001,0.91640784,3.3139384,21.3,-2.1,45.05,-20.95,11.1,258.75,-1071.55,22.65,316.95,1015.78,-3.9370037,3118.6,0.015150242,0.0166835986,0.0187490559999999,0.0001926140599999,-1.3254038,-0.0003477059999999,58215.0,28406.0,31045.0,12.5,19.0,-37.5,0,None
2023-01-04 06:54:10,258.1913333333334,0.1089999999999993,82.5,1134.0,23249.0,4883.0,98.0,1152.3333333333333,200.66666666666663,4872.333333333333,81.41228666666667,1.2284455555555556,0.0088785636,0.0051072366,-1.3158358,58.152,0.0150866679999999,0.012720206,-1.3236004,0.5080896111111111,1.0066238333333333,2.559753,5.666666666666667,-2.2222222222222223,47.333333333333336,-10.555555555555555,11.88888888888889,252.3333333333333,-1077.2222222222222,14.444444444444445,317.6666666666667,1015.7791111111112,-3.938116,3120.333333333333,0.015077992,0.0141395491999999,0.012761624,-0.001070227902,-1.3235878,0.0083919711999999,58145.0,28423.5,30975.0,13.0,14.0,-34.0,0,None
2023-01-04 06:54:11,259.1798,0.0999999999999999,82.0,1154.5,23254.5,4888.0,98.0,1142.0,204.1,4873.3,81.01335399999999,1.2380504,0.0121389919999999,0.00115313896,-1.31885,58.10600000000001,0.018189246,0.0081930936,-1.3271402,0.51325513,0.82284609,2.0099501,-1.3,6.5,45.3,-25.7,7.6,257.2,-1074.0,-25.1,323.3,1015.7944,-3.9225624,3122.5,0.018189246,0.0107874611999999,0.0081930936,0.0052748731399999,-1.3271402,-0.0223590664,58095.0,28385.5,30925.0,9.0,9.0,-35.0,0,None
2023-01-04 06:54:12,260.18,0.0999999999999999,82.0,1186.5,23257.5,4888.5,98.0,1172.7,207.2,4875.7,80.680398,1.2459706000000002,0.016260842,0.001749834074,-1.321523,58.05,0.022345372,0.0087377134,-1.3298798,0.24767532,1.03074032,2.8635587,3.4,3.2,41.6,-16.1,7.4,263.3,-1056.5,14.8,328.4,1015.7820000000002,-3.9349844,3124.3,0.022345372,-0.001458143,0.0087377134,-0.0049934574,-1.3298798,0.0160273688,58040.0,28384.5,30870.0,6.0,6.5,-34.5,0,None
2023-01-04 06:54:13,261.2,0.1019999999999981,82.0,1160.5,23255.5,4885.5,98.0,1165.9,210.5,4877.0,80.43558399999999,1.2531222,0.016467572,0.005317609,-1.3202146,57.99400000000001,0.022674402,0.0124675739999999,-1.3290928,0.4744727499999999,0.77782553,1.8525446,13.9,2.2,41.65,-18.55,-3.6,255.9,-1079.9,9.4,320.4,1015.78895,-3.9279882000000006,3126.35,0.022674402,4.18568000000008e-05,0.0124675739999999,0.00153920324,-1.3290928,0.0008311946,57985.0,28384.0,30815.0,5.0,7.5,-33.5,0,None
2023-01-04 06:54:14,262.2001,0.0999999999999999,82.0,1110.5,23237.0,4881.0,98.0,1106.6,213.7,4876.1,80.259032,1.2602428,0.014591448,6.660700600000001e-05,-1.318907,57.958000000000006,0.0210460079999999,0.006902177,-1.3276826000000002,0.5706856,0.7425965800000001,2.6639645,14.5,-4.5,43.0,-15.4,21.0,255.8,-1077.3,3.8,319.0,1015.7715,-3.9453594,3128.1,0.0210460079999999,0.002575133826,0.006902177,-0.0051295642,-1.3276826000000002,-0.01445883928,57955.0,28393.5,30785.0,3.0,3.0,-35.0,0,None
2023-01-04 06:54:15,263.1708888888889,0.1045555555555589,82.0,1142.5,23230.5,4883.5,98.0,1140.3333333333333,216.66666666666663,4876.444444444444,80.17217,1.2668458888888887,0.038154115,0.004194840775,-1.3075675,57.9275,0.0441818425,0.01134474375,-1.316657,0.5492713666666666,0.8867328777777779,3.4462946666666667,16.88888888888889,5.666666666666667,41.11111111111112,-26.22222222222222,24.0,260.44444444444446,-1069.4444444444443,39.333333333333336,330.6666666666667,1015.7726666666666,-3.944288,3130.111111111112,0.0441818425,0.0292495559999999,0.01134474375,0.0068235855,-1.316657,0.0225187005,57920.0,28459.0,30750.0,-1.0,3.0,-40.0,0,None
2023-01-04 06:54:16,264.157,0.1019999999999981,82.0,1186.0,23220.0,4876.0,98.0,1168.9,220.0,4873.7,80.18307399999999,1.2743556,0.041316646,0.0175569406,-1.2848104,57.88,0.047729946,0.025091006,-1.2942936,0.4585911100000001,1.2192897500000002,3.405366,13.2,35.7,44.8,-29.5,-8.6,259.0,-1087.7,-14.9,319.0,1015.7609,-3.956039,3131.9,0.047729946,-0.0055486222,0.025091006,0.0298856659999999,-1.2942936,-0.007072146,57885.0,28592.5,30715.0,-12.0,13.5,-38.0,0,None
2023-01-04 06:54:17,265.16644444444444,0.1066666666666706,82.0,1100.5,23240.5,4872.5,98.0,1108.4444444444443,223.0,4863.0,80.11071444444444,1.2861479999999998,0.020785174,0.04008091,-1.3298628,57.85,0.0277376999999999,0.046447298,-1.3395396,0.4781055444444444,0.9722275,3.551700888888889,12.333333333333334,8.222222222222221,36.66666666666666,-38.72222222222222,-10.166666666666666,269.8888888888889,-1076.4444444444443,-45.72222222222222,304.77777777777777,1015.761277777778,-3.955525111111112,3133.6666666666665,0.0277376999999999,-0.011339166,0.046447298,0.0206822808,-1.3395396,-0.047560854,57855.0,28366.0,30685.0,-5.0,24.0,-35.5,0,None
2023-01-04 06:54:18,266.123,0.0999999999999999,82.0,1131.0,23214.0,4864.0,98.0,1113.8,225.9,4865.3,79.873712,1.3014014,0.0275532059999999,0.0190000466,-1.3503374,57.8,0.034635902,0.026320186,-1.3594822,0.55514997,0.7995393,4.6367846,20.2,-29.3,29.5,-28.5,11.5,259.3,-1080.2,15.0,315.4,1015.7702000000002,-3.9465859,3135.4,0.034635902,0.020684498,0.026320186,-0.03019752,-1.3594822,0.0127915532,57810.0,28203.0,30640.0,20.5,18.5,-40.5,0,None
2023-01-04 06:54:19,267.157,0.1039999999999963,82.0,1087.0,23218.0,4867.5,98.0,1107.8,229.3,4869.5,79.506276,1.3180706,0.026096368,0.0027615824,-1.3350392,57.74,0.0334808499999999,0.010088149,-1.345527,0.4788056699999999,0.95312566,3.6417261,16.9,8.8,37.3,-26.7,3.7,255.4,-1073.5,0.6,327.8,1015.7882,-3.9287577,3137.3,0.0334808499999999,0.00053567264,0.010088149,0.0108976694,-1.345527,0.0090091408799999,57750.0,28281.5,30580.0,19.5,18.0,-37.0,0,None
2023-01-04 06:54:20,268.1809999999999,0.1019999999999981,82.0,1114.5,23222.5,4867.5,98.0,1106.4,232.5,4865.1,79.24723999999999,1.3354296,0.036333636,-0.0013599696,-1.3241384,57.65599999999999,0.043245986,0.005721433,-1.3352666,0.48909172,0.97450499,3.8304266,13.8,-1.3,41.2,-37.0,6.2,255.0,-1082.7,-22.4,322.2,1015.7787000000002,-3.9382734,3139.1,0.043245986,0.0127833692,0.005721433,-0.0146863346,-1.3352666,0.0133847331999999,57675.0,28346.5,30505.0,9.0,12.5,-35.5,0,None
2023-01-04 06:54:21,269.18350000000004,0.1001000000000032,82.0,1126.5,23215.5,4886.5,98.0,1121.0,235.5,4868.4,79.12435400000001,1.3531755999999997,0.037300424,0.0221709304,-1.3296044,57.6,0.044357188,0.029331328,-1.3414005999999998,0.43438083,0.96966908,3.887426,17.8,29.4,33.3,-27.8,-3.8,258.5,-1063.9,-16.0,316.4,1015.7714,-3.945531,3140.7,0.044357188,-0.0053621944,0.029331328,0.025249712,-1.3414005999999998,0.0197974094,57615.0,28312.5,30445.0,-3.0,17.5,-35.5,0,None
2023-01-04 06:54:22,270.15200000000004,0.1044444444444441,82.0,1121.5,23252.5,4885.0,98.0,1118.6666666666667,238.44444444444449,4875.555555555556,79.0402811111111,1.3721120000000002,0.025624874,0.0219814279999999,-1.3246936000000002,57.55800000000001,0.033220232,0.028642822,-1.3366358,0.4764058666666665,0.9533459555555556,3.5231298888888887,9.9375,-7.75,37.9375,-35.625,0.9375,263.125,-1077.6875,-13.1875,320.0,1015.7614375,-3.95538575,3142.6875,0.033220232,-0.0072299682,0.028642822,-0.0123718896,-1.3366358,0.0076531526,57560.0,28351.0,30390.0,7.0,22.0,-35.0,0,None
2023-01-04 06:54:23,271.158,0.1060000000000002,82.0,1114.5,23227.0,4864.0,98.0,1111.1,241.7,4872.2,78.90460800000001,1.3933724,0.027595946,0.0122208402,-1.325432,57.536,0.03523668,0.019048786,-1.3373582,0.4848711599999999,0.8804584199999999,3.664848600000001,7.5,6.4,39.3,-41.0,18.7,261.3,-1076.1,-16.9,323.7,1015.7535,-3.9634999,3144.4,0.03523668,0.004303599,0.019048786,0.0084726858,-1.3373582,0.0091175502,57545.0,28335.0,30375.0,6.0,16.0,-38.5,0,None
2023-01-04 06:54:24,272.1608888888889,0.1066666666666643,82.0,1206.5,23195.5,4869.0,98.0,1177.888888888889,244.66666666666663,4873.888888888889,78.76979777777777,1.4141575555555557,0.0352089774999999,0.021041635,-1.31817225,57.4875,0.043023045,0.027598745,-1.3303735,0.4720193555555554,0.901807377777778,4.219128,26.61111111111111,12.22222222222222,36.16666666666666,-49.5,9.72222222222222,258.1111111111111,-1052.2222222222222,2.6666666666666665,315.3888888888889,1015.7486111111112,-3.968320333333333,3146.333333333333,0.043023045,0.0346445249999999,0.027598745,0.0098569249999999,-1.3303735,0.0003972695,57490.0,28373.0,30320.0,1.5,12.0,-38.5,0,None
2023-01-04 06:54:25,273.1365555555556,0.1088888888888908,82.0,1194.5,23191.5,4875.5,98.0,1184.7777777777778,247.88888888888889,4873.888888888889,78.61583444444445,1.4349004444444442,0.034638348,0.034330064,-1.3174842,57.44200000000001,0.042444624,0.04154754,-1.3299394,0.5085963777777778,1.2095253333333331,3.204666555555556,25.22222222222222,22.33333333333333,36.55555555555556,-58.333333333333336,8.055555555555555,257.22222222222223,-1055.611111111111,18.88888888888889,304.44444444444446,1015.7552777777778,-3.9616276666666654,3147.8888888888887,0.042444624,-0.0035703988,0.04154754,0.0156099918,-1.3299394,-0.012686186,57445.0,28379.0,30275.0,1.5,15.5,-40.0,0,None
2023-01-04 06:54:26,274.12600000000003,0.1019999999999981,82.0,1179.0,23207.5,4876.0,98.0,1192.7,251.2,4872.0,78.38258599999999,1.4581198000000002,0.017658022,0.030648718,-1.3014282,57.396,0.02526094,0.0376948379999999,-1.3140746,0.31345751,1.09072369,2.8803089,9.3,-9.1,45.5,-43.6,-28.1,258.0,-1080.2,1.1,304.6,1015.7644,-3.9524765,3149.7,0.02526094,-0.0166458814,0.0376948379999999,-0.0099550258,-1.3140746,0.0163100654,57405.0,28473.0,30235.0,12.5,23.5,-39.0,0,None
2023-01-04 06:54:27,275.1122222222222,0.1067777777777791,82.0,1180.5,23212.5,4865.0,98.0,1171.6666666666667,254.5555555555556,4871.222222222223,78.04954888888888,1.4794326666666664,0.004037275,0.0167647675,-1.307456,57.345,0.0122292005,0.024763975,-1.31989575,0.5539928333333334,1.0854003444444449,3.4918946666666666,0.0,-6.444444444444445,50.11111111111112,-67.38888888888889,0.1666666666666666,258.3333333333333,-1065.5555555555557,-25.33333333333333,313.77777777777777,1015.7656111111112,-3.951510388888889,3151.555555555556,0.0123318975,-0.001522027125,0.02486,-0.01108132825,-1.3198934999999998,-0.0275464925,57335.0,28436.5,30165.0,20.5,14.5,-37.5,0,None
2023-01-04 06:54:28,276.141,0.1079999999999983,82.0,1151.0,23226.5,4873.0,98.0,1138.5,257.7,4873.8,77.61373499999999,1.4972724999999998,0.0113636562,0.0040891626,-1.3123336,57.30800000000001,0.019025668,0.0119470061999999,-1.3245512,0.3903673399999999,1.2070948,3.1074317,-1.6,0.2,46.1,-45.9,5.9,254.6,-1073.1,-39.7,322.3,1015.7655,-3.9514608,3153.1,0.019025668,0.0111000664,0.0119470061999999,-0.0028967456,-1.3245512,-0.0045249059999999,57300.0,28398.0,30130.0,14.5,4.0,-38.5,0,None
2023-01-04 06:54:29,277.17966666666666,0.1088888888888908,82.0,1128.5,23235.5,4876.0,98.0,1126.5555555555557,261.1111111111111,4880.0,77.17595,1.5109528888888892,0.0170018059999999,0.0180942102,-1.331651,57.248000000000005,0.024751502,0.025187598,-1.3437262,0.4652234333333333,1.0590007222222222,3.3607176666666665,6.277777777777778,9.166666666666666,41.16666666666666,-35.05555555555556,9.38888888888889,265.6666666666667,-1072.611111111111,-21.5,320.05555555555554,1015.7725000000002,-3.944439888888889,3155.055555555556,0.024492758,0.0339563846,0.025089878,0.0159678839999999,-1.3436678,-0.01411018314,57230.0,28302.0,30060.0,15.0,-0.5,-39.0,0,None
2023-01-04 06:54:30,278.191,0.104000000000002,82.0,1167.0,23219.0,4882.0,98.0,1173.5,264.5,4876.8,76.80187400000001,1.5211967999999998,0.036614434,0.0043792262,-1.3178414,57.15,0.043624496,0.012441978,-1.3293826,0.28437949,0.99103021,3.5081817,17.45,-6.9,35.95,-33.25,-1.0,256.35,-1080.7,0.55,324.65,1015.78605,-3.9307147000000007,3156.8,0.043624496,0.026512391,0.012441978,-0.00729378638,-1.3293826,0.023538612,57140.0,28398.0,29970.0,10.5,6.5,-34.5,0,None
2023-01-04 06:54:31,279.173,0.1066666666666643,82.0,1147.0,23218.5,4888.5,98.0,1145.3333333333333,267.3333333333333,4881.333333333333,76.52617666666667,1.533165222222222,0.027427292,0.0060377118,-1.3219774000000002,57.104,0.034969204,0.0136997999999999,-1.3333386,0.662332311111111,0.9321357333333334,2.458486777777778,20.55555555555556,4.333333333333333,37.888888888888886,-9.11111111111111,3.2222222222222223,254.5555555555556,-1063.6666666666667,-4.666666666666667,324.1111111111111,1015.7846666666668,-3.932100555555556,3158.6666666666665,0.034969204,-0.0064977156,0.0136997999999999,0.0089924141999999,-1.3333386,-0.0159115666,57105.0,28347.0,29935.0,2.0,13.5,-34.0,0,None
2023-01-04 06:54:32,280.16099999999994,0.1019999999999981,82.0,1156.0,23213.0,4882.0,98.0,1137.3,270.7,4884.4,76.375358,1.5455066,0.0281801999999999,0.0084110996,-1.3154542,57.05800000000001,0.035457762,0.0158970775999999,-1.3266188,0.47149307,0.98666582,2.9427118000000005,4.5,-0.6,41.8,-47.1,7.8,261.4,-1058.7,8.5,323.9,1015.7819,-3.9350234,3160.4,0.035457762,0.002586298,0.0158970775999999,-0.0064992559999999,-1.3266188,0.0284222062399999,57050.0,28417.0,29880.0,-3.0,17.0,-34.5,0,None
2023-01-04 06:54:33,281.1528888888889,0.1022222222222239,82.0,1021.5,23244.5,4881.0,98.0,1082.6666666666667,273.77777777777777,4880.333333333333,76.26016444444446,1.5571135555555555,0.0104798129999999,0.0218256449999999,-1.3169304999999998,57.035,0.01804049,0.02930738,-1.32837,0.4599071444444444,0.9386393555555556,3.4257886666666666,22.5,20.38888888888889,46.888888888888886,-17.0,-11.166666666666666,258.77777777777777,-1076.111111111111,-6.611111111111111,317.6111111111111,1015.7727777777776,-3.944283888888888,3162.4444444444443,0.01804049,-0.0173884974999999,0.02930738,0.00237929625,-1.32837,-0.011647882,57030.0,28385.0,29860.0,-6.0,14.0,-35.0,1,27_xgyro_avg_constant_20.38888888888889
2023-01-04 06:54:38,286.2307777777778,0.5666666666666692,82.0,1044.5,23238.5,4873.0,98.0,1046.5555555555557,287.44444444444446,4875.888888888889,75.39251333333333,1.633438,0.033973078,0.0328545679999999,-1.3393822,56.964,0.041950244,0.040458834,-1.34993,0.4701644777777778,1.0479879555555556,5.593858666666666,28.77777777777778,20.38888888888889,29.11111111111111,-34.22222222222222,4.0,267.1111111111111,-1061.4444444444443,-10.0,318.44444444444446,1015.7877777777778,-3.929053555555556,3171.0,0.041950244,-0.005549701,0.040458834,0.0020035549999999,-1.34993,-0.0009489604,56960.0,28273.0,29790.0,9.5,18.5,-34.5,1,27_xgyro_avg_constant_20.38888888888889
2023-01-04 06:54:39,287.19955555555555,0.1066666666666643,82.0,1163.0,23200.0,4882.0,98.0,1083.7777777777778,291.55555555555554,4884.555555555556,75.18994,1.6539163333333338,0.0466631675,0.0155915905,-1.33617725,56.95,0.05467877,0.0232459699999999,-1.3466125,0.5499979888888888,1.1338793777777778,5.695729777777778,31.72222222222222,20.38888888888889,31.944444444444443,-63.55555555555556,25.83333333333333,264.6666666666667,-1050.4444444444443,7.5,320.72222222222223,1015.7808333333334,-3.936067611111112,3172.6666666666665,0.05467877,0.01475077375,0.0232459699999999,-0.0045053377499999,-1.3466125,-0.00209798975,56955.0,28281.0,29785.0,14.5,16.5,-34.5,1,27_xgyro_avg_constant_20.38888888888889
2023-01-04 06:54:40,288.14633333333336,0.1044444444444441,82.0,1089.0,23222.5,4872.0,98.0,1131.2222222222222,294.6666666666667,4881.777777777777,75.0171388888889,1.6741716666666666,0.043099366,0.0198639,-1.3230536000000002,56.94599999999999,0.0512676299999999,0.0282654379999999,-1.3328192,0.4434836333333333,1.1168966444444444,4.722231333333333,32.55555555555556,20.38888888888889,29.77777777777778,-33.44444444444444,-11.666666666666666,258.6666666666667,-1033.111111111111,34.111111111111114,316.22222222222223,1015.749888888889,-3.966987555555556,3174.222222222222,0.0512676299999999,0.0023668157999999,0.0282654379999999,0.020506744,-1.3328192,0.025556552,56950.0,28375.5,29780.0,1.0,16.5,-35.0,1,27_xgyro_avg_constant_20.38888888888889
2023-01-04 06:54:41,289.1589,0.1079000000000007,82.0,1132.5,23197.5,4880.5,98.0,1141.5,297.7,4889.1,74.88304799999999,1.6974674,0.040657018,0.036009092,-1.3227248,56.93399999999999,0.04926121,0.043483648,-1.3333304,0.43821766,0.9012966,5.3419361,26.85,20.38888888888889,37.5,-40.45,23.4,265.9,-1062.45,8.35,315.65,1015.76795,-3.94908985,3175.9,0.04926121,0.025351322,0.043483648,-0.003348344,-1.3333304,-0.00450884396,56930.0,28362.0,29760.0,4.5,11.0,-37.5,1,27_xgyro_avg_constant_20.38888888888889
2023-01-04 06:54:42,290.17077777777774,0.1067777777777791,82.0,1127.0,23198.0,4890.0,98.0,1131.0,301.0,4887.444444444444,74.73635222222222,1.7219325555555556,0.0467068175,0.02400377,-1.31050075,56.885000000000005,0.0546473175,0.03209938,-1.320607,0.5184962875,1.0668066375,5.094635,24.25,20.38888888888889,32.25,-59.125,-10.375,265.875,-1062.125,-17.125,315.375,1015.7515,-3.96554675,3177.75,0.0546473175,-0.0129290014999999,0.03209938,0.0149758935,-1.320607,-0.0176630995,56880.0,28433.0,29710.0,0.0,11.0,-36.5,1,27_xgyro_avg_constant_20.38888888888889
2023-01-04 06:54:43,291.173,0.1039999999999963,82.0,1056.0,23229.0,4883.5,98.0,1087.7,304.0,4881.3,74.59451000000001,1.746416,0.036657274,0.040640734,-1.319951,56.86800000000001,0.045502418,0.048854268,-1.329564,0.51940692,1.04472839,5.173928999999999,36.35,20.38888888888889,35.75,-40.35,11.4,270.05,-1061.3,1.3,309.45,1015.7585,-3.95833595,3179.35,0.045502418,0.0340864872,0.048854268,0.0107284773999999,-1.329564,-0.0253560279999999,56855.0,28354.5,29685.0,6.0,7.5,-37.5,1,27_xgyro_avg_constant_20.38888888888889
2023-01-04 06:54:44,292.1618888888889,0.1044444444444441,81.5,1145.0,23199.5,4883.5,98.0,1145.111111111111,307.0,4884.777777777777,74.41996444444446,1.7722066666666665,0.0536696639999999,0.0318302039999999,-1.3285882,56.82000000000001,0.061604782,0.040646702,-1.3380958,0.3997654,0.916865077777778,6.270628111111111,38.55555555555556,20.38888888888889,29.77777777777778,-31.22222222222222,21.0,273.22222222222223,-1055.888888888889,19.33333333333333,320.8888888888889,1015.7567777777778,-3.960138777777778,3180.6666666666665,0.061604782,-0.0114819848,0.040646702,-0.0058007546,-1.3380958,0.0042342866,56820.0,28328.0,29650.0,10.0,11.0,-40.0,1,27_xgyro_avg_constant_20.38888888888889
2023-01-04 06:54:45,293.1529,0.104000000000002,81.0,1101.5,23211.0,4875.5,98.0,1105.9,310.2,4884.4,74.23448199999999,1.7996019999999997,0.044193438,0.035730422,-1.3256424,56.78000000000001,0.052739558,0.045127238,-1.3350054,0.47962208,1.1902726,4.2580569,37.55,20.38888888888889,31.9,-21.0,-20.65,265.85,-1073.45,-1.05,313.6,1015.76795,-3.9488906,3182.35,0.052739558,0.01397024,0.045127238,0.0044273406,-1.3350054,-0.0115208926,56790.0,28355.5,29620.0,7.0,12.5,-38.5,1,27_xgyro_avg_constant_20.38888888888889
2023-01-04 06:54:46,294.19300000000004,0.104000000000002,81.0,1118.5,23197.5,4886.0,98.0,1109.9,313.5,4879.2,74.046018,1.828081,0.044931288,0.0299313139999999,-1.3272746000000002,56.728,0.053208802,0.0399437839999999,-1.336062,0.29735815,0.92110105,4.2615933,30.2,20.38888888888889,31.9,-56.9,2.4,271.6,-1052.0,-7.3,323.1,1015.7803,-3.9366171,3184.1,0.053208802,-0.0274685559999999,0.0399437839999999,-0.0090995753999999,-1.336062,-0.0059768219999999,56740.0,28348.0,29570.0,14.5,15.0,-38.0,1,27_xgyro_avg_constant_20.38888888888889
2023-01-04 06:54:47,295.1618888888889,0.1022222222222176,81.0,1102.0,23249.5,4881.0,98.0,1146.888888888889,316.3333333333333,4878.555555555556,73.8470088888889,1.8566928888888887,0.0429886575,0.0137045725,-1.32227025,56.6775,0.0518957075,0.02336737,-1.3305382499999998,0.5826368444444445,0.8759594666666667,4.818540333333332,18.0,20.38888888888889,34.22222222222222,-57.22222222222222,19.33333333333333,257.6666666666667,-1071.6666666666667,3.7777777777777777,315.1111111111111,1015.7853333333333,-3.9316143333333335,3185.4444444444443,0.0518957075,0.0319686732499999,0.02336737,-0.0159848275,-1.3305382499999998,0.0005309475,56685.0,28370.0,29515.0,12.5,18.0,-37.5,1,27_xgyro_avg_constant_20.38888888888889
2023-01-04 06:54:48,296.153,0.104000000000002,81.0,1191.5,23174.0,4876.5,98.0,1175.7,319.7,4877.8,73.68873599999999,1.8839732,0.043444564,0.020422878,-1.3082493999999998,56.64399999999999,0.051190818,0.030054954,-1.3166182,0.52895055,1.2486503,4.574517999999999,16.85,20.38888888888889,38.65,-22.1,-17.3,259.35,-1087.0,3.7,321.6,1015.7779,-3.9390273000000007,3187.05,0.051190818,-0.041158216,0.030054954,0.03437627854,-1.3166182,-0.0187195662,56640.0,28458.5,29470.0,-2.0,27.0,-33.5,1,27_xgyro_avg_constant_20.38888888888889
2023-01-04 06:54:49,297.1817777777777,0.111111111111111,81.0,1188.0,23179.0,4879.0,98.0,1192.2222222222222,323.0,4883.444444444444,73.55777333333334,1.910394,0.0174449759999999,0.03193287,-1.3026828,56.628,0.0262552379999999,0.0415940879999999,-1.3102934,0.4839639555555556,1.3597122222222222,4.922222555555556,15.555555555555555,20.38888888888889,39.05555555555556,-58.27777777777778,-11.444444444444445,259.1666666666667,-1064.2777777777778,-1.0,297.94444444444446,1015.7801666666666,-3.936736055555556,3188.6666666666665,0.0262552379999999,-0.0248045306,0.0415940879999999,0.0383704134,-1.3102934,-0.0221116652,56630.0,28495.0,29460.0,-9.0,27.0,-35.0,1,27_xgyro_avg_constant_20.38888888888889
2023-01-04 06:54:50,298.1969,0.104000000000002,81.0,1257.0,23162.5,4880.0,97.0,1196.4,326.5,4877.8,73.39468,1.9315428,0.004008497,0.0423364939999999,-1.3025326,56.608,0.0128589942,0.050970704,-1.3096724,0.46849342,1.33586557,7.336861300000001,8.9,20.38888888888889,50.0,-46.5,21.6,268.5,-1062.7,13.4,308.9,1015.7683,-3.948656,3190.4,0.0128589942,0.0002215544,0.050970704,-0.027511412,-1.3096724,0.0011341868,56605.0,28490.5,29435.0,4.0,13.5,-32.5,1,27_xgyro_avg_constant_20.38888888888889
2023-01-04 06:54:51,299.193,0.1044444444444441,81.0,1152.5,23178.0,4884.5,97.0,1138.111111111111,329.55555555555554,4886.555555555556,73.09317222222222,1.9500591111111112,0.0205935179999999,0.032132722,-1.3078542,56.606,0.0285417019999999,0.042052058,-1.3151432,0.4254549777777778,1.5676992222222224,6.842736222222222,11.11111111111111,26.33333333333333,44.0,-49.888888888888886,-1.8888888888888888,266.3333333333333,-1069.5555555555557,-29.55555555555556,322.55555555555554,1015.7631111111112,-3.953784777777778,3191.555555555556,0.0285417019999999,0.0230695099999999,0.042052058,0.0165894279999999,-1.3151432,-0.0043288531999999,56615.0,28470.5,29445.0,5.0,4.5,-36.0,0,None
2023-01-04 06:54:52,300.1828,0.1060000000000001,81.0,1156.0,23187.0,4885.0,97.0,1163.4,332.7,4877.6,72.76222,1.96438,0.023633218,0.03601915,-1.3121926,56.55800000000001,0.031722446,0.04573081,-1.3189326,0.43558192,1.05054078,6.6500102,10.1,-6.85,43.3,-57.2,21.85,266.3,-1066.65,10.65,312.35,1015.76465,-3.9523556,3193.1,0.031722446,0.0118083954,0.04573081,-0.0140681652,-1.3189326,0.0162725512,56560.0,28438.5,29390.0,11.0,4.5,-37.5,0,None
2023-01-04 06:54:53,301.16855555555554,0.1022222222222176,81.0,1167.0,23167.0,4888.5,97.0,1158.5555555555557,336.0,4885.777777777777,72.39057222222223,1.9788957777777776,0.02149625625,0.029802965,-1.30481525,56.5275,0.02853617,0.0405257425,-1.3113940000000002,0.3796173222222221,1.0080681,5.901681555555555,10.444444444444445,5.333333333333333,43.11111111111112,-35.77777777777778,-25.88888888888889,260.22222222222223,-1059.6666666666667,-13.11111111111111,310.55555555555554,1015.7612222222224,-3.955590111111111,3194.6666666666665,0.02853617,-0.0048371575,0.0405257425,-0.003459391,-1.3113940000000002,-0.0206220025,56525.0,28477.0,29355.0,14.5,11.5,-37.5,0,None
2023-01-04 06:54:54,302.16099999999994,0.108000000000004,81.0,1067.0,23219.5,4885.0,97.0,1091.2,339.0,4874.2,72.01136799999999,1.9928106,0.01550306814,0.021630298,-1.3302508,56.492,0.0240911963999999,0.031515512,-1.3365608,0.60601936,1.25280426,5.4559345,35.4,-11.25,43.55,-28.85,51.85,265.0,-1044.95,12.5,307.75,1015.8002,-3.91677735,3196.3,0.0240911963999999,0.05559615,0.031515512,-0.012603496,-1.3365608,-0.007005782,56480.0,28335.0,29310.0,19.0,-3.0,-35.0,0,None
2023-01-04 06:54:55,303.1837777777778,0.1044444444444441,81.0,1125.0,23194.0,4886.0,97.0,1117.5555555555557,342.0,4884.555555555556,71.60158444444444,2.0045611111111103,0.0578699379999999,0.0137073607999999,-1.3244547999999998,56.44,0.0652969499999999,0.024666608,-1.3306268,0.4325280444444444,1.212347511111111,4.908931666666667,15.666666666666666,12.88888888888889,30.33333333333333,-24.77777777777778,-1.1111111111111112,260.3333333333333,-1093.2222222222222,22.55555555555556,326.0,1015.7962222222224,-3.920616222222223,3197.6666666666665,0.0652969499999999,0.0224873706,0.024666608,0.017051178,-1.3306268,0.0123446166,56435.0,28381.5,29265.0,5.0,9.0,-32.0,0,None
2023-01-04 06:54:56,304.17299999999994,0.1039999999999963,81.0,1083.5,23168.5,4879.5,97.0,1132.2,345.4,4873.6,71.33254199999999,2.0161234,0.040907282,0.033692382,-1.3192876,56.42999999999999,0.04845124,0.04454459,-1.3253146,0.5876339500000001,0.87869925,5.1230048,29.15,18.85,32.75,-31.6,-22.65,268.45,-1049.95,10.5,319.9,1015.7894,-3.9275468,3199.5,0.04845124,-0.0259717984839999,0.04454459,0.0224088826,-1.3253146,0.0221256376,56430.0,28413.0,29260.0,-2.5,27.5,-31.0,0,None
2023-01-04 06:54:57,305.1641111111111,0.1044444444444441,81.0,1072.5,23194.0,4876.0,97.0,1089.111111111111,348.3333333333333,4879.444444444444,71.10598333333333,2.03018,0.0228090625,0.035210725,-1.326725,56.447500000000005,0.03124474,0.04500088,-1.33185625,0.3775738444444444,0.8974135888888887,3.0357216666666664,11.22222222222222,-6.666666666666667,37.0,-32.333333333333336,-8.222222222222221,265.1111111111111,-1061.6666666666667,-9.666666666666666,309.55555555555554,1015.7944444444444,-3.922647555555555,3200.8888888888887,0.03124474,-0.009244697275,0.04500088,-0.0201641725,-1.33185625,-0.0034675095,56450.0,28359.0,29280.0,4.0,27.0,-31.0,0,None
2023-01-04 06:54:58,306.17299999999994,0.1060000000000002,81.0,1091.0,23192.0,4877.5,97.0,1119.4,351.5,4875.7,70.875144,2.0449176,0.030942662,0.021231244,-1.3286762,56.44,0.039327862,0.031233614,-1.3333962,0.47482776,1.22751737,5.034915300000001,19.15,1.95,34.8,-77.65,26.45,263.15,-1058.25,-4.4,318.95,1015.7885,-3.928531200000001,3202.5,0.039327862,0.0425941266,0.031233614,-0.0068482379999999,-1.3333962,0.0021715988,56440.0,28361.0,29270.0,8.5,22.5,-32.0,0,None
2023-01-04 06:54:59,307.2063333333333,0.1088888888888908,81.0,1109.0,23183.0,4881.0,97.0,1148.6666666666667,354.6666666666667,4885.666666666667,70.64414555555557,2.059615111111111,0.0315471879999999,0.024659158,-1.3203288,56.438,0.0389467259999999,0.035398582,-1.3251354,0.4679378444444444,1.3991293333333337,4.905739111111111,12.0,19.944444444444443,40.888888888888886,-39.833333333333336,-15.944444444444445,262.8333333333333,-1059.1666666666667,7.333333333333333,316.77777777777777,1015.789888888889,-3.9270398333333336,3204.277777777778,0.0389467259999999,0.0002402323999999,0.035398582,0.0183376376,-1.3251354,0.024511744,56440.0,28395.0,29270.0,-1.0,27.0,-33.0,0,None
2023-01-04 06:55:00,308.1618888888889,0.1066666666666643,81.0,1184.0,23176.5,4884.5,97.0,1167.0,357.6666666666667,4880.444444444444,70.45343333333332,2.0725586666666667,0.016282874,0.0401011879999999,-1.3114066,56.408,0.0239047999999999,0.05006647,-1.3163682,0.3702992111111112,1.4038764444444445,4.980660555555556,14.666666666666666,9.333333333333334,46.11111111111112,-61.44444444444444,11.333333333333334,261.3333333333333,-1070.4444444444443,-9.333333333333334,317.6666666666667,1015.7823333333332,-3.9346703333333335,3205.777777777778,0.0239047999999999,0.0238580618,0.05006647,0.0093942239999999,-1.3163682,0.0057386266,56420.0,28450.0,29250.0,-1.0,23.0,-32.0,0,None
2023-01-04 06:55:01,309.1709,0.1060000000000002,81.0,1188.5,23170.0,4885.0,97.0,1178.0,361.1,4884.3,70.23366999999999,2.0856844,0.019001664,0.0301230459999999,-1.3091275999999998,56.392,0.026418448,0.039461744,-1.3135916,0.44986723,1.4510894,5.585302,7.25,-7.45,44.25,-52.5,-6.4,255.4,-1070.45,-4.25,305.2,1015.7935,-3.9233554,3207.25,0.026418448,0.0007592128,0.039461744,-0.0033192793999999,-1.3135916,-0.0008577385999999,56395.0,28473.0,29225.0,8.5,17.5,-35.0,0,None
2023-01-04 06:55:02,310.18188888888886,0.1066666666666706,81.0,1109.5,23192.0,4892.0,97.0,1111.0,364.22222222222223,4890.222222222223,69.9670677777778,2.098346,-0.0008233172499999,0.0173042325,-1.316006,56.38250000000001,0.0062741063,0.0273244875,-1.3212315,0.4858813444444444,1.236008155555555,4.162982333333334,15.77777777777778,4.555555555555555,53.11111111111112,-30.88888888888889,-13.444444444444445,259.6666666666667,-1079.4444444444443,-21.666666666666668,316.55555555555554,1015.7923333333334,-3.924366111111111,3208.777777777778,0.0062741063,0.0025617525,0.0273244875,-0.0006325212749999,-1.3212315,-0.0248839875,56380.0,28437.5,29210.0,10.5,5.5,-31.5,0,None
2023-01-04 06:55:03,311.1869,0.1058999999999968,81.0,1124.5,23182.5,4885.0,97.0,1115.1,367.5,4885.9,69.68637800000002,2.1065544,0.0314262541999999,0.0219552339999999,-1.3403257999999998,56.386,0.038084502,0.0316094039999999,-1.3443662,0.4697004899999999,1.0871086899999998,5.8061917,19.8,5.9,30.8,-20.4,42.9,268.15,-1086.35,-9.8,310.1,1015.7842,-3.93273815,3210.4,0.038084502,0.049373826,0.0316094039999999,0.00041760204,-1.3443662,-0.0191198621599999,56385.0,28293.0,29215.0,13.0,-8.5,-32.5,0,None
2023-01-04 06:55:04,312.20188888888885,0.1089999999999993,81.0,1124.0,23187.5,4881.5,97.0,1118.6666666666667,370.55555555555554,4886.0,69.38522777777776,2.113808,0.0436895379999999,0.025771204,-1.340478,56.386,0.05006016,0.0367274499999999,-1.3440214,0.4129724999999999,1.1072344444444444,5.1230551111111104,12.444444444444445,-3.9444444444444446,29.166666666666668,-47.16666666666666,-1.0555555555555556,258.6666666666667,-1052.0,-4.166666666666667,319.6111111111111,1015.785277777778,-3.9316795,3211.777777777778,0.05006016,0.006415356,0.0367274499999999,0.0120248324799999,-1.3440214,0.0090594542,56390.0,28305.0,29220.0,11.5,6.0,-34.5,0,None
2023-01-04 06:55:05,313.1774444444444,0.1066666666666707,81.0,1084.0,23173.5,4874.5,97.0,1078.0,373.55555555555554,4887.888888888889,69.17189777777779,2.1226420000000004,0.02936987,0.020265348,-1.3200444,56.398,0.036280952,0.030994762,-1.323433,0.4865548222222223,1.0886217,4.007075666666667,17.77777777777778,3.888888888888889,37.66666666666666,-44.22222222222222,-18.33333333333333,265.44444444444446,-1073.7777777777778,1.6666666666666667,319.8888888888889,1015.7851111111112,-3.931883555555556,3213.333333333333,0.036280952,-0.0224761264,0.030994762,0.00253397288,-1.323433,-0.0104542514,56400.0,28422.5,29230.0,9.0,15.5,-33.0,0,None
2023-01-04 06:55:06,314.1849,0.1060000000000001,81.0,1108.5,23175.0,4889.5,97.0,1070.9,376.5,4880.3,69.003386,2.1323936,0.03894609,0.017461402,-1.334766,56.386,0.045890234,0.028422938,-1.3381352,0.52129062,1.14988532,4.578102400000001,32.7,-6.55,35.4,-22.35,16.1,271.7,-1064.05,12.25,328.2,1015.81295,-3.90399585,3214.9,0.045890234,0.0465469716,0.028422938,0.0105690319999999,-1.3381352,-0.010858862,56380.0,28333.0,29210.0,7.0,10.5,-35.5,0,None
2023-01-04 06:55:07,315.19955555555555,0.1066666666666643,81.0,1064.0,23179.5,4886.5,97.0,1048.3333333333333,379.55555555555554,4888.555555555556,68.85905000000001,2.1427921111111115,0.0440588274999999,0.0192557475,-1.3365952499999998,56.365,0.0507447725,0.0300736325,-1.3400500000000002,0.5365519666666667,0.9986778000000002,3.89748988888889,23.166666666666668,23.666666666666668,31.666666666666668,-27.27777777777778,10.166666666666666,262.1111111111111,-1053.7222222222222,4.166666666666667,322.05555555555554,1015.8107222222222,-3.906193611111112,3216.277777777778,0.0507447725,-0.014114909,0.0300736325,0.0177511,-1.3400500000000002,-0.00073189625,56360.0,28319.5,29190.0,1.0,19.5,-30.0,0,None
2023-01-04 06:55:08,316.1552222222222,0.1088888888888908,81.0,1099.0,23184.0,4885.5,97.0,1120.3333333333333,382.3333333333333,4877.777777777777,68.77303111111111,2.152649222222222,0.0445104999999999,0.028141694,-1.3358154,56.342,0.0514920399999999,0.0386168239999999,-1.3394226,0.4398501777777777,0.9410486555555556,5.415900666666667,27.11111111111111,5.0,32.0,-46.44444444444444,29.444444444444443,276.77777777777777,-1047.5555555555557,13.11111111111111,322.44444444444446,1015.7862222222224,-3.930772444444445,3217.6666666666665,0.0514920399999999,0.030988225,0.0386168239999999,0.006662978,-1.3394226,0.0051464907999999,56340.0,28345.0,29170.0,2.0,22.5,-32.0,0,None
2023-01-04 06:55:09,317.16299999999995,0.1039999999999963,81.0,937.0,23234.5,4878.0,97.0,1007.0,385.3,4879.6,68.69928,2.1651758,0.025954038,0.022388666,-1.3252126,56.396,0.033281394,0.033341814,-1.3287186000000002,0.60277589,1.02794763,4.3808079,18.35,14.2,41.55,-49.7,-11.7,265.8,-1050.05,-15.6,317.25,1015.7629,-3.95411325,3219.1,0.033281394,-0.006531232,0.033341814,0.01976664,-1.3287186000000002,-0.0152946412,56410.0,28375.0,29240.0,1.5,16.0,-35.5,0,None
2023-01-04 06:55:10,318.1974444444444,0.111111111111111,81.0,1046.0,23202.5,4875.5,97.0,1069.5555555555557,388.22222222222223,4888.777777777777,68.63318444444444,2.1778890000000004,0.046163692,0.034303442,-1.337665,56.392,0.052759756,0.044982066,-1.3411932,0.5141797,1.1111183111111111,5.910854333333333,35.05555555555556,-4.055555555555555,30.5,-40.888888888888886,30.444444444444443,271.77777777777777,-1069.1666666666667,2.333333333333333,316.3888888888889,1015.8051666666664,-3.911692722222222,3221.0,0.052759756,0.0325652682,0.044982066,0.0034510321999999,-1.3411932,-0.0173233299999999,56390.0,28322.0,29220.0,11.0,8.0,-37.0,0,None
2023-01-04 06:55:11,319.1485555555556,0.1044444444444441,81.0,1042.5,23200.5,4883.0,97.0,1065.4444444444443,391.1111111111111,4883.0,68.56187,2.190115111111111,0.0535089025,0.0199891099999999,-1.3378199999999998,56.3575,0.0599415575,0.0308136375,-1.3412195,0.4832856555555555,0.8795818444444444,5.013718222222221,31.666666666666668,-10.333333333333334,28.77777777777778,-38.66666666666666,-14.11111111111111,262.44444444444446,-1051.0,2.888888888888889,320.6666666666667,1015.7973333333332,-3.919635333333334,3222.0,0.0599415575,0.015137710475,0.0308136375,-0.0094078149999999,-1.3412195,0.01550142325,56360.0,28308.5,29190.0,12.0,14.0,-30.5,0,None
2023-01-04 06:55:12,320.18499999999995,0.108000000000004,81.0,1089.5,23188.0,4886.5,97.0,1100.4,394.3,4884.3,68.51317800000001,2.204321,0.0449054583333333,0.0293486666666666,-1.3267921666666669,56.36166666666667,0.0514482366666666,0.04052334,-1.3302158333333334,0.45770375,1.03739951,5.2992395000000005,22.7,28.25,31.7,-50.8,-20.3,265.8,-1068.55,-7.35,320.95,1015.7768,-3.94012095,3223.5,0.0514482366666666,0.004825423,0.04052334,0.0232772926666666,-1.3302158333333334,0.0011673933333333,56360.0,28374.5,29190.0,4.0,20.5,-31.5,0,None
2023-01-04 06:55:13,321.20166666666665,0.108777777777776,81.0,1002.0,23215.5,4877.0,97.0,1064.6666666666667,397.3333333333333,4889.222222222223,68.48312,2.220043111111111,0.025024835,0.0245669075,-1.3203685,56.4075,0.0316465075,0.03515725,-1.32404025,0.5885527888888888,1.0644101666666668,4.574231666666667,16.77777777777778,-16.166666666666668,44.27777777777778,-51.16666666666666,-15.38888888888889,264.5,-1046.2777777777778,-24.0,316.3888888888889,1015.7844444444444,-3.9326386111111113,3224.8888888888887,0.0316465075,-0.0520502125,0.03515725,-0.01613288725,-1.32404025,0.014199504,56395.0,28414.0,29225.0,10.5,22.5,-33.0,0,None
2023-01-04 06:55:14,322.207,0.1040999999999996,81.0,1142.0,23164.0,4883.0,97.0,1117.5,400.3,4883.5,68.44380000000001,2.2340474,0.038043528,0.020592604,-1.3318262,56.376,0.044691446,0.0308296979999999,-1.3356292,0.5495057000000001,1.1919747900000002,5.766775599999999,20.1,7.3,32.7,-71.2,37.0,261.4,-1078.6,-6.6,318.6,1015.7925,-3.9243906,3226.4,0.044691446,0.0244851132,0.0308296979999999,0.019039661,-1.3356292,0.0059524654,56385.0,28346.5,29215.0,12.5,12.5,-35.5,0,None
