00000_Time_epoch,00000_Time_boot_sec,00000_Span_Time_boot_sec,1_battery_remaining_avg,1_current_battery_avg,1_voltage_battery_avg,125_Vcc_avg,147_battery_remaining_avg,147_current_battery_avg,147_current_consumed_avg,165_Vcc_avg,168_direction_avg,168_speed_avg,178_pitch_avg,178_roll_avg,178_yaw_avg,182_altitude_avg,182_pitch_avg,182_roll_avg,182_yaw_avg,241_vibration_x_avg,241_vibration_y_avg,241_vibration_z_avg,27_xacc_avg,27_xgyro_avg,27_xmag_avg,27_yacc_avg,27_ygyro_avg,27_ymag_avg,27_zacc_avg,27_zgyro_avg,27_zmag_avg,29_press_abs_avg,29_press_diff_avg,29_temperature_avg,30_pitch_avg,30_pitchspeed_avg,30_roll_avg,30_rollspeed_avg,30_yaw_avg,30_yawspeed_avg,33_alt_avg,33_hdg_avg,33_relative_alt_avg,33_vx_avg,33_vy_avg,33_vz_avg,label,diagnosis
2023-01-03 16:41:55,312.114,-0.25,83.0,89.5,23318.0,4884.5,99.0,94.0,76.0,4888.5,-144.63595,0.20399175,-0.0037005505,-0.0160154925,-1.164297,24.655,0.0030161367499999,-0.0112347099999999,-1.18466275,0.02470459,0.02644953,0.03593896,-14.5,4.5,91.5,1.5,5.0,255.0,-1064.0,0.0,339.5,1019.389,-0.004765625,3401.5,0.0030161367499999,0.0062771645,-0.0112347099999999,0.005321843,-1.18466275,-0.000559047525,24650.0,29213.0,-70.0,1.5,13.0,-29.0,0,None
2023-01-03 16:41:56,313.114,0.5,83.0,89.0,23285.0,4878.0,99.0,87.0,76.0,4883.5,-144.5108,0.2048049,-0.0038912768333333,-0.0160182508333332,-1.1642559166666666,24.555,0.003102438,-0.0115024274999999,-1.1847366666666668,0.026870835,0.02481623,0.0377705,-15.5,4.0,90.0,1.5,6.0,254.5,-1064.0,0.0,340.0,1019.4085,0.0148828125,3403.0,0.003102438,0.0061288639166666,-0.0115024274999999,0.0043589785,-1.1847366666666668,0.0001300684,24545.0,29212.0,-175.0,-0.5,13.0,-30.0,0,None
2023-01-03 16:41:57,314.114,0.5,83.0,189.5,23265.5,4881.5,99.0,112.0,76.5,4890.0,-144.1369,0.25331265,-0.0037622669999999,-0.0159561858333333,-1.1640800833333331,24.49,0.0031157158333333,-0.0114982024999999,-1.1849784166666666,0.1943310999999999,0.13788265,1.71094935,6.5,11.0,96.5,2.0,-1.5,251.0,-1063.5,11.5,335.0,1019.42,0.0265625,3404.5,0.0031157158333333,0.0111626823333333,-0.0114982024999999,0.0047166749166666,-1.1849784166666666,-0.0241567121666666,24490.0,29212.0,-230.0,-2.0,12.0,-29.0,0,None
2023-01-03 16:41:58,315.124,0.5100000000000193,83.0,130.0,23261.0,4881.0,99.0,133.5,77.0,4891.5,-143.7849,0.3138311,-0.0041563118333332,-0.0157576474999999,-1.1623663333333334,24.451666666666668,0.0030515603333333,-0.01102242,-1.1847791666666665,0.1889622,0.13799555,0.8705845,-27.0,11.5,94.5,4.5,-0.5,247.5,-1073.0,-7.0,336.0,1019.431,0.037851565,3405.5,0.0030515603333333,0.0041656788333333,-0.01102242,0.0074134950833332,-1.1847791666666665,0.0016065323333333,24455.0,29213.5,-265.0,-1.5,11.0,-29.0,0,None
2023-01-03 16:41:59,316.184,0.5300000000000011,82.5,1764.5,22818.5,4878.5,99.0,1405.5,78.5,4884.5,-143.47320000000002,0.3774875,0.02076015,0.0063469708333333,-1.1579264166666667,24.653333333333336,0.0269358301666666,0.0118520615,-1.1796359166666668,0.7935504,0.6994934,4.3196735,-16.5,61.0,81.0,-6.5,40.5,250.5,-1252.0,-7.0,301.5,1019.6355,0.241875,3406.5,0.0269358301666666,0.0042841525833332,0.0118520615,0.0449850799999999,-1.1796359166666668,0.0013818184999999,24825.0,29250.5,105.0,-2.0,24.0,76.5,0,None
2023-01-03 16:42:00,316.984,0.5399999999999636,82.0,1819.0,22791.0,4883.0,99.0,1776.0,83.0,4890.0,-142.8775,0.4093345,-0.0146474944,0.004573913,-1.1627163333333332,25.85333333333333,-0.0084985283333333,0.0109504036666666,-1.1827553333333334,0.305737,0.8777043,2.391875,-13.0,-43.0,76.0,-64.0,-61.0,266.0,-1237.0,-15.0,283.0,1019.295,-0.098125,3407.0,-0.0084985283333333,-0.05350904,0.0109504036666666,-0.0200484206666666,-1.1827553333333334,-0.019357039,26320.0,29201.0,1600.0,7.0,30.0,214.0,0,None
2023-01-03 16:42:01,317.7945,0.5405000000000086,81.0,1771.5,22774.5,4884.25,99.0,1731.5,86.5,4887.5,-140.9785,0.42717775,-0.0206810795833333,-0.0048808825833333,-1.17063625,28.523333333333333,-0.0130950283333333,0.0012198708833333,-1.2438499166666668,0.3508202,1.06002525,2.7521475,-9.25,17.25,73.5,-10.0,31.5,224.75,-1138.5,3.75,251.0,1019.03925,-0.354062475,3408.75,-0.0130950283333333,0.0331787425,0.0012198708833333,0.0210517274166666,-1.2438499166666668,0.0141809685,28780.0,28953.0,4060.0,12.5,4.0,291.0,0,None
2023-01-03 16:42:02,318.85400000000004,0.529500000000013,80.0,1164.5,22889.5,4882.5,99.0,1450.5,91.0,4879.0,-136.25735,0.4500165,0.0015417018333333,-0.0052650088583333,-1.176901,31.9275,0.0091346758333332,0.0012300520833333,-1.2740415,0.40189605,1.07750165,1.8524905,5.0,-50.5,81.0,-36.0,-35.5,262.0,-897.0,9.5,331.5,1018.53,-0.86378905,3410.5,0.0091346758333332,-0.0092006686666667,0.0012300520833333,-0.0209701624999999,-1.2740415,0.0140779883333333,32150.0,28702.5,7430.0,15.5,-4.0,248.5,0,None
2023-01-03 16:42:03,319.914,0.5300000000000011,79.5,1156.5,22863.0,4879.0,99.0,1121.0,95.0,4879.0,-133.7579,0.4811116,0.0118044258333333,-0.0141993723333333,-1.1604752500000002,33.83416666666666,0.0193066256666666,-0.0056248349166666,-1.2556849166666666,0.7160096,0.7042918499999999,2.2156595,-7.5,66.0,78.0,-5.5,48.0,246.5,-953.5,4.5,300.5,1018.3405,-1.0529685,3412.0,0.0193066256666666,0.0505245133333333,-0.0056248349166666,0.0311812739999998,-1.2556849166666666,0.0098792294166666,33910.0,28803.0,9190.0,3.5,-14.0,67.0,0,None
2023-01-03 16:42:04,320.97450000000003,0.5304999999999893,79.0,1191.0,22899.5,4880.0,99.0,1203.5,98.0,4879.5,-135.78935,0.52138185,0.0338678016666666,0.0293203591666666,-1.1576730833333333,34.405,0.0418479433333333,0.0376420858333333,-1.25100625,0.4682072,0.925732,3.265851,19.5,9.5,74.5,-28.0,4.0,251.0,-1017.5,-9.0,300.0,1018.253,-1.140781,3413.5,0.0415183608333332,0.0057910349583333,0.0373261958333333,0.0424344958333332,-1.2509122499999998,-0.0034588391666666,34435.0,28836.0,9715.0,1.5,-4.0,5.0,0,None
2023-01-03 16:42:05,322.035,0.5300000000000011,78.5,1252.5,22865.0,4875.5,99.0,1243.5,102.0,4891.5,-139.80395,0.51919525,0.0365501649999999,0.0257920166666666,-1.166863,34.638333333333335,0.0451333099999999,0.0347323466666666,-1.258496,0.34068955,0.9072159,4.254453,18.5,-7.0,69.5,-28.5,8.5,268.0,-1029.5,-24.5,305.5,1018.2375,-1.1561325,3415.0,0.0451333099999999,-0.0051866254999999,0.0347323466666666,-0.0176453951666667,-1.258496,-0.0224447101666666,34650.0,28795.0,9930.0,15.0,8.5,-13.0,0,None
2023-01-03 16:42:06,323.0455,0.5004999999999882,78.0,1335.0,22824.5,4885.0,99.0,1245.0,105.5,4890.0,-145.4802,0.48608735,0.008089665,0.01360343075,-1.1891621666666667,34.74333333333333,0.0159250316666667,0.0222751141666666,-1.27850025,0.3302439,1.2367605,7.482723,21.5,30.5,60.0,-30.5,-273.0,254.0,-1085.5,16.5,289.5,1018.208,-1.1854685,3416.0,0.0159250316666667,-0.1547649575,0.0222751141666666,0.0190230883333332,-1.27850025,0.0090755433333333,34740.0,28667.5,10020.0,13.5,20.5,-18.5,0,None
2023-01-03 16:42:07,324.04650000000004,0.5005000000000166,77.5,1652.5,22748.5,4864.0,99.0,1611.5,109.0,4890.0,-154.9367,0.44832605,-0.1741436,0.00397804575,-1.1606349166666663,35.40833333333333,-0.1644283333333333,0.0119191765833333,-1.2484066666666669,0.4783236,0.8585673,6.226121,-3.0,-4.0,128.0,-56.0,50.0,235.0,-1210.0,-17.0,251.5,1018.182,-1.2116795,3417.5,-0.1644283333333333,0.039283645,0.0119191765833333,0.0061828774999999,-1.2484066666666669,0.0202032882833333,35380.0,28850.0,10660.0,49.5,-109.0,71.5,0,None
2023-01-03 16:42:08,325.087,0.5199999999999818,77.0,1413.0,22791.5,4875.5,99.0,1490.5,114.0,4885.5,-167.91385,0.4206445,-0.1271915916666666,0.0064933390666667,-1.169779583333333,37.15833333333333,-0.1205669583333333,0.0152659804999999,-1.2557424166666666,0.5041703,0.96935455,6.438678,-17.5,-1.0,123.5,-40.5,30.5,263.0,-1063.0,-23.0,298.0,1018.0025,-1.390937,3419.5,-0.1205669583333333,0.0035258043333333,0.0152659804999999,-0.0196208686666666,-1.2557424166666666,-0.0122679176666666,37115.0,28803.0,12395.0,100.5,-272.0,131.5,0,None
2023-01-03 16:42:09,326.107,0.5100000000000193,77.0,1357.5,22771.5,4883.5,99.0,1446.0,118.0,4891.5,-1.2604499999999916,0.40801375,-0.1561998,-0.0031656745083333,-1.180152833333333,38.93083333333333,-0.1508274333333333,0.0073830644166666,-1.2644913333333334,0.44892235,1.2273995,3.413704,-42.5,-6.5,129.0,-62.5,-49.5,258.0,-1107.5,-24.0,308.0,1017.834,-1.5597655,3420.5,-0.1508274333333333,-0.016534143,0.0073830644166666,-0.0006820134166666,-1.2644913333333334,-0.0030879985833333,38895.0,28752.5,14175.0,135.0,-399.0,129.0,0,None
2023-01-03 16:42:10,327.127,0.5099999999999909,76.0,1315.0,22787.0,4885.0,99.0,1407.0,122.0,4894.5,165.159,0.40490305,-0.1582188416666666,0.0025143528083333,-1.1806743333333336,40.6575,-0.1538908749999999,0.0158159855,-1.26556925,0.49886615,0.9355708,4.4743815,-53.5,26.5,138.0,-25.0,77.5,249.5,-990.0,4.5,292.0,1017.6445,-1.74875,3421.5,-0.1538908749999999,-0.00269312625,0.0158159855,0.0112021658333333,-1.26556925,0.0100458903333333,40630.0,28744.5,15910.0,168.0,-528.5,133.0,0,None
2023-01-03 16:42:11,328.16700000000003,0.5200000000000102,76.0,1347.0,22776.0,4870.5,99.0,1223.5,126.0,4882.5,154.3287,0.41011765,-0.1630052,-0.0151600505,-1.17924825,42.31583333333333,-0.1594268583333333,-0.0006540244999999,-1.263079,0.49880155,0.99426315,7.026334,-70.0,-38.0,141.0,-25.5,1.0,245.0,-1139.0,-25.5,302.0,1017.5065,-1.8869925,3423.5,-0.1594268583333333,0.0409415083333333,-0.0006540244999999,-0.0465542998333333,-1.263079,-0.0222504967,42285.0,28766.5,17565.0,207.0,-633.5,136.0,0,None
2023-01-03 16:42:12,328.947,0.5199999999999818,76.0,1215.0,22803.0,4888.0,99.0,1349.0,129.0,4893.0,146.5093,0.4187441,-0.1431003,-0.0057503195,-1.181838,43.625,-0.14022075,0.010444953,-1.2653115,0.6287841,0.9116921,5.71231,-83.0,165.0,120.0,-13.0,29.0,237.0,-1045.0,62.0,291.0,1017.371,-2.022891,3424.0,-0.14022075,0.072810195,0.010444953,0.022735645,-1.2653115,0.0187569364999999,43590.0,28758.0,18870.0,226.0,-707.0,143.0,0,None
2023-01-03 16:42:13,329.737,0.5200000000000102,75.0,1179.0,22803.5,4883.5,99.0,1244.5,131.0,4884.0,139.5393,0.4319846499999999,-0.1249831583333332,-0.0228609666666666,-1.188819,44.958333333333336,-0.1222518083333332,-0.0053230676666666,-1.27312125,0.6426858,0.9567707,8.084202,-91.5,-3.0,123.5,-28.0,-8.0,252.5,-1074.5,-16.0,296.0,1017.262,-2.131328,3425.5,-0.1222518083333332,0.0389749974166666,-0.0053230676666666,-0.0107700784999999,-1.27312125,0.0035290631333333,44925.0,28704.0,20205.0,242.0,-746.0,143.0,0,None
2023-01-03 16:42:14,330.76800000000003,0.5204999999999984,75.0,1238.0,22787.5,4869.0,99.0,1197.0,135.0,4881.5,131.97955000000002,0.4575176,-0.1308023166666665,-0.0322337633333333,-1.195309083333333,46.685833333333335,-0.1279408999999999,-0.0143649824166666,-1.27986,0.6951389,1.212828,8.201454,-76.0,6.5,126.0,-35.0,61.0,238.5,-1009.5,-27.5,307.0,1017.03,-2.3635155,3427.5,-0.1279408999999999,-0.0198175598333333,-0.0143649824166666,0.0424436074999999,-1.27986,-0.0072233874999999,46660.0,28663.5,21940.0,238.5,-801.5,140.5,0,None
2023-01-03 16:42:15,331.818,0.5199999999999818,75.0,1303.75,22774.5,4877.75,99.0,1417.5,139.0,4881.0,124.29615,0.5024819,-0.0612853533333333,0.0258642168333333,-1.1936918333333333,48.48333333333333,-0.0586572283333333,0.0413771066666666,-1.277713,0.593616,0.89062685,4.993419,-72.0,7.5,103.75,-30.25,151.5,241.5,-1071.5,-15.25,257.75,1016.71075,-2.68255825,3428.75,-0.0589193783333333,0.1355069483333333,0.0411918299999999,0.0410933654999999,-1.2776623333333332,-0.002092449,48355.0,28676.0,23635.0,235.5,-848.0,133.5,0,None
2023-01-03 16:42:16,332.9698888888889,0.1444444444444456,74.5,1179.5,22803.5,4880.0,99.0,1178.7777777777778,143.77777777777777,4888.333333333333,116.56284444444448,0.5903492777777777,0.088249815,0.040874159,-1.1874234,50.661,0.0882847979999999,0.056317795,-1.2687589,0.6841402777777777,1.0415740111111114,7.234123777777778,-75.44444444444444,21.88888888888889,56.0,-19.33333333333333,99.77777777777776,256.44444444444446,-1088.4444444444443,0.7777777777777778,305.1111111111111,1016.5585555555556,-2.8350432222222226,3430.777777777778,0.0882847979999999,0.080325729,0.056317795,0.0227857881,-1.2687589,0.0011252778,50500.0,28731.33333333333,25780.0,238.66666666666663,-747.3333333333334,131.66666666666666,0,None
2023-01-03 16:42:17,333.9199,0.0999999999999999,74.0,1256.5,22779.5,4882.0,99.0,1263.1,147.2,4884.0,111.08593999999998,0.68560722,0.0969477419999999,0.0390519479999999,-1.1920296,52.214,0.0987209259999999,0.052986966,-1.2677642,0.5478929399999999,1.19901814,4.4702529,-48.9,-4.7,50.4,-26.2,-53.1,256.5,-1057.4,-16.9,318.2,1016.35,-3.0433671,3432.0,0.0987209259999999,-0.062198228,0.052986966,0.0110481492,-1.2677642,-0.0249753376,52420.0,28727.0,27700.0,211.0,-554.0,128.5,0,None
2023-01-03 16:42:18,334.94190000000003,0.1019999999999981,74.0,1258.0,22768.0,4870.5,99.0,1247.9,150.9,4890.1,106.58922,0.7829172999999999,0.090034168,0.039786406,-1.2071562,53.838,0.094448344,0.050552946,-1.2745738,0.5636981999999999,0.95489101,4.6841691,-29.8,4.9,50.5,-30.2,54.4,263.6,-1022.7,-11.4,302.4,1016.1067,-3.2868045,3433.3,0.094448344,0.0491977676,0.050552946,0.007611142,-1.2745738,-0.0145709706,54055.0,28698.0,29335.0,188.0,-449.5,107.0,0,None
2023-01-03 16:42:19,335.94,0.0999999999999999,74.0,1093.0,22803.0,4874.5,99.0,1095.0,154.0,4887.1,103.00044,0.8767721199999998,0.16159674,0.03443249,-1.2068078,54.89,0.16555264,0.042820738,-1.2681036,0.54101043,0.95580185,4.3081231,-22.0,2.1,23.0,-37.6,68.9,253.4,-985.4,-0.7,309.8,1015.9999,-3.3936797,3434.4,0.16555264,0.0667649104,0.042820738,0.0115758741999999,-1.2681036,-0.0011437623999999,54940.0,28744.0,30220.0,149.5,-330.5,-9.5,0,None
2023-01-03 16:42:20,336.9706,0.1061000000000035,74.0,1271.5,22755.5,4885.0,99.0,1238.2,157.5,4882.6,100.048074,0.96870592,0.15892998,0.0467538119999999,-1.208631,54.96,0.16383852,0.0520649399999999,-1.266931,0.5104512800000001,1.1447251,6.891918000000001,3.15,26.7,25.6,-45.9,-37.25,256.3,-1091.1,-5.95,308.4,1015.9686,-3.4248319,3436.0,0.16383852,-0.028001998,0.0520649399999999,0.0369365019999999,-1.266931,-0.01945230356,54965.0,28735.0,30245.0,99.5,-172.0,-33.5,0,None
2023-01-03 16:42:21,337.969,0.1022222222222239,74.0,1179.0,22756.0,4885.0,98.88888888888889,1189.4444444444443,160.66666666666666,4884.222222222223,97.39825222222224,1.0684599999999995,0.17657826,0.047878122,-1.2214092,55.01800000000001,0.18345776,0.051255682,-1.2774888,0.4985119444444444,1.1323482111111112,4.661231444444445,28.11111111111111,-18.444444444444443,18.55555555555556,-56.77777777777778,58.11111111111112,270.22222222222223,-1075.888888888889,-18.22222222222222,318.3333333333333,1015.9654444444444,-3.4280123333333328,3437.4444444444443,0.18345776,0.054364682,0.051255682,-0.025104662,-1.2774888,-0.0153638394,55025.0,28675.0,30305.0,68.5,-44.0,-34.0,0,None
2023-01-03 16:42:22,338.947,0.1059999999999945,73.5,1097.0,22792.0,4893.0,98.0,1127.3,163.8,4890.3,95.305332,1.1667582,0.134618124,0.037721212,-1.2329374,55.044,0.1419536599999999,0.039284546,-1.2873038,0.5284517300000001,1.1120895199999998,5.311689400000001,51.5,17.9,21.6,-43.0,-99.7,260.9,-1066.8,-9.4,313.9,1015.9889,-3.4046093000000006,3438.6,0.1419536599999999,-0.110071618,0.039284546,0.0024791073257999,-1.2873038,-0.02098682254,55040.0,28607.5,30320.0,27.5,53.0,-32.5,0,None
2023-01-03 16:42:23,339.987,0.1020000000000038,73.0,1146.0,22783.5,4870.5,98.0,1062.8,167.1,4878.3,93.65336,1.2803245999999997,0.078147538,0.0340277219999999,-1.2513554,54.996,0.086465918,0.034030314,-1.30573,0.5028605799999999,1.18102351,8.9259752,0.0,-17.7,37.9,-42.85,-2.65,261.3,-1096.05,-12.25,307.1,1016.0139,-3.37957805,3439.7,0.086465918,-0.022584,0.034030314,-0.0162414224,-1.30573,-0.0183997116,54990.0,28509.0,30270.0,16.0,77.0,-30.0,1,27_xacc_avg_constant_0
2023-01-03 16:42:24,340.96244444444443,0.1022222222222239,73.0,996.0,22815.5,4873.0,98.0,1043.6666666666667,169.88888888888889,4882.888888888889,92.3529522222222,1.3945293333333335,0.0597193824999999,0.020174945,-1.252562,54.96666666666667,0.0642966666666666,0.0201195466666666,-1.3059516666666668,0.6132741777777777,1.065619477777778,7.936378333333333,0.0,14.555555555555555,42.55555555555556,-49.333333333333336,-2.555555555555556,260.77777777777777,-1039.2222222222222,16.88888888888889,316.0,1016.0255555555556,-3.367829888888889,3441.333333333333,0.0669369425,-0.00909107785,0.0204333275,0.009079895,-1.30705175,0.0106135024849999,54960.0,28506.0,30240.0,7.0,75.0,-31.0,1,27_xacc_avg_constant_0
2023-01-03 16:42:25,341.947,0.1039999999999963,73.0,1080.5,22778.0,4885.0,98.0,1079.3,172.7,4884.7,91.379918,1.4981334,0.051943596,0.021746248,-1.2401166,54.924,0.058431936,0.02215308,-1.2943486,0.55890427,1.21927551,8.670392,0.0,-6.9,50.8,-39.8,11.6,260.4,-1098.0,1.7,312.2,1016.0479,-3.345648300000001,3442.5,0.058431936,-0.0038275706,0.02215308,-0.0206690316,-1.2943486,0.023540608,54920.0,28586.33333333333,30200.0,0.6666666666666666,56.333333333333336,-28.0,1,27_xacc_avg_constant_0
2023-01-03 16:42:26,342.91799999999995,0.1044444444444441,73.0,1118.0,22784.0,4884.0,98.0,1072.888888888889,175.88888888888889,4886.555555555556,90.63484555555556,1.5928601111111114,0.04979538,0.014569108,-1.236634,54.875,0.0555511199999999,0.0176128475,-1.2895655,0.5620561444444445,1.073914,7.348463,0.0,8.555555555555555,51.66666666666666,-50.0,6.0,263.3333333333333,-1052.3333333333333,-12.333333333333334,312.77777777777777,1016.0428888888888,-3.350564166666667,3443.6666666666665,0.05530716,0.014408356,0.017161256,0.0047727378,-1.2894064,0.0087561559999999,54870.0,28610.0,30150.0,-5.0,35.0,-25.0,1,27_xacc_avg_constant_0
2023-01-03 16:42:27,343.94320000000005,0.1060000000000002,73.0,1091.5,22748.5,4873.0,98.0,1100.4,178.8,4885.6,90.01786600000003,1.689573,0.0479716599999999,0.017426296,-1.2324506,54.86999999999999,0.053115214,0.0215875759999999,-1.284515,0.54131187,1.11266768,7.351066299999999,0.0,10.9,53.4,-61.7,-2.6,257.7,-1057.6,2.0,316.1,1016.051,-3.342461,3444.7,0.053115214,-0.0050115422,0.0215875759999999,0.0139704552,-1.284515,0.0098164282,54875.0,28633.5,30155.0,-10.0,22.5,-23.0,1,27_xacc_avg_constant_0
2023-01-03 16:42:28,344.9721,0.1042000000000029,73.0,1109.5,22771.0,4892.0,98.0,1119.2,182.1,4845.1,89.54831199999998,1.7753116000000002,0.044237122,0.020247782,-1.2310842,54.856,0.04964494,0.0250322319999999,-1.282954,0.4848930999999999,1.16953973,7.8146614,0.0,1.75,52.6,-49.7,11.45,254.9,-1047.7,10.35,313.0,1016.0459,-3.3475624500000003,3445.95,0.0498131175,0.0088652075,0.024967945,-0.0120825472499999,-1.28275475,0.0214160225,54855.0,28643.0,30135.0,-9.5,10.5,-22.5,1,27_xacc_avg_constant_0
2023-01-03 16:42:29,345.9998888888889,0.1066666666666643,73.0,1117.5,22698.0,4892.0,98.0,1097.4444444444443,185.11111111111111,4891.555555555556,89.11397222222222,1.8566132222222225,0.0481157125,0.01294028675,-1.226862,54.8725,0.05351672,0.0197881075,-1.27753225,0.4806321888888888,1.1985800777777778,7.493011555555554,0.0,6.125,53.625,-63.0,1.625,258.375,-1087.75,-8.375,316.5,1016.03525,-3.3583395,3447.25,0.05359867,0.02427970325,0.019820645,0.0184923435,-1.2774584999999998,-0.004382237,54865.0,28677.5,30145.0,-8.0,2.0,-24.0,1,27_xacc_avg_constant_0
2023-01-03 16:42:30,346.96233333333333,0.1066666666666643,73.0,1125.5,22748.5,4828.0,98.0,1118.888888888889,188.0,4847.777777777777,88.81820333333334,1.922107555555556,0.04520113,0.028485984,-1.2223508,54.882000000000005,0.051328686,0.035826258,-1.2731026,0.5189867444444444,1.0995641333333337,6.141580444444445,0.0,17.666666666666668,56.77777777777778,-47.16666666666666,4.5,262.6111111111111,-1045.5555555555557,-14.333333333333334,314.72222222222223,1016.036,-3.3575172777777778,3448.333333333333,0.051328686,-0.0034165083999999,0.035826258,0.024335218,-1.2731026,-0.01206738476,54880.0,28704.0,30160.0,-10.5,-2.5,-24.5,1,27_xacc_avg_constant_0
2023-01-03 16:42:31,347.9651,0.1060000000000002,73.0,1096.0,22712.0,4891.5,98.0,1087.4,191.3,4840.8,88.52329800000001,1.9846888000000005,0.040404942,0.021206282,-1.2295014,54.902,0.0472863159999999,0.02941038,-1.2795732,0.47979075,1.1413946300000002,7.8760233,0.0,-8.4,57.8,-32.4,1.1,256.7,-1064.5,-22.1,312.9,1016.0259000000002,-3.3674764,3449.5,0.0472863159999999,0.0222027312,0.02941038,-0.0084141963999999,-1.2795732,-0.0046912132,54895.0,28683.0,30175.0,-2.0,-0.5,-22.5,1,27_xacc_avg_constant_0
2023-01-03 16:42:32,348.97988888888887,0.1066666666666706,72.0,1071.0,22779.5,4889.0,98.0,1083.4444444444443,194.11111111111111,4846.111111111111,88.17157222222222,2.0444177777777783,0.0463745525,0.03020819,-1.241513,54.9175,0.0548522175,0.03872278,-1.2913292500000002,0.5285785444444444,1.2361316666666666,8.715034,0.0,11.444444444444445,49.888888888888886,-46.11111111111112,33.111111111111114,258.77777777777777,-1068.2222222222222,-1.6666666666666667,311.8888888888889,1016.0304444444444,-3.362881777777778,3450.1666666666665,0.0548522175,0.03268745975,0.03872278,0.00873843275,-1.2913292500000002,-0.01634903225,54920.0,28607.0,30200.0,2.0,-2.5,-24.5,1,27_xacc_avg_constant_0
2023-01-03 16:42:33,349.9444444444445,0.1088888888888845,72.0,1086.0,22758.5,4894.5,98.0,1106.111111111111,197.22222222222223,4873.555555555556,87.83045666666666,2.094600555555556,0.0570314699999999,0.0278984899999999,-1.240255,54.866,0.06532765,0.037350146,-1.2893048,0.3554134666666667,1.1227100111111112,7.252004666666666,0.0,13.944444444444445,50.44444444444444,-51.333333333333336,-15.88888888888889,264.8888888888889,-1051.0555555555557,3.888888888888889,315.1111111111111,1016.0259444444443,-3.367573666666667,3451.3888888888887,0.06532765,-0.0327581664,0.037350146,-0.0028116174,-1.2893048,0.015666549,54860.0,28609.5,30140.0,4.0,6.0,-25.0,1,27_xacc_avg_constant_0
2023-01-03 16:42:34,350.98310000000004,0.108000000000004,72.0,1054.5,22679.5,4891.5,98.0,1108.2,200.5,4872.3,87.45559800000002,2.148359,0.045249628,0.036281488,-1.2271936,54.80999999999999,0.053970516,0.045741388,-1.275489,0.4713724600000001,1.155281,8.0636714,0.0,4.05,55.8,-33.55,9.15,258.45,-1071.75,30.2,306.85,1016.0335,-3.3598240499999994,3452.4,0.053970516,0.0051041969999999,0.045741388,0.0122836137999999,-1.275489,0.0118066116,54815.0,28697.0,30095.0,10.0,7.5,-26.5,1,27_xacc_avg_constant_0
2023-01-03 16:42:35,351.9954444444445,0.1066666666666643,72.0,1130.5,22740.0,4870.0,98.0,1121.6666666666667,203.44444444444449,4868.111111111111,87.02033999999999,2.2034177777777777,0.0559159239999999,0.02845484,-1.2278597999999998,54.74400000000001,0.064495428,0.038069106,-1.2750098,0.4320893,1.2317366222222224,8.486972555555557,0.0,2.2222222222222223,47.11111111111112,-44.77777777777778,22.77777777777778,264.3333333333333,-1045.0,9.88888888888889,296.1111111111111,1016.029111111111,-3.364279444444444,3453.222222222222,0.064495428,-0.0034774308,0.038069106,-0.0103486079999999,-1.2750098,0.008849131738,54745.0,28695.0,30025.0,18.0,13.0,-26.0,1,27_xacc_avg_constant_0
2023-01-03 16:42:36,352.9511111111112,0.1066666666666643,72.0,1104.5,22667.5,4815.5,98.0,1137.111111111111,206.5555555555556,4872.111111111111,86.61829777777778,2.253662555555556,0.04869166,0.0219996649999999,-1.223097,54.72,0.057723875,0.0322497525,-1.27015225,0.4797895,1.026800288888889,5.652006888888888,0.0,-6.611111111111111,55.16666666666666,-51.333333333333336,1.1111111111111112,261.8888888888889,-1055.611111111111,26.5,312.3888888888889,1016.0167777777776,-3.3768226666666665,3454.055555555556,0.057723875,-0.0301692124999999,0.0322497525,-0.00209710875,-1.27015225,-0.01868886975,54715.0,28728.5,29995.0,15.5,15.5,-25.5,1,27_xacc_avg_constant_0
2023-01-03 16:42:37,353.963,0.108000000000004,72.0,1044.5,22757.5,4893.0,98.0,1120.0,209.6,4872.9,86.24694200000002,2.3054986000000004,0.048682152,0.018197642,-1.2204592,54.734,0.057848628,0.028176466,-1.26681,0.4915303299999999,1.1874858,6.889018699999999,30.45,15.6,56.45,-61.55,30.55,256.25,-1050.85,-16.4,317.3,1016.03255,-3.3609998999999995,3455.15,0.057694586,-0.0128612322,0.028181078,0.0143024346,-1.2667596,-0.0221986204,54740.0,28739.5,30020.0,6.5,14.5,-25.5,0,None
2023-01-03 16:42:38,354.9755555555555,0.1066666666666643,72.0,1179.5,22681.5,4893.0,98.0,1197.111111111111,213.11111111111111,4891.0,85.94402222222223,2.3550913333333328,0.057351884,0.027356094,-1.228491,54.728,0.066428414,0.03736644,-1.2748702,0.4162404111111111,1.2878905555555555,5.672468222222222,31.55555555555556,13.444444444444445,52.888888888888886,-77.44444444444444,-2.7777777777777777,260.44444444444446,-1071.4444444444443,-8.555555555555555,310.1111111111111,1016.0188888888888,-3.3744963333333327,3455.6666666666665,0.066428414,0.0220056114,0.03736644,0.0032804221999999,-1.2748702,0.0265232539999999,54730.0,28713.0,30010.0,1.0,18.5,-25.5,0,None
2023-01-03 16:42:39,355.95500000000004,0.0999999999999999,72.0,1140.0,22673.5,4821.5,98.0,1161.2,216.2,4848.6,85.67654,2.4032849999999994,0.04053593,0.03704358,-1.2222638,54.734,0.049903116,0.04663104,-1.2682454,0.39506131,1.06391431,6.3621508,43.5,4.5,58.5,-22.4,-12.3,264.7,-1094.8,3.5,301.2,1016.0391,-3.3543984,3456.9,0.049903116,-0.0104229239999999,0.04663104,0.011576978,-1.2682454,-0.0288323739999999,54730.0,28730.0,30010.0,11.0,18.0,-25.0,0,None
2023-01-03 16:42:40,356.983,0.104000000000002,71.5,1175.0,22658.0,4894.5,98.0,1165.7,219.5,4893.2,85.38038600000002,2.4491456,0.049976948,0.0155675444,-1.2161912,54.706,0.05845322,0.025129852,-1.2613575999999995,0.4447360999999999,0.96829753,4.5419783,40.8,-25.4,58.45,-28.8,15.3,258.4,-1065.5,27.7,311.7,1016.0638,-3.32963665,3457.65,0.05845322,0.0376274172,0.025129852,-0.01914091,-1.2613575999999995,-0.0022696424,54705.0,28788.5,29985.0,22.0,16.5,-22.5,0,None
2023-01-03 16:42:41,358.0087777777778,0.1088888888888845,71.0,1204.0,22698.0,4896.5,98.0,1162.4444444444443,222.77777777777777,4857.222222222223,85.11126111111112,2.493038888888888,0.054335372,-0.0049087156,-1.2068282,54.662,0.063032924,0.005074763,-1.2513894,0.6128599666666666,0.9570930888888888,4.555376666666667,37.11111111111112,-17.77777777777778,62.44444444444444,-26.88888888888889,21.55555555555556,253.66666666666663,-1063.4444444444443,4.222222222222222,319.0,1016.1025555555556,-3.290772333333333,3458.6666666666665,0.063032924,0.0180213082,0.005074763,-0.032527804,-1.2513894,0.0087798517999999,54660.0,28835.0,29940.0,21.0,15.0,-19.0,0,None
2023-01-03 16:42:42,358.9644444444445,0.1066666666666706,71.0,1192.5,22700.0,4892.0,98.0,1172.888888888889,226.0,4892.111111111111,85.04821666666668,2.5295752222222223,0.06910153,-0.01148129125,-1.1957257499999998,54.6325,0.07725882,-0.0020188274999999,-1.24035275,0.5492252444444445,1.0102657666666666,4.539659222222222,46.0,29.27777777777778,57.16666666666666,-33.333333333333336,16.166666666666668,242.11111111111111,-1044.111111111111,2.0,320.94444444444446,1016.0557222222222,-3.337812277777777,3459.222222222222,0.07725882,-0.0026210417499999,-0.0020188274999999,0.0121572475,-1.24035275,0.01231742525,54630.0,28879.0,29910.0,5.5,13.0,-16.0,0,None
2023-01-03 16:42:43,359.9313333333333,0.1089999999999993,71.0,1166.0,22628.0,4892.5,98.0,1169.3333333333333,229.0,4889.888888888889,85.19241888888888,2.5643988888888893,0.057166108,0.0113642066,-1.2015387999999998,54.66,0.066208444,0.0191973439999999,-1.2458208000000002,0.520837188888889,0.9932205555555556,4.464137222222223,42.61111111111112,0.1666666666666666,57.72222222222222,-28.0,-11.944444444444445,253.0,-1057.2222222222222,2.111111111111111,313.44444444444446,1016.0650555555555,-3.3284722222222225,3460.111111111112,0.066208444,-0.023023558,0.0191973439999999,-0.0024803698,-1.2458208000000002,0.0043397512,54655.0,28857.0,29935.0,-8.5,21.5,-19.0,0,None
2023-01-03 16:42:44,360.922,0.0999999999999999,71.0,1157.0,22650.0,4803.5,98.0,1145.0,232.2,4885.8,85.43692000000001,2.5990498000000004,0.042517194,0.00724631427,-1.2174486,54.682,0.0519535,0.0147125096,-1.2617484,0.48851268,1.03914562,5.3885133000000005,30.1,15.1,60.3,-28.5,-2.6,251.4,-1051.8,-34.9,319.4,1016.0434,-3.3501015,3460.9,0.0519535,0.003451936,0.0147125096,0.0263218936,-1.2617484,-0.0113698614,54680.0,28782.5,29960.0,-8.5,22.5,-21.0,0,None
2023-01-03 16:42:45,361.922,0.0999999999999999,71.0,1146.5,22575.0,4811.0,98.0,1157.1,235.5,4857.1,85.681072,2.629314,0.04120788,0.0121993056,-1.2198064000000002,54.716,0.050883362,0.0192551078,-1.2632287999999998,0.51388768,0.98263747,6.3310984,38.1,22.2,58.3,-37.3,8.4,256.0,-1055.8,-0.5,309.2,1016.0102,-3.3832031,3461.6,0.050883362,0.0176927995999999,0.0192551078,0.0209110169999999,-1.2632287999999998,0.010116278,54710.0,28761.0,29990.0,-11.5,18.5,-23.0,0,None
2023-01-03 16:42:46,362.93,0.1019999999999981,71.0,1201.5,22652.5,4885.0,98.0,1199.4,238.7,4844.5,85.88979799999998,2.6563294000000006,0.044656794,0.0297298439999999,-1.2222548,54.74,0.0544621379999999,0.0361866999999999,-1.2652677999999995,0.49554823,0.98532281,5.8926295,34.6,-3.3,58.6,-30.0,2.0,262.8,-1074.0,0.1,303.5,1016.016,-3.3775705,3462.6,0.0544621379999999,0.0078180021999999,0.0361866999999999,0.0059544216,-1.2652677999999995,-0.0152790162,54745.0,28756.0,30025.0,-8.5,14.5,-28.0,0,None
2023-01-03 16:42:47,363.942,0.0999999999999999,71.0,1144.0,22677.0,4888.5,98.0,1139.7,241.9,4889.7,86.016852,2.6822042,0.037821598,0.031254296,-1.22372,54.745,0.0475595575,0.0396493625,-1.26645325,0.49606686,1.0124224,4.564036400000001,25.2,23.7,58.9,-43.6,14.2,257.3,-1064.3,-12.5,305.7,1016.018,-3.3753983999999995,3463.2,0.047462278,0.0070849842,0.039146612,0.0123610062,-1.2665395999999998,0.0172630244,54745.0,28738.5,30025.0,-1.5,14.5,-26.0,0,None
2023-01-03 16:42:48,364.942,0.0999999999999999,70.0,1142.5,22602.0,4885.0,98.0,1160.4,245.3,4892.5,86.04816200000002,2.7072714,0.0385868019999999,0.030072696,-1.2247868,54.754,0.048227722,0.038054268,-1.2669221999999998,0.4795079699999999,1.08104,4.8008653,30.9,-3.0,61.2,-25.1,20.8,259.7,-1062.9,7.7,308.4,1016.0054,-3.3881953000000005,3464.0,0.048227722,0.0165886172,0.038054268,-0.0030237913999999,-1.2669221999999998,0.0005025819999999,54760.0,28742.0,30040.0,9.0,15.0,-28.5,0,None
2023-01-03 16:42:49,365.952,0.1019999999999981,70.0,1183.5,22639.5,4887.5,98.0,1134.4,248.5,4891.2,85.99265600000001,2.7308874000000003,0.037617448,0.02713845,-1.2264712,54.752,0.047553684,0.034896942,-1.2681832,0.50508627,1.0687173800000005,5.935764,28.9,10.6,60.0,-57.9,12.1,255.2,-1034.1,-7.6,314.6,1016.0051,-3.388453,3465.1,0.047553684,-0.0011275588,0.034896942,-0.0037866099999999,-1.2681832,0.00355400482,54750.0,28728.0,30030.0,11.5,14.5,-28.5,0,None
2023-01-03 16:42:50,366.972,0.1020000000000038,70.0,1117.0,22632.5,4815.5,98.0,1122.4,251.8,4844.6,85.883564,2.752384,0.039146688,0.0285541999999999,-1.2316323999999998,54.760000000000005,0.049175738,0.035885244,-1.272409,0.51400834,1.0639021400000002,5.5566578,28.4,7.6,56.6,-58.5,21.3,262.8,-1078.8,-17.4,310.5,1016.0187999999998,-3.3746562000000004,3465.8,0.049175738,0.0266047345999999,0.035885244,0.0018275241859999,-1.272409,0.0102303052,54760.0,28703.0,30040.0,14.5,11.0,-28.5,0,None
2023-01-03 16:42:51,367.99,0.1019999999999981,70.0,1147.0,22682.0,4886.0,98.0,1129.0,255.0,4889.3,85.733346,2.7721428,0.038839094,0.032666368,-1.2285564,54.748000000000005,0.048708532,0.040580612,-1.2682924,0.5358079,1.02902227,5.2123524,39.1,1.4,60.4,-20.1,15.8,267.2,-1019.35,4.2,307.85,1016.0183,-3.37514065,3466.35,0.048708532,-0.0032906528999999,0.040580612,0.0058578395999999,-1.2682924,0.0045742406,54750.0,28736.5,30030.0,17.5,11.0,-25.5,0,None
2023-01-03 16:42:52,368.9654444444444,0.1023333333333324,70.0,1129.5,22683.5,4874.5,98.0,1133.5555555555557,258.0,4895.111111111111,85.55415,2.790676111111112,0.044467962,0.01587601678,-1.2413667999999998,54.732000000000006,0.0542012159999999,0.023790625,-1.280004,0.4052944111111112,1.0389401777777776,6.62089811111111,35.888888888888886,-37.333333333333336,56.333333333333336,-21.88888888888889,16.666666666666668,259.22222222222223,-1086.0,5.888888888888889,312.3333333333333,1016.050222222222,-3.343012111111112,3467.222222222222,0.0542012159999999,0.0102829389999999,0.023790625,-0.0424699178,-1.280004,-0.0031180805999999,54735.0,28670.5,30015.0,25.0,13.5,-25.5,0,None
2023-01-03 16:42:53,369.91733333333343,0.111111111111111,70.0,1083.0,22639.0,4886.0,98.0,1109.888888888889,260.77777777777777,4862.555555555556,85.38060999999999,2.808255777777778,0.0447831025,1.7113850000000016e-05,-1.23535275,54.705000000000005,0.054433745,0.00891096975,-1.2728415,0.5037696111111112,1.0413583999999998,6.650708999999999,37.0,28.55555555555556,51.833333333333336,-23.55555555555556,-13.944444444444445,256.6666666666667,-1060.5,11.77777777777778,328.1111111111111,1016.0441111111112,-3.349205444444445,3468.0,0.054433745,-0.01095393075,0.00891096975,0.0271591,-1.2728415,0.021017985,54705.0,28708.0,29985.0,8.5,19.5,-24.0,0,None
2023-01-03 16:42:54,370.95288888888894,0.1133333333333312,70.0,1223.0,22608.0,4883.5,98.0,1137.5555555555557,264.0,4845.111111111111,85.27518000000002,2.827407888888889,0.034241028,0.02675865,-1.2435878,54.712,0.04451327,0.033938098,-1.2802496,0.5036666333333333,1.0667892444444442,6.54755188888889,39.5,-8.166666666666666,52.44444444444444,-13.555555555555555,-8.11111111111111,259.1666666666667,-1070.2222222222222,9.833333333333334,303.3888888888889,1016.0421666666666,-3.351445333333334,3468.833333333333,0.04435571,0.0070892927999999,0.033825518,0.0222896013999999,-1.280302,-0.0077319440199999,54710.0,28657.5,29990.0,5.5,18.5,-22.0,0,None
2023-01-03 16:42:55,371.9848,0.104000000000002,70.0,1091.0,22702.0,4889.0,98.0,1080.3,267.4,4841.4,85.196392,2.8431548,0.040950864,-0.0019077774,-1.2435102,54.718,0.0508382879999999,0.00609778112,-1.2792506,0.5405821399999999,1.06835665,7.658179100000003,27.9,-16.9,57.1,-36.7,22.8,252.4,-1052.3,-18.9,316.5,1016.0433,-3.3502422000000003,3469.6,0.0508382879999999,0.0151557426,0.00609778112,-0.028801963,-1.2792506,-0.0055328606,54720.0,28671.0,30000.0,10.5,10.5,-21.5,0,None
2023-01-03 16:42:56,372.9794444444444,0.1110000000000026,70.0,1159.0,22691.0,4885.0,98.0,1138.111111111111,270.3333333333333,4869.666666666667,85.16053555555555,2.856885888888888,0.065292298,0.0049228165999999,-1.2431722,54.696000000000005,0.074701382,0.0128881394,-1.2788874,0.4628488,1.0594029777777778,7.43634211111111,38.333333333333336,25.38888888888889,46.77777777777778,-32.666666666666664,8.5,253.77777777777777,-1045.5555555555557,30.22222222222222,317.1111111111111,1016.0403888888889,-3.353133555555555,3470.333333333333,0.074701382,0.0126984199999999,0.0128881394,0.0289865778,-1.2788874,0.0063728977999999,54695.0,28679.0,29975.0,-6.0,16.0,-23.5,0,None
2023-01-03 16:42:57,373.9596666666666,0.1067777777777728,70.0,1040.5,22641.0,4888.5,98.0,1101.6666666666667,273.44444444444446,4859.888888888889,85.21457222222222,2.8702652222222227,0.044938714,0.028758618,-1.2334472,54.69,0.054326446,0.03684365,-1.2687754000000002,0.5221048777777777,1.0353136555555555,5.2918594444444444,34.5,30.77777777777778,55.27777777777778,-59.77777777777778,-15.444444444444445,261.55555555555554,-1036.0555555555557,-1.0,308.3888888888889,1016.0418333333332,-3.3516144444444445,3471.222222222222,0.0540132599999999,-7.859900000000002e-05,0.03663616,0.029222778,-1.2689752,0.0153124206,54690.0,28730.0,29970.0,-15.0,24.5,-22.0,0,None
2023-01-03 16:42:58,374.9306666666666,0.1087777777777824,70.0,1046.0,22716.5,4820.5,98.0,1055.3333333333333,276.44444444444446,4856.333333333333,85.27282555555554,2.884276222222222,0.04065282,0.0348902875,-1.250161,54.715,0.05011037,0.0425363025,-1.28459525,0.517208188888889,1.1240429777777776,7.672197444444445,33.333333333333336,1.8888888888888888,52.22222222222222,-30.666666666666668,25.444444444444443,265.6111111111111,-1075.9444444444443,-10.77777777777778,316.6111111111111,1016.0315555555557,-3.362061611111111,3472.111111111112,0.05011037,0.024010975,0.0425363025,0.0001868449999999,-1.28459525,-0.014481401,54710.0,28629.0,29990.0,-1.5,21.0,-23.5,0,None
2023-01-03 16:42:59,375.9647,0.1079999999999983,70.0,1059.0,22639.0,4895.5,98.0,1069.2,279.5,4887.9,85.268526,2.9003882,0.0425573879999999,0.026822482,-1.2548032000000002,54.7,0.051684032,0.03424866,-1.2886398,0.42741277,1.1704575,8.8151648,36.3,6.7,51.5,-42.2,-20.3,261.8,-1075.3,12.4,307.4,1016.0366,-3.356961,3472.8,0.052188016,-0.024950706,0.03455012,0.013513672,-1.2886567999999998,-0.011247822,54695.0,28623.5,29975.0,3.0,23.5,-22.5,0,None
2023-01-03 16:43:00,376.999,0.1000999999999976,70.0,1156.5,22685.5,4830.5,98.0,1117.7,282.5,4852.0,85.210445,2.9167923,0.045306834,0.032553444,-1.2442882,54.666,0.054500126,0.040621942,-1.2771796,0.46396624,1.1770150700000002,8.7253005,40.2,6.0,54.0,-54.85,29.55,262.95,-1005.55,-0.85,304.55,1016.0313,-3.36236335,3473.3,0.054500126,0.0408881464,0.040621942,0.00232606246,-1.2771796,0.0227155096199999,54655.0,28708.0,29935.0,13.0,15.0,-25.5,0,None
2023-01-03 16:43:01,377.9755555555555,0.1045555555555589,70.0,1068.0,22693.5,4903.5,98.0,1109.7777777777778,285.55555555555554,4899.0,85.10601333333335,2.932835555555556,0.048253036,0.022848854,-1.2304938,54.626,0.057204042,0.0313536559999999,-1.263502,0.5235984111111112,1.114309088888889,6.400167555555556,25.88888888888889,-13.11111111111111,62.11111111111112,-42.333333333333336,-21.55555555555556,251.66666666666663,-1088.7777777777778,-11.666666666666666,314.44444444444446,1016.0124444444444,-3.3810067777777784,3474.222222222222,0.057204042,0.0098006638,0.0313536559999999,-0.0139700096999999,-1.263502,0.0183433379999999,54620.0,28774.0,29900.0,15.0,19.0,-26.0,0,None
2023-01-03 16:43:02,378.9679,0.104000000000002,70.0,1097.5,22643.0,4818.5,98.0,1111.6,288.8,4874.0,84.99118800000001,2.949006,0.02740606,0.0298768,-1.2418476000000005,54.64399999999999,0.037088342,0.038220132,-1.2747206,0.44445855,1.1194039299999998,6.682489500000001,28.3,26.3,63.4,-39.0,-2.2,255.4,-1059.5,-23.6,314.4,1016.0285,-3.3652109,3474.7,0.037088342,-0.02594556,0.038220132,0.015222893,-1.2747206,-0.020785608,54645.0,28730.5,29925.0,8.0,19.0,-27.5,0,None
2023-01-03 16:43:03,379.9879,0.0999999999999999,70.0,1150.5,22692.0,4894.0,98.0,1134.6,291.8,4875.9,84.85435799999999,2.963637,0.0306519019999999,0.02435388,-1.246556,54.6,0.041030404,0.0320263239999999,-1.2788982,0.5189771400000001,1.09155395,7.5157602,40.0,-5.0,59.7,-44.3,16.5,260.7,-1057.5,18.6,314.1,1016.0397,-3.3537968,3475.5,0.041030404,0.0253640719999999,0.0320263239999999,-0.0061691764,-1.2788982,-0.004598784,54615.0,28667.0,29895.0,15.5,9.0,-29.0,0,None
2023-01-03 16:43:04,380.9879,0.0999999999999999,70.0,1081.5,22643.0,4905.0,98.0,1071.0,295.0,4891.0,84.68781200000001,2.9744592,0.044391794,0.0193417759999999,-1.2430600000000005,54.59,0.054559144,0.0275723359999999,-1.2748378,0.48959481,1.09124887,7.343571999999999,41.3,-5.2,58.5,-32.9,19.1,259.7,-1075.8,-7.2,314.8,1016.0447,-3.3487344,3476.0,0.054559144,0.0138955552,0.0275723359999999,-0.0016068531999999,-1.2748378,-0.0068192125999999,54585.0,28698.0,29865.0,14.5,-0.5,-22.5,0,None
2023-01-03 16:43:05,381.97399999999993,0.1066666666666643,70.0,1158.0,22678.0,4891.5,98.0,1121.6666666666667,297.8888888888889,4883.111111111111,84.52666666666667,2.984630333333333,0.06102031,0.0237308249999999,-1.2476457500000002,54.5775,0.0708976375,0.0318492325,-1.279011,0.4533121111111111,1.0941609555555556,7.800882111111111,37.5,1.8333333333333333,44.888888888888886,-48.22222222222222,12.27777777777778,255.77777777777777,-1035.2777777777778,17.88888888888889,305.77777777777777,1016.0489444444444,-3.344617944444445,3476.9444444444443,0.0708976375,0.00223471,0.0318492325,-0.0009140462499999,-1.279011,-0.0031602717499999,54585.0,28671.0,29865.0,10.5,4.0,-22.5,1,27_xgyro_avg_constant_1.8333333333333333
2023-01-03 16:43:06,382.9495555555555,0.1088888888888908,70.0,1091.0,22678.0,4890.0,98.0,1112.2222222222222,301.0,4895.666666666667,84.40041555555555,2.996749888888889,0.057615964,0.0187818459999999,-1.2450602,54.56600000000001,0.068148146,0.027138872,-1.276176,0.4778544666666666,1.2223411222222222,7.261747999999999,39.22222222222222,1.8333333333333333,50.27777777777778,-37.05555555555556,-7.111111111111111,254.5555555555556,-1042.2777777777778,-11.666666666666666,311.77777777777777,1016.0453888888892,-3.348150944444445,3477.333333333333,0.068148146,-0.000753601,0.027138872,0.0195709799999999,-1.276176,-0.007389455968,54565.0,28691.0,29845.0,1.5,16.0,-20.5,1,27_xgyro_avg_constant_1.8333333333333333
2023-01-03 16:43:07,383.942,0.1039999999999963,70.0,1132.0,22625.5,4820.0,98.0,1166.2,304.0,4892.8,84.297154,3.0125024,0.042473448,0.033574668,-1.2400474,54.572,0.052807044,0.041765254,-1.2712594,0.37183891,0.95471814,6.3441584,32.2,1.8333333333333333,55.3,-47.2,-6.4,261.4,-1046.0,21.2,308.4,1016.0238,-3.3697264,3478.2,0.052807044,-0.0016624976,0.041765254,-0.0066539374,-1.2712594,0.006209368864,54570.0,28705.0,29850.0,0.5,23.5,-24.0,1,27_xgyro_avg_constant_1.8333333333333333
2023-01-03 16:43:08,384.968,0.1020000000000038,70.0,1172.0,22598.5,4898.0,98.0,1130.8,307.5,4844.3,84.18536,3.0289206,0.0400592259999999,0.024286972,-1.2331156,54.598,0.050202092,0.03291977,-1.2640732,0.44604327,1.15363088,6.927603499999999,39.9,1.8333333333333333,60.2,-48.0,43.9,256.5,-1027.3,23.1,310.6,1016.033,-3.360539,3478.7,0.050202092,0.039897164,0.03291977,0.0069379033999999,-1.2640732,0.00234668,54595.0,28757.0,29875.0,8.0,13.0,-25.5,1,27_xgyro_avg_constant_1.8333333333333333
2023-01-03 16:43:09,385.9606666666666,0.1044444444444441,70.0,1212.5,22609.5,4895.5,98.0,1173.0,310.44444444444446,4875.555555555556,84.0575611111111,3.043999111111111,0.06209875,0.0306365479999999,-1.2263108000000005,54.60200000000001,0.071815404,0.039588986,-1.2569708,0.4433206333333333,1.1492022000000002,6.214270999999999,41.66666666666666,1.8333333333333333,51.55555555555556,-55.11111111111112,32.72222222222222,258.0,-1041.6666666666667,-14.11111111111111,309.22222222222223,1016.0321111111112,-3.3612847777777777,3479.4444444444443,0.072271318,0.019387746,0.039443726,0.0220268531999999,-1.2569738,-0.0171621846,54600.0,28801.0,29880.0,8.5,8.5,-24.5,1,27_xgyro_avg_constant_1.8333333333333333
2023-01-03 16:43:10,386.958,0.1039999999999963,70.0,1082.0,22680.5,4904.5,98.0,1134.0,313.7,4893.7,83.941954,3.0599782,0.057222796,0.0143084686,-1.2295968,54.604000000000006,0.067074724,0.0230925539999999,-1.2601296000000002,0.5278239,1.1040756100000002,6.2779037,48.8,1.8333333333333333,57.2,-40.3,-9.9,255.3,-1064.2,1.6,317.4,1016.0295,-3.3639921,3479.9,0.067074724,-0.0169571024,0.0230925539999999,0.0020910995999999,-1.2601296000000002,-0.0174416599999999,54600.0,28785.0,29880.0,5.0,17.5,-21.5,1,27_xgyro_avg_constant_1.8333333333333333
2023-01-03 16:43:11,387.9839,0.104000000000002,70.0,1084.0,22596.0,4896.5,98.0,1113.7,317.0,4848.5,83.85961,3.0775248,0.049388648,0.036110076,-1.2400672,54.59400000000001,0.059410798,0.0448264819999999,-1.2712242,0.5294977,1.02184071,6.861472999999999,51.3,1.8333333333333333,58.1,-31.1,7.2,267.1,-1055.55,13.6,320.25,1016.03605,-3.3573085,3480.7,0.059410798,0.0075529596,0.0448264819999999,0.039121424,-1.2712242,-0.01755621,54590.0,28720.0,29870.0,-4.0,15.0,-23.0,1,27_xgyro_avg_constant_1.8333333333333333
2023-01-03 16:43:12,388.985,0.1088888888888908,70.0,1182.0,22659.5,4826.5,98.0,1146.0,320.1111111111111,4841.444444444444,83.77937222222221,3.096074444444445,0.0580370475,0.03690898,-1.231207,54.5925,0.0679806299999999,0.045073045,-1.261877,0.5152656777777778,1.1211810666666666,6.808162555555556,54.11111111111112,1.8333333333333333,51.333333333333336,-43.55555555555556,12.444444444444445,258.77777777777777,-1056.0,21.444444444444443,306.22222222222223,1016.038111111111,-3.3554598888888894,3481.333333333333,0.0679806299999999,0.032351505,0.045073045,-0.0182354455,-1.261877,0.0110840642249999,54595.0,28771.0,29875.0,6.5,15.5,-27.0,1,27_xgyro_avg_constant_1.8333333333333333
2023-01-03 16:43:13,389.95177777777775,0.1044444444444441,70.0,1151.0,22580.5,4830.5,98.0,1134.6666666666667,323.0,4845.555555555556,83.6842722222222,3.114146555555555,0.054260648,0.027826864,-1.2326328,54.592,0.064264294,0.036471804,-1.2640566,0.5255440222222222,0.9772588777777776,5.607569777777778,43.11111111111112,1.8333333333333333,57.333333333333336,-39.833333333333336,8.555555555555555,256.0,-1052.2777777777778,8.11111111111111,307.8888888888889,1016.0565,-3.337026777777778,3481.8888888888887,0.064264294,0.02035167088,0.036471804,-0.0070099542,-1.2640566,0.00776508868,54590.0,28752.5,29870.0,17.0,22.0,-24.5,1,27_xgyro_avg_constant_1.8333333333333333
2023-01-03 16:43:14,390.942,0.1039999999999963,70.0,1182.0,22638.5,4883.5,97.0,1198.8,326.2,4861.2,83.58550400000001,3.1331412,0.051423154,0.00407084916,-1.21562,54.55800000000001,0.061930302,0.0130349701999999,-1.246663,0.4993889800000001,1.00845522,5.345309800000001,38.6,1.8333333333333333,59.0,-30.0,-2.8,252.2,-1069.5,17.4,310.6,1016.0532,-3.3402030000000003,3482.6,0.0624936325,-0.0037034817499999,0.0140989797499999,-0.03114036,-1.24728575,0.0334046474999999,54555.0,28870.0,29835.0,22.0,26.5,-22.5,1,27_xgyro_avg_constant_1.8333333333333333
2023-01-03 16:43:15,391.964,0.0999999999999999,70.0,1086.0,22668.0,4897.0,97.0,1100.2,329.7,4870.9,83.542924,3.1501908,0.036738946,-0.01742444,-1.209253,54.562,0.04753131,-0.0080796622,-1.2410894,0.6034775800000001,1.2060005,7.4653913,38.4,1.8333333333333333,68.2,-22.1,11.5,248.1,-1020.4,-13.0,325.6,1016.0723,-3.3211719000000004,3483.0,0.04753131,0.014884058,-0.0080796622,-0.0111173248,-1.2410894,-0.0246520513999999,54560.0,28875.5,29840.0,5.0,14.0,-17.0,1,27_xgyro_avg_constant_1.8333333333333333
2023-01-03 16:43:16,392.978,0.1020000000000038,69.5,1206.0,22563.5,4901.0,97.0,1178.9,332.8,4844.8,83.58942599999999,3.1634524,0.066884942,0.0095673286,-1.2362204,54.534000000000006,0.077638912,0.0182000118,-1.2682302,0.49005281,1.1231262699999998,6.422782600000001,43.2,1.8333333333333333,47.2,-47.6,34.3,250.6,-1042.2,15.8,313.3,1016.0269,-3.3666250000000004,3483.6,0.077638912,0.0405344579999999,0.0182000118,0.0483398616,-1.2682302,0.0162686818,54535.0,28739.0,29815.0,-18.5,8.5,-18.0,1,27_xgyro_avg_constant_1.8333333333333333
2023-01-03 16:43:17,393.9516666666666,0.1022222222222176,69.0,1092.5,22658.0,4883.5,97.0,1151.2222222222222,336.0,4886.666666666667,83.68484777777778,3.1738911111111108,0.0474283975,0.035945985,-1.220088,54.5725,0.0578412325,0.043911675,-1.25274425,0.4862334888888888,1.0547722555555556,5.174047555555555,30.5,1.8333333333333333,60.72222222222222,-26.444444444444443,-35.888888888888886,257.77777777777777,-1073.0,4.944444444444445,302.6111111111111,1016.0262777777776,-3.3671657777777777,3484.0,0.0578412325,-0.045583504,0.043911675,-0.00623322675,-1.25274425,-0.0095844845,54590.0,28821.5,29870.0,-11.0,24.5,-23.5,1,27_xgyro_avg_constant_1.8333333333333333
2023-01-03 16:43:18,394.92,0.1020000000000038,69.0,1121.0,22569.0,4896.5,97.0,1117.3,338.9,4850.2,83.745793,3.1855541,0.0263004299999999,0.028618514,-1.2289746,54.608,0.037407172,0.036840842,-1.2618868,0.53016188,1.0064964,5.768935099999999,32.5,1.8333333333333333,62.5,-46.5,21.9,260.5,-1074.2,-4.0,309.5,1016.0406,-3.3528047,3484.8,0.037407172,0.014443928,0.036840842,-0.01827629,-1.2618868,-0.0036449421,54600.0,28757.0,29880.0,7.5,10.0,-24.5,1,27_xgyro_avg_constant_1.8333333333333333
2023-01-03 16:43:19,395.926,0.1019999999999981,69.0,1083.5,22679.0,4901.5,97.0,1134.7,342.2,4896.7,83.755444,3.196601,0.0490566839999999,0.0159596888,-1.2299631999999998,54.58399999999999,0.059411038,0.024524482,-1.2625152,0.4728480399999999,1.23781203,6.3027327,39.8,-14.9,57.1,-30.2,-10.9,253.2,-1073.0,-20.3,320.2,1016.0424,-3.3511720000000005,3485.3,0.059411038,-0.0148655879999999,0.024524482,-0.0299787,-1.2625152,0.0075185136,54580.0,28754.0,29860.0,11.5,9.5,-21.5,0,None
2023-01-03 16:43:20,396.966,0.104000000000002,69.0,1008.5,22629.0,4906.0,97.0,1049.3,345.3,4891.9,83.75017999999997,3.2064348000000003,0.043128232,0.0131779512,-1.2436852,54.584,0.0542036259999999,0.021748622,-1.2774886,0.51317647,1.15030929,7.286557200000002,44.5,21.8,57.5,-16.9,22.2,254.7,-1078.0,-5.4,317.5,1016.0731,-3.3202264,3485.9,0.0542036259999999,0.02158606,0.021748622,0.0270004739999999,-1.2774886,-0.012518836,54570.0,28643.5,29850.0,5.0,5.5,-21.5,0,None
2023-01-03 16:43:21,397.9538888888889,0.1022222222222176,69.0,1094.5,22587.5,4824.0,97.0,1077.6666666666667,348.22222222222223,4861.555555555556,83.75150333333333,3.215561555555555,0.0608255,0.0309428999999999,-1.249982,54.538,0.071526348,0.038300778,-1.283459,0.5129081888888889,1.1403659666666668,8.366251555555557,43.833333333333336,8.833333333333334,46.333333333333336,-31.33333333333333,14.166666666666666,260.77777777777777,-1059.0555555555557,-2.5,309.8333333333333,1016.0639444444446,-3.3295573888888885,3486.4444444444443,0.071526348,0.0032461819999999,0.038300778,0.0159018074,-1.283459,-0.0017453062,54530.0,28656.0,29810.0,9.0,11.0,-20.0,0,None
2023-01-03 16:43:22,398.9179,0.1020000000000038,69.0,1022.5,22642.5,4895.5,97.0,1081.2,351.1,4901.2,83.743459,3.2256237,0.0528,0.025232196,-1.2454188,54.55799999999999,0.063542296,0.032714566,-1.2784468,0.5111568900000001,1.07550329,7.5247314,34.3,-8.2,48.1,-46.9,1.1,261.1,-1075.2,1.9,312.4,1016.0275999999998,-3.3659452,3486.9,0.063542296,0.0007614839999999,0.032714566,-1.3647999999999438e-05,-1.2784468,0.0086604884,54550.0,28671.5,29830.0,14.0,22.0,-19.0,0,None
2023-01-03 16:43:23,399.926,0.1019999999999981,69.0,1075.0,22620.5,4895.0,97.0,1109.9,354.2,4866.8,83.719324,3.2376376,0.046996992,0.0145320299999999,-1.2396562000000002,54.592000000000006,0.0576573919999999,0.0223132,-1.2728406,0.5022707000000001,1.08456909,7.8155494,43.8,4.3,55.9,-32.9,-2.7,256.5,-1067.6,4.7,314.9,1016.0204,-3.372968600000001,3487.6,0.0576573919999999,0.009875777,0.0223132,-0.0016651517999999,-1.2728406,0.0055706796,54590.0,28695.5,29870.0,12.5,25.0,-22.5,0,None
2023-01-03 16:43:24,400.946,0.1019999999999981,69.0,1168.0,22645.0,4893.0,97.0,1112.2,357.2,4878.9,83.70005,3.2490276,0.04014288,0.019964388,-1.235969,54.618,0.0507112039999999,0.027587906,-1.2688068,0.4856667199999999,1.0723836700000002,6.691814199999999,33.8,14.3,55.3,-22.6,17.6,257.4,-1054.5,-11.6,318.0,1016.0247,-3.3687188,3488.0,0.0507112039999999,-0.0009951576,0.027587906,0.003554608,-1.2688068,0.0187215568,54615.0,28726.5,29895.0,10.5,19.0,-25.5,0,None
2023-01-03 16:43:25,401.9838,0.1020000000000038,69.0,1106.5,22597.5,4896.5,97.0,1122.0,360.7,4890.1,83.678102,3.2589928,0.032960238,0.0043620196,-1.225631,54.612,0.04323602,0.0118891586,-1.2584478,0.5215276,1.08993711,6.2472238,29.1,-43.1,62.7,-25.7,-20.1,253.9,-1073.0,5.5,321.0,1016.0337,-3.3595858000000005,3488.9,0.04323602,-0.009893854,0.0118891586,-0.051105748,-1.2584478,0.027568154,54620.0,28767.0,29900.0,18.0,18.5,-26.5,0,None
2023-01-03 16:43:26,402.9624444444445,0.1044444444444441,69.0,1094.0,22650.0,4883.5,97.0,1098.7777777777778,363.44444444444446,4863.0,83.66196999999998,3.2665163333333336,0.041058558,0.001524542,-1.2533598,54.584,0.051518134,0.0092496982,-1.2864954000000002,0.6360939555555556,1.2505045555555556,8.59584211111111,31.05555555555556,33.666666666666664,54.94444444444444,-61.16666666666666,39.27777777777778,245.5,-1096.5,-36.333333333333336,314.77777777777777,1016.0405555555556,-3.3528383333333327,3489.111111111112,0.051518134,0.0390854359999999,0.0092496982,0.0419897776,-1.2864954000000002,-0.038807812,54590.0,28683.5,29870.0,0.5,4.5,-26.0,0,None
2023-01-03 16:43:27,403.948,0.1039999999999963,69.0,1170.0,22571.5,4819.0,97.0,1096.7,366.5,4859.9,83.66917199999997,3.271409,0.05842185,0.029104152,-1.2485171999999998,54.584,0.0684819,0.036751106,-1.2813328,0.4944308599999999,0.94331255,7.609835199999999,31.8,27.3,44.6,-46.1,-16.4,254.8,-1063.5,15.7,308.5,1016.0349,-3.3585936,3489.7,0.0687902339999999,-0.0253384798,0.0368868059999999,0.0167406318,-1.2814839999999998,0.013530406,54575.0,28634.5,29855.0,-9.5,10.5,-21.0,0,None
2023-01-03 16:43:28,404.982,0.104000000000002,69.0,1109.5,22648.0,4898.0,97.0,1109.9,369.9,4888.8,83.68057000000002,3.2774282,0.03543958,0.0214636944,-1.2368656,54.586,0.0457520159999999,0.0290750476,-1.2690572,0.49048735,1.10842738,6.7552656,39.75,-33.5,54.95,-26.65,-25.25,262.55,-1056.1,23.0,304.85,1016.0503,-3.34325375,3490.35,0.0457520159999999,-0.0049365654,0.0290750476,-0.04192356,-1.2690572,0.0097826867999999,54585.0,28723.0,29865.0,4.5,21.0,-23.5,0,None
2023-01-03 16:43:29,405.9711111111111,0.1022222222222239,69.0,967.5,22688.0,4896.5,97.0,1012.3333333333334,372.77777777777777,4896.222222222223,83.67380222222222,3.2840628888888883,0.0281896425,-0.00137280055,-1.2469245,54.5725,0.038502195,0.0072260585,-1.278484,0.6257990888888889,1.4602118888888889,11.856141,23.666666666666668,25.88888888888889,57.44444444444444,-37.333333333333336,56.333333333333336,250.44444444444449,-1072.111111111111,2.555555555555556,321.77777777777777,1016.076111111111,-3.3174737777777774,3491.0,0.038502195,0.03472287,0.0072260585,0.0228170815,-1.278484,-0.036817795,54575.0,28686.5,29855.0,4.0,10.5,-20.0,0,None
2023-01-03 16:43:30,406.9598,0.1060000000000002,69.0,1050.0,22593.0,4832.0,97.0,1063.9,375.5,4853.0,83.672692,3.2885156,0.0467515249999999,0.02378451,-1.2425263333333334,54.52666666666666,0.0563022966666666,0.031839365,-1.2750568333333334,0.4919968899999999,1.2552762000000002,9.504211,26.2,13.0,55.7,-14.0,-18.4,256.8,-1071.1,2.3,315.3,1016.0678,-3.3255701,3491.5,0.0563022966666666,0.0066902914999999,0.031839365,-0.003455615,-1.2750568333333334,0.0247018849999999,54525.0,28690.5,29805.0,0.0,18.5,-19.5,0,None
2023-01-03 16:43:31,407.9716666666666,0.1088888888888845,69.0,1165.0,22629.5,4903.0,97.0,1119.5555555555557,378.6666666666667,4865.333333333333,83.66928666666668,3.2925163333333334,0.0266074824999999,0.0241530449999999,-1.2369575000000002,54.535,0.0363422199999999,0.0328401725,-1.269227,0.4670914666666667,1.2636873333333334,8.279464777777777,23.05555555555556,33.388888888888886,61.44444444444444,-19.944444444444443,-22.166666666666668,260.1666666666667,-1088.5,1.3333333333333333,301.72222222222223,1016.0305,-3.362951277777778,3492.0,0.0363422199999999,-0.0407613876375,0.0328401725,0.03344496245,-1.269227,0.00477087,54525.0,28723.0,29805.0,0.5,30.0,-19.0,0,None
2023-01-03 16:43:32,408.9779,0.1020000000000038,69.0,1135.0,22577.5,4822.0,97.0,1098.9,381.8,4853.9,83.6366,3.2953234,0.0152128729999999,0.0286668706,-1.2441622,54.578,0.024989296,0.036367992,-1.2762802,0.4746324199999999,1.09495283,8.2992517,20.8,-40.4,65.6,-40.5,23.8,265.3,-1065.9,-12.5,303.5,1016.0361,-3.3574608999999995,3492.5,0.024989296,0.036577766,0.036367992,-0.0540328619999999,-1.2762802,0.0012655406,54585.0,28684.5,29865.0,23.0,19.0,-21.5,0,None
2023-01-03 16:43:33,409.95166666666665,0.1043333333333293,69.0,1054.0,22658.5,4895.0,97.0,1092.111111111111,384.77777777777777,4892.888888888889,83.55630222222221,3.295058222222222,0.028665266,0.004383533,-1.2400382,54.59000000000001,0.038389632,0.0130707475999999,-1.2716738,0.4469581888888888,1.180967322222222,7.790208777777778,24.22222222222222,12.61111111111111,60.55555555555556,-52.16666666666666,14.61111111111111,250.44444444444449,-1038.0,0.3888888888888889,314.6111111111111,1016.0446666666668,-3.3486502777777774,3493.222222222222,0.038389632,0.0215914667999999,0.0130707475999999,0.019390528,-1.2716738,-0.011801908,54590.0,28719.0,29870.0,17.5,7.5,-24.0,0,None
2023-01-03 16:43:34,410.9279,0.1021000000000014,69.0,1140.0,22573.0,4887.0,97.0,1116.6,387.6,4868.1,83.48367700000001,3.2931216999999995,0.045699518,0.020261612,-1.2445624,54.566,0.054930666,0.029069602,-1.2760614,0.49518483,1.03101488,7.3397041,27.6,16.0,52.1,-25.2,13.0,255.4,-1064.0,1.8,317.4,1016.026,-3.3676170999999995,3493.6,0.054930666,0.0064670513999999,0.029069602,0.0136717119999999,-1.2760614,0.005315946,54560.0,28685.0,29840.0,12.0,7.5,-24.0,0,None
2023-01-03 16:43:35,411.958,0.1019999999999981,69.0,1126.0,22590.5,4824.0,97.0,1148.4,391.0,4855.1,83.42455199999999,3.2917664,0.032308446,0.008530975,-1.2252982,54.58599999999999,0.041639986,0.0167902898,-1.256938,0.43966856,0.98291142,5.704138200000001,25.2,-26.6,63.0,-12.5,-16.8,253.1,-1076.8,24.2,303.6,1016.0254,-3.3681326,3494.0,0.041639986,-0.0224075282,0.0167902898,-0.0270943764,-1.256938,0.0098689767999999,54590.0,28806.0,29870.0,13.5,21.0,-23.0,0,None
2023-01-03 16:43:36,412.9659,0.0999999999999999,69.0,1116.5,22568.5,4897.5,97.0,1128.3,394.3,4868.7,83.37993599999997,3.291146200000001,0.0180287798,-0.0016130921999999,-1.2224144,54.586,0.0272099419999999,0.0073775132,-1.2540476,0.49446681,0.98034066,6.2666482,30.3,5.7,66.1,-16.5,24.6,246.3,-1063.3,3.1,308.7,1016.0453,-3.3481016,3494.9,0.0272099419999999,0.0183143222,0.0073775132,0.0072663436,-1.2540476,-0.0169871616399999,54590.0,28818.0,29870.0,7.0,10.5,-23.0,0,None
2023-01-03 16:43:37,413.92066666666665,0.1066666666666706,69.0,1165.5,22601.0,4878.0,97.0,1169.4444444444443,397.3333333333333,4874.333333333333,83.35750666666665,3.288472111111111,0.036842335,0.00808710675,-1.22682475,54.5225,0.0453827375,0.016507935,-1.25877875,0.4461352333333333,0.930933911111111,3.506664666666667,28.77777777777778,7.388888888888889,65.05555555555556,-13.555555555555555,12.333333333333334,251.77777777777777,-1070.3333333333333,8.88888888888889,321.05555555555554,1016.058888888889,-3.334561611111111,3495.222222222222,0.0453827375,0.0028004074999999,0.016507935,0.01751523125,-1.25877875,-0.0270252355,54510.0,28791.5,29790.0,4.5,7.0,-21.0,0,None
2023-01-03 16:43:38,414.9259,0.1039999999999963,69.0,1178.0,22628.5,4877.0,97.0,1164.6,400.5,4859.6,83.351988,3.2847013,0.038660424,0.0068519666,-1.2219276,54.446000000000005,0.046903752,0.015631038,-1.2536738,0.5027792699999999,0.8950273899999999,4.7520891,31.0,2.0,61.6,-10.6,-7.3,249.5,-1070.2,11.8,317.5,1016.0659,-3.3276483,3495.8,0.046903752,0.0001873769399999,0.015631038,0.0076077694,-1.2536738,0.0165492782,54430.0,28818.5,29710.0,3.0,13.0,-18.5,0,None
2023-01-03 16:43:39,415.9638,0.104000000000002,69.0,1111.5,22565.0,4824.0,97.0,1134.4,403.8,4892.0,83.36387400000001,3.2815684,0.031919156,0.009904585,-1.2213944,54.39,0.04007572,0.018080762,-1.2543296000000002,0.5011863699999999,1.08262104,5.5723257,28.6,-1.1,66.9,-36.4,16.2,251.3,-1044.4,10.8,317.0,1016.0464000000002,-3.3471093,3496.2,0.0408430775,0.03602629,0.018113505,-0.0038343132499999,-1.2544602500000002,0.00090291825,54380.0,28803.0,29660.0,3.0,10.0,-19.0,0,None
2023-01-03 16:43:40,416.954,0.1066666666666643,69.0,1135.0,22627.0,4896.5,97.0,1155.4444444444443,407.0,4862.666666666667,83.38179777777778,3.2788644444444444,0.045413588,0.0136546657999999,-1.2289268,54.366,0.053302226,0.0216087339999999,-1.261639,0.4995657666666666,0.9442089888888888,4.470195444444445,21.944444444444443,27.55555555555556,52.833333333333336,-38.11111111111112,-4.0,255.16666666666663,-1068.1666666666667,-7.777777777777778,310.94444444444446,1016.034,-3.359457277777778,3496.777777777778,0.053302226,-0.0063464816,0.0216087339999999,0.0213630099999999,-1.261639,-0.0104104939999999,54370.0,28775.5,29650.0,-1.0,12.5,-20.5,0,None
2023-01-03 16:43:41,417.9251111111111,0.1044444444444441,69.0,1114.0,22563.0,4828.5,97.0,1113.7777777777778,410.0,4879.222222222223,83.40880222222222,3.2769387777777776,0.0345233575,0.0175578025,-1.23401,54.335,0.04277599,0.025862995,-1.2662682500000002,0.5018397,1.0755876111111111,5.968865555555555,22.61111111111111,1.2777777777777777,61.44444444444444,-51.16666666666666,12.72222222222222,253.8333333333333,-1062.2777777777778,-14.666666666666666,313.44444444444446,1016.0455,-3.3480555000000005,3497.111111111112,0.04277599,0.01302341875,0.025862995,0.00305648525,-1.2662682500000002,-0.0061002298249999,54330.0,28737.0,29610.0,4.0,12.0,-22.0,0,None
2023-01-03 16:43:42,418.922,0.104000000000002,69.0,1217.5,22607.0,4887.0,97.0,1104.6,413.1,4900.9,83.431151,3.2760139,0.043814628,0.0108449127999999,-1.242787,54.28000000000001,0.051538752,0.01899634,-1.2754186,0.52365266,1.05130504,7.4453288,32.6,-7.8,52.5,-21.7,9.5,257.1,-1061.1,6.3,310.5,1016.0581,-3.3354452,3497.7,0.051538752,0.02669492182,0.01899634,-0.0051194732,-1.2754186,-0.020661492,54280.0,28698.5,29560.0,7.5,14.5,-20.0,0,None
