00000_Time_epoch,00000_Time_boot_sec,00000_Span_Time_boot_sec,1_battery_remaining_avg,1_current_battery_avg,1_voltage_battery_avg,125_Vcc_avg,147_battery_remaining_avg,147_current_battery_avg,147_current_consumed_avg,165_Vcc_avg,168_direction_avg,168_speed_avg,178_pitch_avg,178_roll_avg,178_yaw_avg,182_altitude_avg,182_pitch_avg,182_roll_avg,182_yaw_avg,241_vibration_x_avg,241_vibration_y_avg,241_vibration_z_avg,27_xacc_avg,27_xgyro_avg,27_xmag_avg,27_yacc_avg,27_ygyro_avg,27_ymag_avg,27_zacc_avg,27_zgyro_avg,27_zmag_avg,29_press_abs_avg,29_press_diff_avg,29_temperature_avg,30_pitch_avg,30_pitchspeed_avg,30_roll_avg,30_rollspeed_avg,30_yaw_avg,30_yawspeed_avg,33_alt_avg,33_hdg_avg,33_relative_alt_avg,33_vx_avg,33_vy_avg,33_vz_avg,label,diagnosis
2023-01-03 04:47:24,234.1651111111111,-0.0199999999999976,100.0,72.0,24930.5,4867.5,99.0,80.375,52.5,4867.444444444444,-142.02104444444444,0.2792714777777778,-0.0082866987499999,-0.0174051675,-1.2106555,32.13249999999999,-0.0015489145,-0.0166784775,-1.225931,0.0248060628571428,0.0251614342857142,0.0375458671428571,-20.5,-0.125,83.0,1.0,5.0,254.25,-1047.75,-1.0,341.5,1020.859875,-0.3605956999999999,2669.125,-0.0015489145,0.005247554,-0.0166784775,-3.819397500000004e-05,-1.225931,-0.001283933925,32125.0,28976.5,75.0,-3.5,11.0,26.0,0,None
2023-01-03 04:47:25,235.09711111111108,0.1046666666666643,100.0,77.5,24922.0,4869.5,99.0,81.88888888888889,53.0,4875.555555555556,-142.97556666666665,0.2507848,-0.00765777475,-0.0183488325,-1.2105055,32.2,-0.001678956,-0.0165387075,-1.225963,0.0283634044444444,0.0345383822222222,0.0654166766666666,-20.0,0.7777777777777778,83.22222222222223,0.8888888888888888,2.6666666666666665,254.44444444444449,-1064.0,1.2222222222222223,341.3333333333333,1020.865777777778,-0.3544617999999999,2670.777777777778,-0.001678956,0.00559181775,-0.0165387075,-5.829285000000004e-05,-1.225963,-0.00152721275,32205.0,28977.5,155.0,-2.0,10.0,27.5,0,None
2023-01-03 04:47:26,236.0727,0.1021000000000014,100.0,819.5,24579.5,4867.5,99.0,502.6,53.2,4868.6,-141.83832,0.29681584,-0.006853286,-0.018340478,-1.2106648,32.254000000000005,-0.0006434752,-0.016560652,-1.2260202,0.293560552,0.39096513,1.69186184,-13.6,10.6,77.9,-7.1,38.2,251.7,-1080.3,-1.9,313.1,1020.9311,-0.28941405,2672.7,-0.0006434752,0.0360137254,-0.016560652,0.002279086,-1.2260202,-0.00704331,32275.0,28973.5,225.0,-4.0,8.5,37.0,0,None
2023-01-03 04:47:27,237.0771111111111,0.1088888888888877,100.0,1700.0,24154.0,4871.0,99.0,1709.5555555555557,56.77777777777778,4871.333333333333,-141.02275555555556,0.3631167777777777,0.0154843578,0.0020050825199999,-1.2140878000000002,32.895999999999994,0.020797352,0.002687982,-1.226526,0.4644387777777778,1.1864707777777777,2.9560481111111105,-12.88888888888889,5.611111111111111,50.72222222222222,-20.05555555555556,-42.61111111111112,248.3333333333333,-1267.0555555555557,1.3888888888888888,284.1666666666667,1021.0231666666664,-0.1971310877777777,2674.722222222222,0.020797352,-0.0586836139999999,0.002687982,-0.0046207528,-1.226526,0.0062645546,33205.0,28971.0,1155.0,-11.0,29.5,209.5,0,None
2023-01-03 04:47:28,238.06,0.1068888888888908,100.0,1502.5,24172.0,4872.5,99.0,1564.3333333333333,61.44444444444444,4869.222222222223,-140.39705555555554,0.4120212444444445,-0.033466285,-0.005894383225,-1.21315075,34.995000000000005,-0.0259984475,-0.00323162125,-1.2355905,0.4310112555555556,1.232763377777778,2.206135444444444,-13.22222222222222,19.27777777777778,75.83333333333333,-17.88888888888889,3.611111111111111,263.5,-1114.0,10.944444444444445,282.05555555555554,1020.5789444444443,-0.6414322666666666,2676.777777777778,-0.0259984475,-0.0184748125,-0.00323162125,0.011718523,-1.2355905,0.01006013875,35090.0,29003.0,3040.0,-4.0,14.0,327.0,0,None
2023-01-03 04:47:29,239.0469,0.1038999999999987,100.0,1258.0,24257.0,4866.5,99.0,1281.2,65.4,4864.0,-136.36208000000002,0.42564249,-0.0056205452,0.0046739872,-1.209844,37.766000000000005,0.001684044,0.0061821143,-1.2684568,0.55012299,1.0868585,2.2441926000000003,-17.8,-54.4,72.6,-19.9,26.7,255.0,-980.8,-7.0,296.8,1020.2197,-1.00067972,2678.6,0.001684044,0.038417974,0.0061821143,-0.02715981,-1.2684568,0.004374546,37440.0,28730.5,5390.0,4.0,-3.5,333.5,0,None
2023-01-03 04:47:30,240.0869,0.1020999999999986,100.0,1178.5,24276.5,4871.5,99.0,1104.8,68.5,4862.4,-131.24527999999998,0.4324231399999999,-0.01626690516,-0.178850108,-1.2323388,40.252,-0.00736342436,-0.176154014,-1.286455,0.70518729,0.98446196,2.6180825,-3.4,-187.4,69.9,-24.2,-8.2,210.0,-952.1,-125.6,352.2,1019.9246,-1.2956952,2680.9,-0.00736342436,-0.0005016897999999,-0.176154014,-0.2098424039999999,-1.286455,-0.1036030424,40060.0,28713.0,8010.0,-39.0,-17.0,218.5,0,None
2023-01-03 04:47:31,241.1,0.1023000000000024,100.0,1296.5,24240.0,4872.5,99.0,1282.1,71.8,4862.4,-130.50888,0.43052534,-0.0532596066666666,-0.1720666333333333,-1.5620938333333332,41.71333333333333,-0.0433382099999999,-0.1741632333333333,-1.612337666666667,0.5596333,1.03305773,6.509448399999999,-6.9,56.5,8.65,-5.3,60.15,208.35,-1061.0,-360.6,360.9,1019.7179,-1.50253115,2682.8,-0.0434331116666666,0.081394105,-0.1742697,0.0606594563333333,-1.6111831666666667,-0.3608557166666666,41435.0,27206.5,9385.0,-229.0,-91.0,151.0,0,None
2023-01-03 04:47:32,242.1178,0.0999999999999999,100.0,1263.0,24175.0,4875.0,99.0,1304.3,75.6,4867.9,-133.89491999999998,0.4287603,-0.053892628,-0.1141826599999999,-1.9646754,43.244,-0.048891418,-0.1211176,-2.006656,0.48530244,1.0312806900000002,9.187453,-16.8,6.6,-103.3,18.0,21.0,208.5,-1055.4,-357.7,364.8,1019.5188,-1.7015313000000003,2684.8,-0.048891418,0.03454102422,-0.1211176,-0.0279222826,-2.006656,-0.35512844,42785.0,25152.5,10735.0,-358.0,-132.5,164.5,0,None
2023-01-03 04:47:33,243.06866666666667,0.1022222222222208,100.0,1336.5,24188.5,4876.0,99.0,1373.4444444444443,79.11111111111111,4870.222222222223,-140.28983333333335,0.4194203333333333,-0.0564655275,-0.095002465,-2.275839,44.620000000000005,-0.053689485,-0.10075396,-2.309614,0.493231411111111,1.0305962444444443,9.260796333333332,-32.111111111111114,6.555555555555555,-179.66666666666666,31.77777777777778,44.55555555555556,168.11111111111111,-1039.7777777777778,-338.77777777777777,358.3333333333333,1019.3567777777776,-1.8635417777777776,2687.0,-0.053689485,0.03447645,-0.10075396,0.01656676275,-2.309614,-0.341819525,44300.0,23165.0,12250.0,-439.0,-154.0,170.5,0,None
2023-01-03 04:47:34,244.042,0.102000000000001,100.0,1293.0,24182.0,4878.0,99.0,1296.0,82.9,4868.3,-150.77338999999998,0.39111371,-0.072723862,-0.08576563,-2.6079802,46.042,-0.070491502,-0.090513054,-2.6327226,0.56167834,1.06827947,11.592934699999995,-55.9,-23.3,-239.5,38.8,9.3,95.2,-1062.5,-362.9,361.6,1019.1417,-2.0788203,2689.0,-0.070491502,-0.0067212979999999,-0.090513054,-0.0345940079999999,-2.6327226,-0.35819052,45860.0,21148.5,13810.0,-483.5,-163.5,175.5,0,None
2023-01-03 04:47:35,245.064,0.1039999999999991,100.0,1243.5,24214.0,4864.0,99.0,1220.9,86.3,4867.6,-168.41458000000003,0.35926366,-0.0971345139999999,-0.0668168059999999,-2.8862566,47.632,-0.095536892,-0.0699343759999999,-2.902706,0.67196942,0.94055728,9.0047954,-70.2,9.4,-257.8,31.4,-7.2,24.6,-1055.3,-97.1,364.0,1018.9918999999998,-2.2284921,2691.2,-0.095536892,-0.001018224,-0.0699343759999999,0.0055008292,-2.902706,-0.1046739419999999,47450.0,19428.5,15400.0,-521.0,-160.5,174.5,0,None
2023-01-03 04:47:36,246.096,0.102000000000001,100.0,1241.0,24220.5,4877.0,99.0,1240.5,89.8,4868.6,169.29046,0.35584632,-0.0872689399999999,-0.051589578,-2.8702114,49.14,-0.082273028,-0.0542986299999999,-2.8789808,0.5774841500000001,0.99949956,10.6350211,-67.05,9.2,-260.65,33.65,33.35,20.1,-1024.45,49.75,351.15,1018.80135,-2.4189920500000004,2693.2,-0.082273028,0.0438265118,-0.0542986299999999,0.021676396,-2.8789808,0.0405631872,48965.0,19473.5,16915.0,-567.5,-169.5,178.0,0,None
2023-01-03 04:47:37,247.0864444444444,0.1066666666666643,100.0,1373.5,24145.5,4877.0,99.0,1333.888888888889,93.44444444444444,4863.111111111111,146.00113333333334,0.4002705888888889,-0.053103614,-0.052230016,-2.8398858,50.64,-0.0491336399999999,-0.053706418,-2.8432122,0.5205896666666666,0.975811922222222,10.598960222222225,-59.333333333333336,10.444444444444445,-271.6666666666667,30.0,51.66666666666666,36.66666666666666,-1047.3333333333333,27.22222222222222,340.3333333333333,1018.6408888888888,-2.579461777777778,2695.333333333333,-0.0491336399999999,0.0365110836,-0.053706418,0.0163466764,-2.8432122,0.036685004,50485.0,19692.5,18435.0,-594.0,-182.0,177.0,0,None
2023-01-03 04:47:38,248.08620000000005,0.1021000000000014,100.0,1289.0,24182.5,4876.0,99.0,1250.5,97.0,4864.4,127.54983999999996,0.48257424,-0.029554042,-0.034596574,-2.8183694,52.212,-0.0253791479999999,-0.035398098,-2.814497,0.55206826,1.01243547,10.9569328,-57.0,5.5,-279.3,34.2,11.2,45.6,-1046.0,28.3,337.0,1018.4688,-2.7516563000000005,2697.2,-0.0253791479999999,0.0157279522,-0.035398098,-0.002722122,-2.814497,0.03145054,52035.0,19858.0,19985.0,-589.0,-189.5,188.0,0,None
2023-01-03 04:47:39,249.0585555555556,0.1044444444444441,100.0,1364.5,24137.0,4872.0,99.0,1315.2222222222222,100.33333333333331,4867.0,112.14076666666666,0.5869492111111112,-0.0224505075,-0.0429642625,-2.79907975,53.6425,-0.017142655,-0.0427658925,-2.7898075,0.5216622222222221,0.9370674111111112,10.59909388888889,-57.333333333333336,4.722222222222222,-283.22222222222223,36.388888888888886,14.833333333333334,56.833333333333336,-1054.8333333333333,26.55555555555556,339.5,1018.2687777777778,-2.951688333333333,2699.333333333333,-0.017142655,0.015552371,-0.0427658925,-0.0038591355,-2.7898075,0.017908055,53620.0,20017.0,21570.0,-572.0,-197.5,185.0,0,None
2023-01-03 04:47:40,250.0354,0.1001000000000004,100.0,1365.5,24113.0,4872.5,99.0,1330.3,104.3,4867.9,98.736326,0.7291800599999999,-0.015664402,-0.035920816,-2.7808486,55.11,-0.011463691,-0.034528328,-2.7658218000000003,0.49840918,0.96694873,10.656917599999998,-48.4,5.2,-282.6,35.9,-7.0,65.0,-1059.1,18.6,335.6,1018.0971000000002,-3.12325,2701.4,-0.011463691,0.0041224932,-0.034528328,0.0120672754,-2.7658218000000003,0.0173749721999999,55255.0,20161.0,23205.0,-551.5,-200.5,190.0,0,None
2023-01-03 04:47:41,251.038,0.1019999999999981,100.0,1372.5,24093.0,4874.0,99.0,1346.4,108.0,4869.4,89.23381599999999,0.88613482,-0.016393726,-0.037758196,-2.7676146,56.678,-0.0112032474,-0.037351636,-2.7451617999999995,0.48738998,0.95689997,10.514990699999998,-53.4,-10.2,-282.6,37.9,4.0,57.5,-1054.0,22.5,320.9,1017.889,-3.331297,2703.1,-0.0112032474,0.018767513,-0.037351636,-0.010593618,-2.7451617999999995,0.025291724,56820.0,20281.0,24770.0,-530.0,-203.0,188.5,0,None
2023-01-03 04:47:42,252.054,0.0999999999999999,100.0,1218.0,24152.0,4875.5,99.0,1289.1,111.7,4867.3,82.626438,1.05183158,-0.027999818,-0.0355216279999999,-2.7651814,58.3425,-0.0215485399999999,-0.0369180125,-2.736645,0.50322232,0.97692504,10.2660708,-53.2,8.7,-275.4,25.8,7.8,74.8,-1031.2,-8.2,331.9,1017.7023,-3.5182655000000005,2705.2,-0.021441486,0.0025516679999999,-0.0356798199999999,0.00306294,-2.7366214,-0.019877504,58495.0,20314.5,26445.0,-514.5,-201.5,193.5,0,None
2023-01-03 04:47:43,253.054,0.0999999999999999,100.0,947.5,24273.5,4882.5,99.0,1025.0,115.0,4874.0,78.30268399999999,1.213927,-0.0018205969999999,-0.032445992,-2.7716428,59.95,0.004501838,-0.033784876,-2.7389256000000004,0.66493586,1.10433577,9.9548114,-35.7,15.8,-282.6,24.2,-9.7,74.0,-950.7,22.0,333.6,1017.5348,-3.6855311,2706.9,0.004501838,-0.00695018,-0.033784876,0.0159306084,-2.7389256000000004,0.0104195536,60080.0,20311.0,28030.0,-491.0,-200.0,162.0,0,None
2023-01-03 04:47:44,254.054,0.0999999999999999,100.0,1097.5,24204.5,4877.0,99.0,1032.3,117.6,4873.6,75.41356599999999,1.3634647999999998,-0.047769618,-0.0143374934,-2.751079,60.92999999999999,-0.04081399,-0.015152602,-2.7138934,0.8048147800000001,1.2721879,10.387729,-51.3,6.2,-261.7,53.2,23.4,84.8,-929.5,32.4,347.6,1017.3862,-3.8341015,2708.8,-0.04081399,-0.0179883757999999,-0.015152602,-0.0114638361999999,-2.7138934,0.01959983822,60985.0,20466.0,28935.0,-479.0,-216.0,76.0,0,None
2023-01-03 04:47:45,255.054,0.0999999999999999,100.0,1062.5,24228.0,4880.5,99.0,1031.5,120.6,4873.7,73.325396,1.4942106,-0.038578676,-0.03170313,-2.7416568000000003,61.35,-0.033920186,-0.032731994,-2.7004708,0.7586922700000001,1.2023389000000002,12.691538,-51.4,-21.3,-265.0,25.6,5.2,80.7,-1041.3,-14.8,340.9,1017.3339999999998,-3.8863514,2710.8,-0.033920186,0.0139399416,-0.032731994,-0.0295252806,-2.7004708,2.5600400000000064e-05,61380.0,20522.0,29330.0,-484.0,-239.5,45.0,0,None
2023-01-03 04:47:46,256.054,0.1000000000000028,100.0,897.5,24280.5,4878.5,99.0,970.5,123.3,4876.0,71.926492,1.6087790000000002,-0.036225678,-0.040496402,-2.7644216,61.516,-0.032260334,-0.04139659,-2.7195057999999994,0.81700435,1.2644017,14.769622000000002,-59.0,8.9,-263.3,19.4,-0.1,68.1,-1047.2,-14.9,336.1,1017.4117,-3.8085234,2712.5,-0.032260334,0.041379238,-0.04139659,0.0039280761999999,-2.7195057999999994,-0.0050119368,61520.0,20408.5,29470.0,-488.0,-232.0,36.0,0,None
2023-01-03 04:47:47,257.058,0.1019999999999981,100.0,1047.5,24242.0,4875.0,99.0,1014.0,126.0,4870.0,71.003634,1.7130166,-0.0582039479999999,-0.03060257,-2.770661,61.46999999999999,-0.052623762,-0.032142558,-2.7222998,0.8316073100000001,1.2894513999999997,14.556889000000002,-56.1,12.2,-258.9,-1.3,-17.3,74.7,-1071.9,17.1,337.6,1017.4329,-3.7873672,2714.7,-0.052623762,-0.03681152342,-0.032142558,-0.0019156879999999,-2.7222998,0.0082804012,61465.0,20410.5,29415.0,-498.0,-223.0,46.0,0,None
2023-01-03 04:47:48,258.078,0.1019999999999981,100.0,1007.5,24237.0,4858.5,99.0,1008.6,129.0,4865.7,70.377692,1.8052488000000004,-0.05936109442,0.0078284947999999,-2.7390544,61.508,-0.0532735633999999,0.0050225772,-2.6879384,0.83710755,1.2501524000000002,13.680454999999998,-72.5,169.5,-255.1,-4.5,117.4,95.2,-1019.3,89.7,354.4,1017.364,-3.8563202,2716.5,-0.0532735633999999,0.096419072,0.0050225772,0.1297710964,-2.6879384,0.086494648,61520.0,20621.0,29470.0,-509.5,-242.0,44.0,0,None
2023-01-03 04:47:49,259.06411111111106,0.1044444444444441,100.0,1137.0,24147.5,4871.0,99.0,1076.7777777777778,131.77777777777777,4868.555555555556,70.08561777777777,1.878302777777778,0.037879056,0.24223528,-2.4970954,61.582,0.0394266339999999,0.2381549399999999,-2.4450036,0.6981958777777778,1.659609,13.644176666666668,-68.22222222222223,124.55555555555556,-258.8888888888889,-16.5,108.5,216.0,-1077.111111111111,290.27777777777777,267.5,1017.4036111111112,-3.816766388888889,2718.111111111112,0.0394266339999999,0.066291436,0.2381549399999999,0.150140474,-2.4450036,0.31858888,61580.0,22184.5,29530.0,-365.5,-352.5,41.0,0,None
2023-01-03 04:47:50,260.07733333333334,0.117777777777778,100.0,1083.5,24162.5,4871.5,99.0,1096.2222222222222,134.88888888888889,4866.333333333333,69.99705,1.9323531111111112,0.088424464,0.0321857762,-2.3598694,61.628,0.085822578,0.035955668,-2.3016736,0.6029133666666667,1.0175959555555556,10.46768377777778,-31.55555555555556,-370.8888888888889,-235.66666666666663,-7.611111111111111,22.944444444444443,197.8333333333333,-1040.6666666666667,-22.11111111111111,281.1111111111111,1017.3206111111112,-3.899891388888889,2719.8888888888887,0.085022106,0.007710788,0.038174488,-0.391450466,-2.301563,-0.0277701723999999,61635.0,22813.5,29585.0,-158.5,-411.0,40.0,0,None
2023-01-03 04:47:51,261.0664444444444,0.1067777777777791,100.0,1151.5,24124.0,4877.0,99.0,1145.0,137.77777777777777,4869.888888888889,69.97072444444444,1.9681217777777773,0.0909165,-0.086133024,-2.3708674,61.728,0.09533479,-0.07402413,-2.3043328,0.5807442333333334,0.9486597333333332,8.373558666666668,-22.83333333333333,43.388888888888886,-236.16666666666663,-4.055555555555555,27.27777777777778,160.66666666666666,-1053.111111111111,0.2222222222222222,325.94444444444446,1017.3075,-3.912673611111111,2721.5,0.09533479,0.045313562,-0.07402413,0.067283528,-2.3043328,0.0071951994,61730.0,22798.0,29680.0,-134.0,-277.5,26.0,0,None
2023-01-03 04:47:52,262.08188888888884,0.1176666666666695,100.0,1214.5,24121.5,4880.0,99.0,1201.7777777777778,141.22222222222223,4872.777777777777,70.06438666666668,2.005241111111112,0.12890926,-0.079669964,-2.3650766,61.738,0.13736858,-0.069785178,-2.2920734000000005,0.4586878666666666,1.0122147333333331,8.982739222222222,0.0,-18.944444444444443,-250.0,-7.444444444444445,66.66666666666667,164.44444444444446,-1055.6666666666667,22.61111111111111,307.5,1017.3081666666668,-3.912122388888889,2723.611111111112,0.13736858,0.0458244644,-0.069785178,-0.020419392,-2.2920734000000005,0.0159842578,61740.0,22872.0,29690.0,-99.5,-142.5,24.5,1,27_xacc_avg_constant_0
2023-01-03 04:47:53,263.1106666666667,0.1088888888888845,100.0,1054.5,24174.5,4875.5,99.0,1108.888888888889,144.66666666666666,4872.111111111111,70.17834777777777,2.042336,0.12926665,-0.0849063575,-2.3606915,61.8,0.14063735,-0.0752800225,-2.28277825,0.5820221000000001,0.9400087444444444,7.109052999999999,0.0,21.11111111111111,-251.88888888888889,7.5,-37.333333333333336,162.72222222222223,-1038.888888888889,5.0,308.3333333333333,1017.2773888888888,-3.942842833333333,2725.333333333333,0.14063735,-0.0630956,-0.0752800225,0.019863414,-2.28277825,0.0094441825999999,61815.0,22937.5,29765.0,-69.5,3.5,24.0,1,27_xacc_avg_constant_0
2023-01-03 04:47:54,264.08177777777775,0.1066666666666706,100.0,1013.5,24202.0,4874.0,99.0,1034.5555555555557,147.55555555555554,4871.111111111111,70.23480555555557,2.0848816666666665,0.0809217919999999,-0.014244246,-2.3475058,61.848,0.095302588,-0.0082687984,-2.2667458,0.7909238666666667,1.1575590666666669,7.887527333333334,0.0,73.05555555555556,-235.44444444444449,15.166666666666666,-29.444444444444443,191.38888888888889,-1087.9444444444443,8.833333333333334,317.0,1017.2856666666668,-3.934761277777777,2726.777777777778,0.0951447679999999,-0.022906244,-0.0089076443999999,0.082118754,-2.2669152,0.004077098,61860.0,23023.0,29810.0,-56.0,58.0,18.0,1,27_xacc_avg_constant_0
2023-01-03 04:47:55,265.05966666666666,0.111111111111111,100.0,1026.0,24207.0,4875.0,99.0,1028.111111111111,150.22222222222223,4873.111111111111,70.19727444444446,2.1343958888888888,0.0784206899999999,0.0112596394,-2.3567276,61.826,0.090391766,0.0140607454,-2.273087,0.7702686999999999,1.3754308888888886,10.343646666666666,0.0,-9.166666666666666,-230.22222222222223,1.2222222222222223,-4.944444444444445,198.8333333333333,-996.6111111111112,2.888888888888889,299.0,1017.2946666666668,-3.925616111111111,2728.6666666666665,0.090391766,-0.0235847534,0.0140607454,-0.02112569854,-2.273087,-0.0230109908,61830.0,22993.5,29780.0,-23.5,65.0,18.5,1,27_xacc_avg_constant_0
2023-01-03 04:47:56,266.0741,0.1060000000000001,100.0,1079.5,24163.5,4867.5,99.0,1022.3,153.1,4875.1,70.070826,2.1804605999999995,0.048601652,-0.0115654142,-2.3636742,61.82000000000001,0.059160676,-0.00848796582,-2.2771626,0.7148710300000001,1.2686372999999995,10.9399793,0.0,-33.0,-226.7,15.0,-60.7,185.9,-1131.2,-1.0,318.2,1017.2919,-3.9284998,2730.4,0.059160676,-0.0281700046,-0.00848796582,-0.0264007506,-2.2771626,0.0028232394,61825.0,22948.5,29775.0,21.0,71.0,20.5,1,27_xacc_avg_constant_0
2023-01-03 04:47:57,267.082,0.1067777777777728,100.0,1079.0,24157.5,4863.5,99.0,1025.888888888889,156.0,4876.888888888889,69.9277188888889,2.223100777777778,0.0271166125,-0.02289911,-2.36077975,61.8375,0.0386783574999999,-0.0199719,-2.27283475,0.6974159111111111,1.3856835555555551,9.54873222222222,0.0,0.4444444444444444,-212.77777777777777,8.333333333333334,-11.0,183.5,-1054.5555555555557,-4.555555555555555,323.05555555555554,1017.2738888888888,-3.946423555555556,2731.777777777778,0.0386783574999999,0.0071636975,-0.0199719,0.0368123125,-2.27283475,-0.0156475925,61835.0,22980.0,29785.0,25.0,65.5,16.5,1,27_xacc_avg_constant_0
2023-01-03 04:47:58,268.0987,0.1020000000000038,100.0,1065.0,24183.5,4878.5,99.0,1009.8,158.9,4874.2,69.857228,2.2613042000000005,0.0175234124,0.00671798207,-2.3744608,61.862,0.0283241299999999,0.00774131958,-2.2861352,0.7761205199999999,1.3004511,9.255060599999998,0.0,5.9,-208.9,-17.8,-10.6,196.5,-991.2,5.5,326.0,1017.2679,-3.9525782,2733.5,0.0283241299999999,0.0033338701999999,0.00774131958,0.0160569806,-2.2861352,-0.029213064,61860.0,22915.0,29810.0,15.0,44.5,18.0,1,27_xacc_avg_constant_0
2023-01-03 04:47:59,269.1093333333334,0.1088888888888845,100.0,1041.0,24201.0,4879.0,98.55555555555556,1075.888888888889,161.77777777777777,4873.777777777777,69.81734555555555,2.292999777777778,0.0440182026,-0.0106667044,-2.3710478000000004,61.84599999999999,0.0532725919999999,-0.0095144372,-2.2802300000000004,0.7905128777777777,1.562035111111111,10.390808333333332,0.0,-6.5,-217.0555555555556,-4.777777777777778,87.55555555555556,187.0,-1047.0,-3.1666666666666665,310.94444444444446,1017.2592777777778,-3.961032944444444,2735.111111111112,0.0534732839999999,0.0643262362,-0.0093244844,-0.0034779768,-2.2802606,0.003600151,61845.0,22936.5,29795.0,12.5,8.0,13.0,1,27_xacc_avg_constant_0
2023-01-03 04:48:00,270.0957777777778,0.1132222222222228,100.0,1061.5,24188.0,4870.0,98.0,1040.888888888889,164.77777777777777,4869.888888888889,69.75789,2.313454333333333,0.0554928375,-0.021528685,-2.3768385,61.8575,0.06387653,-0.01951776,-2.2846375,0.6732521,1.5317120000000002,10.868172,0.0,-25.83333333333333,-226.5555555555556,11.38888888888889,-37.5,184.0555555555556,-1051.0555555555557,12.944444444444445,318.3333333333333,1017.2591111111112,-3.961479666666667,2737.0,0.063717155,-0.0116165105,-0.0196562,-0.01908749,-2.28477075,-0.010354,61855.0,22912.0,29805.0,27.0,9.0,18.0,1,27_xacc_avg_constant_0
2023-01-03 04:48:01,271.0715555555555,0.1045555555555589,100.0,1023.0,24169.0,4863.0,98.0,1049.7777777777778,167.55555555555554,4872.222222222223,69.65269222222221,2.3376836666666665,0.039513524,-0.037172202,-2.378867,61.85,0.049122214,-0.034316772,-2.2854958,0.7154717111111112,1.389945777777778,10.968635444444445,0.0,-9.38888888888889,-221.88888888888889,12.166666666666666,1.7222222222222223,175.33333333333334,-1027.2777777777778,-20.5,323.94444444444446,1017.2645555555556,-3.955816,2738.4444444444443,0.049122214,0.024935162,-0.034316772,-0.0153850304,-2.2854958,0.0064293648499999,61850.0,22906.0,29800.0,22.0,13.0,18.0,1,27_xacc_avg_constant_0
2023-01-03 04:48:02,272.09869999999995,0.1079999999999983,100.0,1044.5,24163.5,4859.5,98.0,1066.9,170.5,4871.8,69.64903199999999,2.3683226,0.03682638,-0.040490472,-2.3812850000000005,61.864,0.046295322,-0.037487414,-2.2869212,0.66477746,1.2907829,9.4766507,0.0,-0.2,-219.0,23.1,-9.8,176.9,-1076.8,-3.7,326.1,1017.2242,-3.996125,2739.8,0.046295322,-0.0121048651999999,-0.037487414,0.0022110335999999,-2.2869212,-0.0136035687999999,61870.0,22894.5,29820.0,11.0,20.0,15.5,1,27_xacc_avg_constant_0
2023-01-03 04:48:03,273.1246666666667,0.1133333333333313,100.0,1085.0,24155.0,4874.0,98.0,1081.5555555555557,173.55555555555554,4876.444444444444,69.78988222222223,2.4010942222222225,0.0354694059999999,-0.033996256,-2.3835788,61.88,0.0451639799999999,-0.031336256,-2.2880362,0.6506163555555555,1.237994111111111,9.397078111111112,0.0,9.666666666666666,-220.66666666666663,-4.222222222222222,17.166666666666668,176.38888888888889,-1006.4444444444443,1.7777777777777777,320.05555555555554,1017.237222222222,-3.983181444444445,2741.611111111112,0.0451639799999999,0.0189822363999999,-0.031336256,0.0032526009999999,-2.2880362,-0.0029108624,61875.0,22891.5,29825.0,-0.5,17.5,13.0,1,27_xacc_avg_constant_0
2023-01-03 04:48:04,274.1382222222222,0.1066666666666706,100.0,1076.0,24128.0,4879.5,98.0,1070.4444444444443,176.66666666666666,4873.333333333333,70.02535777777777,2.432065333333334,0.04259489,-0.0257141225,-2.386099,61.86749999999999,0.05199491,-0.0233001125,-2.289921,0.6625595444444445,1.1991518888888888,9.297503111111112,0.0,3.0,-223.11111111111111,11.88888888888889,30.33333333333333,180.5555555555556,-991.4444444444443,-11.0,323.55555555555554,1017.2511111111112,-3.9691752222222223,2743.0,0.0520244,0.0351862775,-0.02325115,0.0008848724999999,-2.28982675,-0.0082586854,61865.0,22873.5,29815.0,-2.5,15.0,16.5,1,27_xacc_avg_constant_0
2023-01-03 04:48:05,275.1065,0.0998999999999966,100.0,1065.0,24149.0,4878.0,98.0,1051.5,179.4,4875.1,70.25998000000001,2.4602848000000006,0.03921544,-0.025438824,-2.389212,61.858,0.0482917739999999,-0.023217104,-2.2924508,0.64101312,1.3973739,10.3964469,0.0,-5.2,-225.5,27.9,-25.1,182.7,-1118.1,1.9,322.2,1017.2588,-3.961390599999999,2744.7,0.0482917739999999,-0.03208843,-0.023217104,-0.0063867724,-2.2924508,0.0014263646,61865.0,22856.5,29815.0,-2.0,14.0,17.0,1,27_xacc_avg_constant_0
2023-01-03 04:48:06,276.1028,0.1001000000000032,100.0,1069.0,24160.5,4865.5,98.0,1046.3,182.3,4870.5,70.48865000000002,2.48942,0.0436517139999999,-0.023351906,-2.3920808,61.836,0.053097974,-0.021057354,-2.2945948,0.72799052,1.3109468,11.0714574,37.2,-2.0,-224.0,19.9,22.3,177.0,-1044.6,9.9,318.8,1017.3003,-3.9201015,2746.2,0.053097974,0.038472906,-0.021057354,-0.0013847242,-2.2945948,0.0075946082,61815.0,22864.5,29765.0,-1.5,10.5,21.5,0,None
2023-01-03 04:48:07,277.1050000000001,0.1019999999999981,100.0,1058.0,24180.5,4880.5,98.0,1027.9,185.3,4874.8,70.68492799999999,2.5177062,0.0498109416666666,-0.0203431433333333,-2.391796,61.76833333333334,0.0590602983333333,-0.0178164439999999,-2.293431333333333,0.7230271800000001,1.4629347999999998,10.7881522,37.9,8.3,-223.6,11.65,6.75,179.35,-1061.65,-4.55,316.7,1017.3068,-3.9134843,2747.8,0.0590602983333333,0.019738715,-0.0178164439999999,0.0062496061666666,-2.293431333333333,-0.000468609,61760.0,22847.0,29710.0,1.5,15.5,27.0,0,None
2023-01-03 04:48:08,278.115,0.0999999999999999,100.0,1035.0,24167.0,4876.0,98.0,1036.5,188.1,4872.6,70.819852,2.5465127999999995,0.054739446,-0.013194158,-2.3977152,61.748000000000005,0.0642161119999999,-0.0108805006,-2.2989282,0.69353346,1.5075451999999998,11.197853,39.7,-4.7,-231.6,3.3,2.2,182.0,-1017.6,16.4,318.4,1017.3039,-3.9162263999999993,2749.5,0.0642161119999999,0.01030642,-0.0108805006,-0.000837815,-2.2989282,0.0131337899999999,61745.0,22828.5,29695.0,11.0,15.0,26.5,0,None
2023-01-03 04:48:09,279.115,0.0999999999999999,100.0,1073.0,24160.0,4869.5,98.0,1048.1,191.0,4871.0,70.851164,2.5760804,0.050392974,-0.016866974,-2.3990404,61.738,0.060731378,-0.0152284719999999,-2.3003726,0.6834814,1.4394364000000002,9.9219583,42.1,-10.4,-230.8,27.0,7.0,182.1,-1066.7,-6.3,311.6,1017.2958999999998,-3.9246249,2750.9,0.060731378,0.0128800079999999,-0.0152284719999999,-0.012071899,-2.3003726,-0.005106119,61740.0,22813.5,29690.0,21.0,13.0,27.5,0,None
2023-01-03 04:48:10,280.1170000000001,0.0999999999999999,100.0,1038.0,24140.5,4863.0,98.0,1067.3,193.9,4871.3,70.800754,2.6051752,0.038608214,-0.0293306699999999,-2.4001274,61.758,0.049090888,-0.0273171459999999,-2.3013596,0.6740751999999999,1.3130475999999998,8.9614448,37.5,-5.0,-227.5,19.5,-18.6,180.3,-1050.5,15.0,322.4,1017.3057,-3.9146952,2752.3,0.049090888,-0.0175093557999999,-0.0273171459999999,0.0035591721,-2.3013596,0.01655198,61760.0,22814.0,29710.0,20.0,12.0,28.5,0,None
2023-01-03 04:48:11,281.123,0.1019999999999981,100.0,1061.5,24149.0,4864.5,98.0,1047.0,197.0,4868.2,70.76244,2.6338096,0.034476776,-0.026126318,-2.3965928,61.75,0.045786218,-0.025328218,-2.2978426,0.67384564,1.3532177000000003,9.4916438,30.9,10.6,-221.0,5.8,18.3,173.9,-1047.0,-11.5,328.5,1017.3093,-3.9113201,2754.0,0.045786218,0.00382893242,-0.025328218,-6.864839999999993e-05,-2.2978426,-0.0174235642,61740.0,22837.0,29690.0,11.5,8.5,27.5,0,None
2023-01-03 04:48:12,282.139,0.0999999999999999,100.0,964.5,24173.5,4877.5,98.0,1007.4,200.0,4878.0,70.788792,2.6614772,0.041439906,-0.0253758539999999,-2.3967816,61.762,0.052208404,-0.025199478,-2.297806,0.79465656,1.3923767,12.014205999999998,35.3,-3.2,-220.1,3.5,50.6,178.5,-979.4,-0.8,323.3,1017.2889,-3.9314454,2755.4,0.052208404,0.0050248616,-0.025199478,-0.007029472,-2.297806,-0.0234914884,61765.0,22840.5,29715.0,7.0,5.0,26.5,0,None
2023-01-03 04:48:13,283.0961111111112,0.1022222222222239,100.0,1086.5,24124.5,4879.0,98.0,1042.0,202.77777777777777,4875.222222222223,70.84577999999999,2.686018555555556,0.0473252425,-0.0350567299999999,-2.39791975,61.765,0.0576487725,-0.0344970175,-2.2979315,0.7281263222222222,1.4463296666666667,10.631692333333332,32.888888888888886,-1.8888888888888888,-227.3333333333333,30.55555555555556,10.77777777777778,173.11111111111111,-1064.5555555555557,-5.444444444444445,326.1111111111111,1017.2867777777778,-3.933472,2756.6666666666665,0.0576487725,-0.031840225,-0.0344970175,0.00036714,-2.2979315,-0.0286163724999999,61770.0,22842.0,29720.0,10.0,10.0,28.0,0,None
2023-01-03 04:48:14,284.063,0.1019999999999981,100.0,1029.0,24157.0,4878.0,98.0,1007.2,205.4,4880.7,70.92927999999999,2.711429,0.03935837,-0.032526314,-2.3971122,61.776,0.050363676,-0.031662994,-2.2972424,0.8011475100000001,1.4733402999999998,11.2565858,31.6,7.8,-225.9,33.2,6.5,177.0,-1115.5,6.9,324.0,1017.2766999999998,-3.9437967,2757.9,0.050363676,0.0197103162,-0.031662994,0.0117705846,-2.2972424,-0.0089920006,61776.66666666666,22838.0,29726.666666666668,3.6666666666666665,15.0,24.666666666666668,0,None
2023-01-03 04:48:15,285.083,0.1020000000000038,100.0,1002.0,24158.0,4878.0,98.0,1012.6,208.2,4873.4,71.05040399999999,2.7361118000000006,0.03891172,-0.021348802,-2.397521,61.786,0.049855826,-0.021060504,-2.2981776,0.76116376,1.4728098,10.9950777,25.2,13.1,-226.4,-12.6,-0.8,183.3,-1057.5,-18.9,330.0,1017.3037,-3.9168516,2759.5,0.05037598,0.0089662226,-0.020908218,-7.210340000000023e-05,-2.2981422,0.0079984822,61785.0,22815.5,29735.0,0.5,18.5,24.0,0,None
2023-01-03 04:48:16,286.103,0.1019999999999981,100.0,1040.0,24155.5,4881.0,98.0,1051.7,211.1,4875.0,71.166022,2.7584132,0.0354418299999999,-0.0128402602,-2.4031916,61.762,0.046129336,-0.0128367573999999,-2.3046440000000006,0.7226248399999999,1.5014887,10.9512081,30.5,7.9,-225.15,-4.65,14.85,183.6,-1045.0,1.65,322.6,1017.31095,-3.909519500000001,2761.3,0.046129336,-0.0003441133999999,-0.0128367573999999,0.0005593322,-2.3046440000000006,-0.00624757592,61750.0,22798.0,29700.0,0.5,16.0,28.0,0,None
2023-01-03 04:48:17,287.13700000000006,0.1019999999999981,100.0,1058.5,24143.5,4878.0,98.0,1035.6,214.3,4877.7,71.23715299999998,2.7783478,0.041595802,-0.00742272394,-2.401378,61.726,0.052247934,-0.00709158722,-2.3032224,0.7400796300000001,1.4769235000000005,10.2303095,29.4,-8.8,-228.7,25.6,12.0,189.3,-1059.0,11.5,321.6,1017.3102,-3.9101093,2762.7,0.052247934,0.0219917179999999,-0.00709158722,-0.0058537926,-2.3032224,-0.0077217689999999,61725.0,22811.0,29675.0,8.0,7.5,29.0,0,None
2023-01-03 04:48:18,288.139,0.0999999999999999,100.0,1073.0,24124.5,4879.0,98.0,1052.0,217.2,4877.2,71.2322,2.7961699,0.04413892,-0.017693152,-2.3986074,61.734,0.054561594,-0.017020316,-2.3014902,0.6678176300000002,1.4206957,9.7720891,31.5,-8.9,-227.4,4.8,-2.8,181.9,-1046.1,-7.7,320.0,1017.3109,-3.9094452,2764.3,0.054561594,-0.0096459069999999,-0.017020316,-0.0140965936,-2.3014902,-0.0009941925999999,61735.0,22811.0,29685.0,14.5,7.5,28.5,0,None
2023-01-03 04:48:19,289.139,0.0999999999999999,100.0,1035.5,24128.5,4873.0,98.0,1069.2,220.1,4879.0,71.188106,2.8132727,0.03949088,-0.019945602,-2.4023776000000003,61.74000000000001,0.049907366,-0.0192739959999999,-2.3053522,0.6430681,1.3079232000000005,8.5942507,29.0,7.7,-227.2,-10.3,-0.6,180.4,-1036.3,-15.6,325.6,1017.2991000000002,-3.921273400000001,2765.7,0.049907366,-0.0100113625999999,-0.0192739959999999,0.011515685,-2.3053522,0.0039217544,61740.0,22784.0,29690.0,15.5,8.5,27.0,0,None
2023-01-03 04:48:20,290.105,0.1022222222222239,100.0,1026.5,24142.5,4870.0,98.0,1057.6666666666667,223.0,4875.777777777777,71.14510555555555,2.829910444444444,0.03034253,-0.0246466599999999,-2.4002919999999994,61.754,0.041183244,-0.023979842,-2.303996,0.6549242444444445,1.412800333333333,10.004264555555554,24.33333333333333,-7.222222222222222,-224.3333333333333,7.555555555555555,16.22222222222222,183.11111111111111,-1067.6666666666667,14.444444444444445,326.6666666666667,1017.311111111111,-3.90934,2767.0,0.041183244,0.023167694,-0.023979842,-0.00818537,-2.303996,0.0026185759999999,61750.0,22802.0,29700.0,10.0,6.0,31.0,0,None
2023-01-03 04:48:21,291.055,0.0999999999999999,100.0,1109.0,24089.5,4872.5,98.0,1079.7,225.8,4865.7,71.134564,2.8438664,0.0444898419999999,-0.02027442,-2.3981636,61.75,0.0551389319999999,-0.0196798419999999,-2.3024400000000003,0.6663381800000001,1.3382913999999997,8.9454677,38.4,15.9,-225.5,-5.0,8.0,179.1,-1029.4,-12.2,325.2,1017.3045999999998,-3.9158514,2768.3,0.0551389319999999,-0.0014070799999999,-0.0196798419999999,0.00751838204,-2.3024400000000003,-0.0078673221999999,61750.0,22819.5,29700.0,6.0,8.0,26.5,0,None
2023-01-03 04:48:22,292.055,0.0999999999999999,100.0,1104.0,24100.0,4875.5,98.0,1092.5,228.8,4872.9,71.13632399999997,2.858186800000001,0.0395831579999999,-0.015095964,-2.4076378,61.75599999999999,0.050240566,-0.0150437439999999,-2.3115840000000003,0.6477427199999999,1.2431975,7.746896500000001,32.7,-4.0,-223.9,-0.5,7.3,171.5,-1054.2,-14.3,325.1,1017.3005,-3.9198749,2769.8,0.050240566,0.0120098717999999,-0.0150437439999999,0.000250836,-2.3115840000000003,-0.0006812279999999,61750.0,22766.5,29700.0,6.0,9.0,25.5,0,None
2023-01-03 04:48:23,293.063,0.1019999999999981,100.0,1088.0,24096.0,4871.5,98.0,1078.3,231.8,4877.2,71.123386,2.8720914,0.03769407,-0.018252392,-2.4126264,61.766000000000005,0.04813226,-0.018192614,-2.3174022,0.61758319,1.2058895200000002,7.7993205,44.9,-13.5,-225.3,15.0,-5.6,178.2,-1043.1,19.0,318.4,1017.2934,-3.9269532000000007,2771.4,0.04813226,0.0370112366,-0.018192614,-0.0022339992,-2.3174022,-0.0014351645999999,61760.0,22723.0,29710.0,6.5,6.5,27.0,0,None
2023-01-03 04:48:24,294.0930000000001,0.1020000000000038,100.0,1117.5,24099.0,4880.5,98.0,1104.6,234.8,4873.8,71.096728,2.8845704000000003,0.0526099679999999,-0.0212838419999999,-2.408081,61.76800000000001,0.063369134,-0.02121259,-2.3134264,0.6754795999999998,1.3924027999999995,8.8173516,44.0,5.7,-228.6,-14.4,24.7,171.7,-1059.6,-9.0,316.3,1017.2731,-3.9472421,2772.8,0.063369134,-1.963259999999828e-05,-0.02121259,0.0026840836,-2.3134264,-0.020683864,61765.0,22752.5,29715.0,1.0,0.0,25.5,0,None
2023-01-03 04:48:25,295.095,0.0999999999999999,100.0,1005.0,24140.0,4881.5,98.0,1048.1,237.9,4874.4,71.058322,2.8970210000000005,0.067205668,-0.030124258,-2.4044946,61.804,0.0771957279999999,-0.0297721879999999,-2.3107222,0.6796399,1.3405748000000002,8.6556654,43.8,-7.7,-236.0,-9.2,-18.0,176.9,-1066.1,-18.2,316.2,1017.2876,-3.9326874,2774.5,0.0771957279999999,-0.0285959619999999,-0.0297721879999999,-0.01074168198,-2.3107222,-0.01930301992,61795.0,22752.5,29745.0,5.0,1.0,27.0,0,None
2023-01-03 04:48:26,296.095,0.0999999999999999,100.0,1101.0,24093.0,4873.0,98.0,1082.5,240.8,4870.8,71.007846,2.9144746,0.06001493,-0.02211847,-2.4071886,61.79600000000001,0.070758452,-0.02197773,-2.3140506,0.6657257299999999,1.295736,7.303103099999999,44.4,14.0,-235.9,7.6,-3.5,176.5,-1032.2,-24.4,317.1,1017.3003,-3.9200937,2775.6,0.070758452,-0.0183062764,-0.02197773,0.0038961166599999,-2.3140506,-0.0216094886,61800.0,22746.0,29750.0,8.5,13.5,19.5,0,None
2023-01-03 04:48:27,297.095,0.0999999999999999,100.0,1072.0,24117.5,4872.0,98.0,1057.7,243.8,4874.8,70.95054,2.9353688,0.050417548,-0.0243928019999999,-2.4018488,61.76800000000001,0.061701762,-0.024048016,-2.3093544,0.69484268,1.4261405000000005,9.2376081,48.7,-5.4,-232.9,17.0,25.6,178.2,-1044.0,1.6,316.1,1017.3079,-3.9124296,2776.9,0.061701762,0.03344030774,-0.024048016,-0.01079173386,-2.3093544,0.0033145154,61775.0,22758.0,29725.0,10.5,14.5,23.5,0,None
2023-01-03 04:48:28,298.095,0.0999999999999999,100.0,1050.0,24117.5,4867.5,98.0,1063.0,246.7,4869.4,70.893982,2.95677,0.059594798,-0.022946464,-2.404501,61.752,0.07027092,-0.022330592,-2.3131968,0.69498292,1.2955046000000003,8.146440199999999,57.1,-5.5,-234.8,28.2,-7.3,175.8,-1083.7,9.7,319.5,1017.2962999999996,-3.9242263,2778.5,0.07027092,-0.0081608096,-0.022330592,-0.00521808494,-2.3131968,0.010356853,61750.0,22747.5,29700.0,10.5,12.5,30.0,0,None
2023-01-03 04:48:29,299.095,0.0999999999999999,100.0,1079.0,24076.5,4868.0,98.0,1050.9,249.6,4854.3,70.835154,2.9790138,0.0535044679999999,-0.03215932,-2.3945118,61.76800000000001,0.06439965,-0.031481188,-2.3038098,0.71702315,1.4911586,9.8353366,46.4,-12.3,-234.9,22.2,4.4,177.6,-1057.0,22.6,312.3,1017.3069000000002,-3.9133983,2779.7,0.06439965,0.0125310376,-0.031481188,-0.0211672852,-2.3038098,0.0236821649999999,61770.0,22792.0,29720.0,13.5,12.0,25.5,0,None
2023-01-03 04:48:30,300.095,0.0999999999999999,100.0,1002.5,24126.0,4869.0,98.0,1017.8,252.6,4872.2,70.78640599999999,3.0018956,0.0540662659999999,-0.025205664,-2.392776,61.766,0.065392344,-0.024345394,-2.3028238,0.7541943699999999,1.3900149000000002,9.8318483,37.5,12.2,-229.0,-2.0,1.4,176.4,-1075.9,-6.9,314.4,1017.2957,-3.9246327,2781.3,0.065392344,0.0021959532,-0.024345394,0.0203848288,-2.3028238,-0.00728879926,61765.0,22799.5,29715.0,7.0,13.0,26.5,0,None
2023-01-03 04:48:31,301.095,0.0999999999999999,100.0,1076.0,24090.0,4868.0,98.0,1031.7,255.3,4870.9,70.75389600000001,3.0247798,0.0590258399999999,-0.021220916,-2.3881928,61.754,0.070337536,-0.021013134,-2.2984958000000004,0.79670178,1.5642008,11.3578457,44.0,-8.3,-229.2,25.7,10.4,174.8,-1063.6,1.5,318.0,1017.3056,-3.9147969,2782.6,0.070337536,0.0182684464,-0.021013134,-0.0215929404,-2.2984958000000004,0.0028302678,61760.0,22828.5,29710.0,8.5,13.0,26.0,0,None
2023-01-03 04:48:32,302.095,0.0999999999999999,100.0,1093.0,24100.5,4865.5,98.0,1034.0,258.3,4873.2,70.714368,3.0479278,0.059319574,-0.023139842,-2.397266,61.75599999999999,0.0699912799999999,-0.022543336,-2.3093208,0.77120713,1.3355253,9.341600799999998,51.3,15.7,-232.1,3.5,8.0,177.5,-992.0,-24.7,319.5,1017.3123000000002,-3.9081329,2784.1,0.0699912799999999,0.0241573492,-0.022543336,0.0196020892,-2.3093208,-0.022862889,61760.0,22789.0,29710.0,8.5,13.0,25.0,0,None
2023-01-03 04:48:33,303.095,0.0999999999999999,100.0,1073.0,24108.0,4877.0,98.0,1047.0,261.1,4875.4,70.665864,3.0715338,0.05977168,-0.0189322639999999,-2.3952256,61.722,0.070234244,-0.019438008,-2.308467,0.6960101900000001,1.2627165000000002,9.7767856,50.8,-19.7,-232.4,6.2,7.8,178.9,-1017.1,-0.3,313.9,1017.3178,-3.9026718,2785.3,0.070234244,0.001180847,-0.019438008,-0.011501382,-2.308467,-0.0015254937199999,61735.0,22759.5,29685.0,11.5,10.0,27.0,0,None
2023-01-03 04:48:34,304.09700000000004,0.1019999999999981,100.0,1042.5,24102.5,4883.5,98.0,1029.6,264.0,4878.5,70.60022000000001,3.0948154000000008,0.055283972,-0.03153577,-2.3884652,61.732000000000006,0.06584038,-0.030962214,-2.3028062,0.7484574700000001,1.4889873000000002,10.4013077,58.25,2.1,-229.55,23.45,-11.55,175.5,-1081.9,15.45,320.65,1017.3025499999998,-3.917761649999999,2786.85,0.06584038,0.00031669894,-0.030962214,0.0084514126,-2.3028062,0.0155179818799999,61725.0,22798.5,29675.0,12.5,8.5,33.0,1,27_xgyro_avg_constant_2.1
2023-01-03 04:48:35,305.115,0.0999999999999999,100.0,1003.5,24125.0,4879.5,98.0,1025.3,266.9,4875.9,70.548998,3.1182306,0.058336062,-0.021940136,-2.3882138,61.758,0.06891635,-0.022075838,-2.3032728,0.76642507,1.4423914999999998,10.205611800000002,51.2,2.1,-234.0,-7.6,25.2,178.5,-1017.4,1.1,317.9,1017.3079,-3.9126249,2788.2,0.06891635,0.039326486,-0.022075838,-0.002837343,-2.3032728,0.0029118779999999,61760.0,22807.5,29710.0,6.5,7.5,26.5,1,27_xgyro_avg_constant_2.1
2023-01-03 04:48:36,306.1152,0.1000999999999976,100.0,1057.5,24091.5,4882.5,98.0,1032.3,269.7,4877.8,70.50463199999999,3.1413046000000007,0.055118666,-0.018817868,-2.3899598,61.752,0.065493222,-0.018968246,-2.305874,0.74838004,1.3994642,10.2743033,48.3,2.1,-232.8,7.8,-14.7,176.0,-1089.6,-7.0,314.1,1017.2864,-3.9339921,2789.7,0.065493222,-0.0060673719023999,-0.018968246,-0.0031061915999999,-2.305874,-0.00415042,61745.0,22788.0,29695.0,6.5,10.0,28.5,1,27_xgyro_avg_constant_2.1
2023-01-03 04:48:37,307.1379,0.1020000000000038,100.0,974.0,24125.0,4877.0,98.0,997.7,272.7,4881.3,70.453766,3.1636392,0.048658942,-0.0170185119999999,-2.382483,61.772000000000006,0.058886692,-0.017299052,-2.2997842000000004,0.88962294,1.7367823999999998,12.672704,72.8,2.1,-223.8,-13.6,5.1,180.5,-1020.0,18.8,321.8,1017.3248,-3.8955702,2791.2,0.058886692,0.0246857012399999,-0.017299052,-0.004787022,-2.2997842000000004,0.0054774941999999,61780.0,22811.0,29730.0,8.5,7.0,27.5,1,27_xgyro_avg_constant_2.1
2023-01-03 04:48:38,308.1124444444444,0.1044444444444441,100.0,1086.5,24088.5,4878.5,98.0,1035.5555555555557,275.55555555555554,4878.111111111111,70.39197999999999,3.1842328888888884,0.063160114,-0.02358878,-2.383612,61.736,0.073024978,-0.023976222,-2.3013642,0.7827650666666668,1.5598378888888886,11.734380111111111,56.22222222222222,2.1,-234.3333333333333,12.11111111111111,-1.6666666666666667,182.3333333333333,-1079.6666666666667,-16.333333333333332,313.0,1017.2823333333334,-3.938029444444445,2792.555555555556,0.073024978,-0.0051368129999999,-0.023976222,-0.001221483,-2.3013642,-0.0108677898,61735.0,22826.5,29685.0,11.0,3.5,25.5,1,27_xgyro_avg_constant_2.1
2023-01-03 04:48:39,309.0935,0.1019999999999981,100.0,1036.0,24098.5,4880.0,98.0,1007.6,278.2,4872.5,70.33105400000001,3.2026748,0.051531372,-0.03186095,-2.3858536,61.772000000000006,0.06170287,-0.031437542,-2.3046866,0.7987897900000002,1.5029757,10.971442399999995,31.3,2.1,-229.7,9.3,-4.2,175.9,-1054.0,8.2,320.9,1017.307,-3.9133825,2794.0,0.06170287,0.0048144479999999,-0.031437542,-0.00286158286,-2.3046866,-0.0131722078,61770.0,22799.5,29720.0,14.0,8.5,22.5,1,27_xgyro_avg_constant_2.1
2023-01-03 04:48:40,310.096,0.0999999999999999,100.0,1091.0,24079.5,4875.0,98.0,1043.0,281.0,4870.4,70.288236,3.2225374,0.058530474,-0.026412838,-2.385888,61.774,0.0686715659999999,-0.0263918979999999,-2.3053292,0.76307469,1.5366213000000002,10.338350900000002,48.22222222222222,2.1,-236.44444444444449,6.0,4.333333333333333,174.77777777777777,-1034.7777777777778,-22.88888888888889,315.3333333333333,1017.284,-3.9363748,2795.2,0.0686715659999999,-0.006247017,-0.0263918979999999,-0.005996496,-2.3053292,0.0084089745999999,61770.0,22793.0,29720.0,9.5,8.0,25.5,1,27_xgyro_avg_constant_2.1
2023-01-03 04:48:41,311.11266666666666,0.1111111111111111,100.0,1067.0,24072.5,4871.5,98.0,1039.1666666666667,284.0,4867.111111111111,70.26387777777778,3.2426602222222223,0.0581940475,-0.0354894575,-2.38508875,61.77,0.0684232525,-0.035012585,-2.305738,0.7312858777777778,1.3593155,9.275295388888887,52.44444444444444,2.1,-230.66666666666663,20.944444444444443,18.83333333333333,172.0,-1063.5555555555557,-4.555555555555555,318.8888888888889,1017.2972222222224,-3.923029444444445,2796.777777777778,0.0684232525,-0.0013332864999999,-0.035012585,-0.0015056562499999,-2.305738,0.01751883975,61775.0,22784.5,29725.0,11.0,6.5,22.5,1,27_xgyro_avg_constant_2.1
2023-01-03 04:48:42,312.096,0.0999999999999999,100.0,1072.5,24068.0,4876.0,98.0,1044.9,286.9,4875.6,70.255096,3.2622938,0.06053853,-0.032584518,-2.3872502,61.788,0.070645176,-0.0317443139999999,-2.3085574,0.7072145300000001,1.3975204,9.609035000000002,58.9,2.1,-234.4,40.2,-7.5,167.8,-1078.1,9.4,318.8,1017.288,-3.9324686,2798.2,0.070645176,-0.018937196,-0.0317443139999999,0.0169199882,-2.3085574,-0.0234901099999999,61780.0,22787.5,29730.0,6.0,10.5,22.5,1,27_xgyro_avg_constant_2.1
2023-01-03 04:48:43,313.096,0.0999999999999999,100.0,1064.0,24091.0,4874.5,98.0,1050.1,289.8,4876.7,70.26542199999999,3.2831942,0.059174344,-0.032962298,-2.3849738,61.776,0.0690126559999999,-0.032677828,-2.3076997999999995,0.6996406900000001,1.5181486000000002,10.3681801,46.8,2.1,-231.6,15.7,1.1,176.1,-1049.6,20.8,317.0,1017.3109000000002,-3.9093983,2799.5,0.0690126559999999,-0.0199678874,-0.032677828,-0.0014694596,-2.3076997999999995,-0.0191054907999999,61785.0,22775.0,29735.0,6.5,12.5,24.5,1,27_xgyro_avg_constant_2.1
2023-01-03 04:48:44,314.096,0.0999999999999999,100.0,1064.5,24064.5,4878.5,98.0,1055.5,292.7,4879.4,70.283756,3.3044154,0.059259904,-0.0284791859999999,-2.3845596,61.762,0.068548394,-0.0281695299999999,-2.3085536,0.7422275999999999,1.3579250000000005,9.1299375,38.0,2.1,-232.2,3.1,-7.3,173.9,-1051.3,-20.9,320.4,1017.2935,-3.926875,2800.9,0.068548394,0.0024269131999999,-0.0281695299999999,0.0048616899999999,-2.3085536,0.0067226114,61760.0,22775.0,29710.0,6.0,16.0,27.0,1,27_xgyro_avg_constant_2.1
2023-01-03 04:48:45,315.096,0.0999999999999999,100.0,1080.0,24066.0,4873.0,98.0,1063.7,295.7,4879.7,70.30603599999999,3.3251282000000004,0.05189819,-0.024276794,-2.3829018,61.75,0.061558742,-0.023484442,-2.307577,0.6706886899999999,1.352901,8.7777769,42.0,2.1,-229.5,22.7,15.2,175.1,-1063.8,0.2,316.8,1017.3177,-3.9026015,2802.4,0.061558742,0.0144577091999999,-0.023484442,-0.0030248882,-2.307577,0.0250342787999999,61760.0,22769.0,29710.0,9.0,17.0,26.5,1,27_xgyro_avg_constant_2.1
2023-01-03 04:48:46,316.104,0.1019999999999981,100.0,1080.5,24057.0,4882.0,98.0,1076.1,298.6,4879.0,70.324498,3.3446948,0.0478401539999999,-0.0255048979999999,-2.3801144,61.728,0.057396382,-0.024743068,-2.305194,0.6945368300000001,1.3713174,9.5818827,41.9,2.1,-227.65,1.25,-3.9,174.3,-1052.7,-6.0,315.5,1017.3187,-3.9016522,2803.65,0.057396382,-0.0145409708999999,-0.024743068,0.009433954,-2.305194,-0.018791768,61735.0,22791.5,29685.0,10.0,15.5,27.0,1,27_xgyro_avg_constant_2.1
2023-01-03 04:48:47,317.116,0.0999999999999999,100.0,1058.0,24075.5,4880.0,98.0,1062.2,301.6,4874.8,70.345516,3.3626819999999995,0.048845698,-0.024334532,-2.3822972,61.734,0.058700942,-0.023824846,-2.3088726,0.6990019199999999,1.3132812,8.6950986,44.4,2.1,-226.3,8.5,20.8,176.2,-1048.6,-7.7,326.2,1017.304,-3.9164453,2805.1,0.058700942,-0.0105650334,-0.023824846,0.003977098,-2.3088726,-0.0044335594,61730.0,22779.5,29680.0,7.5,12.5,32.0,1,27_xgyro_avg_constant_2.1
2023-01-03 04:48:48,318.0948888888889,0.1044444444444441,100.0,1037.5,24075.5,4881.0,98.0,1068.6666666666667,304.6666666666667,4876.666666666667,70.36960444444445,3.379151444444444,0.052569105,-0.0251455975,-2.377383,61.760000000000005,0.0618277025,-0.02465049,-2.3043805,0.7002530888888889,1.3393544444444443,8.415891111111112,46.11111111111112,-7.444444444444445,-229.5555555555556,7.555555555555555,2.0,179.66666666666666,-1080.2222222222222,10.22222222222222,326.3333333333333,1017.299,-3.921406222222222,2806.4444444444443,0.0618277025,0.034559355,-0.02465049,-0.0069983925,-2.3043805,0.0147572089999999,61760.0,22788.5,29710.0,8.0,9.5,26.5,0,None
2023-01-03 04:48:49,319.086,0.1060000000000002,100.0,1057.5,24069.0,4880.0,98.0,1054.3,307.5,4877.2,70.388828,3.3946606000000004,0.047931414,-0.016849806,-2.3865938,61.772000000000006,0.057252754,-0.01666136,-2.3145078000000003,0.6957693800000001,1.2249016,9.7060073,35.8,3.5,-226.25,-1.7,-19.15,174.05,-1064.8,-21.5,319.75,1017.28395,-3.9364767,2807.85,0.057252754,0.0157721528,-0.01666136,0.018656778,-2.3145078000000003,0.00938918556,61770.0,22735.5,29720.0,8.5,12.5,27.0,0,None
2023-01-03 04:48:50,320.136,0.1020000000000038,100.0,1029.5,24066.5,4881.5,98.0,1069.8,310.6,4883.5,70.397559,3.4090712,0.048967562,-0.020120728,-2.3784198,61.772000000000006,0.058051054,-0.020098348,-2.3067922,0.6822310300000001,1.4114848,9.9368246,38.9,-8.8,-230.5,29.5,14.2,179.5,-1090.2,-2.7,315.0,1017.297,-3.9234608,2809.2,0.058051054,-0.0063991765999999,-0.020098348,-0.0262335121999999,-2.3067922,0.0220289173999999,61775.0,22777.5,29725.0,12.0,6.5,25.0,0,None
2023-01-03 04:48:51,321.10588888888884,0.1022222222222176,100.0,1089.5,24056.0,4875.5,98.0,1054.3333333333333,313.55555555555554,4874.888888888889,70.39383555555557,3.421750666666666,0.047675754,-0.03210318,-2.3746874,61.776,0.057158496,-0.0309358639999999,-2.3035572,0.6850634555555557,1.3789871111111112,9.899995333333337,42.55555555555556,1.6666666666666667,-234.11111111111111,4.444444444444445,-6.333333333333333,175.88888888888889,-1065.111111111111,0.1111111111111111,317.77777777777777,1017.286222222222,-3.934045,2810.333333333333,0.057158496,-0.019102554,-0.0309358639999999,0.01303801,-2.3035572,0.0001701089999999,61770.0,22806.5,29720.0,15.0,6.0,25.5,0,None
2023-01-03 04:48:52,322.0559999999999,0.0999999999999999,100.0,969.0,24100.5,4870.5,98.0,1026.2,316.3,4877.4,70.401158,3.4331993999999995,0.04218999,-0.02333356,-2.37964,61.802,0.051484872,-0.0226063419999999,-2.3089732,0.7097604200000001,1.4389178,11.296494,28.2,11.3,-226.7,-28.4,7.2,174.1,-1084.5,-5.0,319.6,1017.2792000000002,-3.941211,2811.7,0.051484872,0.0084958411,-0.0226063419999999,-0.000528054,-2.3089732,-0.00533721514,61800.0,22772.5,29750.0,7.0,9.0,21.5,0,None
2023-01-03 04:48:53,323.074,0.104000000000002,100.0,1078.5,24061.5,4879.5,98.0,1091.8,319.2,4877.7,70.422172,3.4443256,0.053446094,-0.025715384,-2.3763774,61.79600000000001,0.062832216,-0.02556917,-2.3062456,0.71014615,1.4280672,9.820296199999998,33.1,-4.9,-232.6,14.6,30.4,179.9,-1023.2,-6.7,316.4,1017.2786,-3.9417967,2812.9,0.062832216,-0.02167569,-0.02556917,-0.001379505,-2.3062456,-0.0213518244,61805.0,22791.5,29755.0,7.0,7.0,19.0,0,None
2023-01-03 04:48:54,324.12600000000003,0.104000000000002,100.0,1058.5,24011.0,4868.0,98.0,1057.0,322.3,4879.6,70.442464,3.4546906,0.046971108,-0.02787767,-2.3744094,61.778,0.056992584,-0.027120558,-2.3047708,0.7172926900000001,1.3691406000000002,9.8424991,35.45,-7.2,-227.7,7.8,-0.8,173.75,-1075.7,6.0,310.3,1017.2946,-3.9257188,2814.3,0.056992584,0.027297942,-0.027120558,-0.0113270733999999,-2.3047708,-0.0006191086,61780.0,22791.5,29730.0,8.5,8.5,26.5,0,None
2023-01-03 04:48:55,325.0926666666667,0.1022222222222176,99.0,1065.5,24073.5,4886.5,97.22222222222224,1038.0,325.22222222222223,4883.555555555556,70.46504666666667,3.464690777777778,0.0552122825,-0.031744645,-2.3734245,61.7775,0.0649111525,-0.0304125874999999,-2.304144,0.7213406222222222,1.4322366666666666,9.608540555555557,46.22222222222222,-0.1111111111111111,-234.11111111111111,25.0,10.11111111111111,176.33333333333334,-1047.7777777777778,-7.444444444444445,316.1111111111111,1017.2951111111112,-3.925225555555556,2815.6666666666665,0.0649111525,0.01658243,-0.0304125874999999,-0.0125521015,-2.304144,0.02117669525,61775.0,22799.0,29725.0,8.0,6.5,25.0,0,None
2023-01-03 04:48:56,326.05999999999995,0.1020000000000038,99.0,1007.0,24061.5,4867.0,97.0,1037.4,328.0,4875.8,70.49479399999998,3.4756454,0.0580575,-0.0282938519999999,-2.3755998,61.77,0.067861976,-0.026534152,-2.3071054,0.71268307,1.4415187,10.2089061,43.8,2.4,-230.2,8.7,3.0,175.1,-1000.5,9.7,315.6,1017.3031,-3.9172342,2817.1,0.067861976,0.0213339359999999,-0.026534152,0.0033289137999999,-2.3071054,-0.0017349374,61770.0,22781.0,29720.0,9.5,13.0,24.0,0,None
2023-01-03 04:48:57,327.05999999999995,0.0999999999999999,99.0,1041.5,24074.0,4875.5,97.0,1055.0,330.9,4879.8,70.523944,3.4873034,0.048145204,-0.02409159,-2.3766968000000004,61.742,0.057388718,-0.02240161,-2.3086856,0.69214742,1.4429261,10.6887788,29.9,0.2,-226.6,-9.9,10.2,175.9,-1036.4,14.5,318.7,1017.3121,-3.9083983,2818.5,0.057388718,-0.02873433,-0.02240161,-0.005288672,-2.3086856,-0.0124872382,61740.0,22779.5,29690.0,14.0,17.5,25.5,0,None
2023-01-03 04:48:58,328.064,0.0999999999999999,99.0,1051.5,24038.5,4883.0,97.0,1046.3,333.9,4883.0,70.545988,3.4985333999999995,0.043929044,-0.023921924,-2.3711244,61.742,0.052754486,-0.022230174,-2.3038452,0.70123763,1.3918512,9.377311100000002,38.1,1.0,-225.0,21.9,-6.3,179.2,-1067.4,-2.6,310.6,1017.297,-3.9233359,2819.4,0.052754486,-0.0191299358,-0.022230174,0.0051206176,-2.3038452,0.01169969238,61745.0,22796.5,29695.0,14.0,17.0,29.0,0,None
2023-01-03 04:48:59,329.076,0.0999999999999999,99.0,1083.5,24049.0,4883.0,97.0,1052.2,336.7,4883.8,70.569578,3.5086998,0.040856964,-0.024759416,-2.371097,61.760000000000005,0.049659064,-0.0231210219999999,-2.3039642,0.717056,1.4050532999999998,9.9691088,34.0,-0.2,-226.9,-1.7,13.8,180.1,-1037.0,-0.8,323.0,1017.2904999999998,-3.9296325999999993,2820.8,0.049659064,0.0096819519999999,-0.0231210219999999,-0.003557372,-2.3039642,-0.0112048577999999,61760.0,22801.5,29710.0,11.0,11.5,24.0,0,None
2023-01-03 04:49:00,330.09399999999994,0.1019999999999981,99.0,1021.0,24064.5,4881.0,97.0,1043.6,339.7,4878.4,70.597628,3.5176296,0.046945628,-0.021430918,-2.371415,61.76800000000001,0.055668544,-0.019758206,-2.3050186,0.7099694700000001,1.4410779,9.7880961,35.7,10.0,-226.7,5.8,6.7,178.5,-1070.7,0.0,315.7,1017.2922,-3.9282422,2822.4,0.055668544,0.0100807632,-0.019758206,0.0092343638,-2.3050186,0.0067661146,61770.0,22794.0,29720.0,7.5,10.0,23.5,0,None
2023-01-03 04:49:01,331.0952222222222,0.1066666666666643,99.0,1044.0,24064.0,4861.0,97.0,1052.7777777777778,342.6666666666667,4878.666666666667,70.62270666666667,3.5255616666666665,0.04796072,-0.01836832,-2.3745408,61.77,0.056550578,-0.017048228,-2.3079240000000003,0.6818509111111112,1.414167,9.239430111111112,34.333333333333336,3.7222222222222223,-228.61111111111111,-0.6111111111111112,4.111111111111111,178.55555555555554,-1029.3333333333333,4.222222222222222,315.8333333333333,1017.3035555555556,-3.916683944444444,2823.4444444444443,0.056550578,0.0046416974,-0.017048228,-0.0044119899999999,-2.3079240000000003,-0.011825152,61770.0,22775.5,29720.0,10.0,15.0,24.5,0,None
2023-01-03 04:49:02,332.0863,0.104000000000002,99.0,1079.5,24025.5,4868.5,97.0,1085.4,345.6,4875.7,70.633992,3.5329868000000006,0.03873247,-0.0085948406,-2.3788340000000003,61.762,0.04731109,-0.0068723402,-2.3120704,0.6476445399999999,1.2772812000000002,7.912806600000001,29.5,6.3,-226.0,11.4,-7.8,175.3,-1071.2,-9.4,313.4,1017.3073,-3.9131092,2824.7,0.04731109,-0.00320777984,-0.0068723402,0.0055401892,-2.3120704,0.0088347946,61760.0,22749.5,29710.0,15.5,13.0,26.5,0,None
2023-01-03 04:49:03,333.1127,0.1040999999999996,99.0,1038.5,24076.0,4878.5,97.0,1053.3,348.6,4878.8,70.62394600000002,3.5385182,0.032775862,-0.0138297523999999,-2.380523,61.76800000000001,0.041252842,-0.012384084,-2.3133982,0.6670504800000001,1.2941059,8.8826279,30.5,-16.05,-226.85,8.9,9.85,178.95,-1034.9,19.8,315.95,1017.28945,-3.93088675,2826.2,0.041252842,0.028145095,-0.012384084,-0.003644086,-2.3133982,0.0180337716,61770.0,22751.0,29720.0,14.0,-1.0,25.0,0,None
2023-01-03 04:49:04,334.10633333333334,0.1021111111111091,99.0,1082.0,24034.5,4880.0,97.0,1081.888888888889,351.6666666666667,4878.888888888889,70.60258777777777,3.5414967777777773,0.044991064,-0.022619286,-2.3766824,61.772000000000006,0.053290368,-0.021398198,-2.3098754,0.6484328888888888,1.335660111111111,8.652021333333332,33.44444444444444,0.4444444444444444,-224.3333333333333,11.444444444444445,17.666666666666668,178.66666666666666,-1047.888888888889,-5.555555555555555,323.44444444444446,1017.2887777777778,-3.931544888888889,2827.555555555556,0.053290368,0.0079100499999999,-0.021398198,-0.0125889441,-2.3098754,-0.0133564226,61775.0,22766.5,29725.0,9.5,0.5,23.5,0,None
2023-01-03 04:49:05,335.0841,0.104000000000002,99.0,1022.5,24063.5,4882.5,97.0,1072.1,354.5,4878.0,70.58717399999999,3.5435026,0.046960294,-0.017470954,-2.382542,61.778,0.0551060899999999,-0.016175334,-2.3155834,0.6503494799999999,1.3025523,7.945164600000001,31.9,8.3,-228.9,-8.2,11.7,177.3,-1010.1,-21.4,317.0,1017.291,-3.9292811,2828.7,0.0551060899999999,-0.0077603019999999,-0.016175334,0.0080295334,-2.3155834,0.0179284602,61780.0,22730.5,29730.0,5.5,4.5,24.5,0,None
2023-01-03 04:49:06,336.1245,0.1040999999999996,99.0,1114.0,24029.5,4876.0,97.0,1080.5,357.5,4878.4,70.569956,3.5459993999999995,0.056485274,-0.0101035856,-2.3836060000000003,61.778,0.065037566,-0.0092842326,-2.3164842,0.6869964300000001,1.2551940999999998,7.945320199999999,40.2,8.7,-229.7,-10.05,31.0,175.7,-1052.3,-8.0,315.6,1017.29325,-3.9272382,2830.1,0.065037566,0.0246626694,-0.0092842326,0.0009180454,-2.3164842,-0.013408876,61775.0,22729.5,29725.0,5.0,6.5,22.0,0,None
2023-01-03 04:49:07,337.137,0.0999999999999999,99.0,1099.0,24021.5,4889.0,97.0,1109.9,360.8,4879.7,70.53629800000002,3.5490826000000006,0.052834552,-0.0097332261999999,-2.3925908,61.784000000000006,0.060939858,-0.0082665132,-2.3246063999999995,0.5889021999999999,1.1244663300000002,5.9319101000000005,33.9,-1.6,-236.5,7.6,-9.8,174.4,-1044.9,-1.8,316.2,1017.2805,-3.9400312,2831.5,0.060939858,-0.011050752,-0.0082665132,-0.0017784592,-2.3246063999999995,-0.0047074986,61790.0,22679.0,29740.0,17.0,11.0,24.5,0,None
2023-01-03 04:49:08,338.137,0.0999999999999999,99.0,1009.5,24054.0,4881.0,97.0,1044.3,363.9,4881.3,70.475578,3.5530488000000005,0.041724472,-0.015903424,-2.3830968,61.79599999999999,0.04989711,-0.0142985281999999,-2.3146784,0.6818322699999999,1.1737233,9.7976142,35.6,-6.7,-230.0,1.1,34.2,177.7,-1042.8,14.1,316.8,1017.2972999999998,-3.923117,2832.6,0.04989711,0.0275048275999999,-0.0142985281999999,-0.002777742,-2.3146784,0.0137491166,61795.0,22747.5,29745.0,17.0,7.5,26.0,0,None
2023-01-03 04:49:09,339.137,0.0999999999999999,99.0,1060.5,24056.0,4884.0,97.0,1061.6,366.7,4880.1,70.407028,3.5565481999999995,0.0425898,-0.01995707,-2.3709038,61.778,0.050740364,-0.017725482,-2.3015402000000003,0.65016729,1.3467485,9.0835738,30.2,1.7,-224.2,-0.3,3.8,175.4,-1071.7,6.2,319.3,1017.2812,-3.9391485,2834.2,0.050740364,0.0033686224,-0.017725482,-0.00537883038,-2.3015402000000003,0.0039817199999999,61775.0,22817.5,29725.0,16.5,9.0,23.5,0,None
2023-01-03 04:49:10,340.137,0.0999999999999999,99.0,1099.5,24039.0,4877.0,97.0,1086.5,369.7,4880.4,70.3482,3.5596641999999994,0.0419811,-0.0225681639999999,-2.3754408,61.79,0.05011455,-0.02089663,-2.3061762000000003,0.62202418,1.2642132,8.310783400000002,32.4,-4.7,-231.1,15.0,5.5,186.9,-1035.5,1.8,317.4,1017.2797,-3.9405702,2835.3,0.05011455,0.0093388521999999,-0.02089663,-0.001699015,-2.3061762000000003,0.0055643783999999,61790.0,22781.5,29740.0,15.0,10.5,22.5,0,None
2023-01-03 04:49:11,341.137,0.0999999999999999,99.0,1117.5,24005.0,4870.5,97.0,1118.4,372.8,4875.0,70.30270600000001,3.5625684,0.042932772,-0.020842548,-2.3796108,61.794,0.050757456,-0.018808594,-2.3098358,0.64118347,1.1489987,7.169807400000001,18.1,1.3,-223.7,-8.5,-3.5,178.2,-1081.0,-14.3,315.2,1017.2669,-3.9534295,2836.7,0.050757456,0.0044226766,-0.018808594,0.00335559812,-2.3098358,-0.0162042766,61795.0,22765.0,29745.0,14.5,13.0,21.5,0,None
2023-01-03 04:49:12,342.137,0.0999999999999999,99.0,1092.5,24030.0,4874.0,97.0,1099.3,375.9,4875.6,70.26907,3.5653595999999994,0.03050996,-0.0183980659999999,-2.3876898,61.83,0.03872316,-0.016469006,-2.3181888,0.66321929,0.9825684,4.9117837,13.6,4.4,-222.8,-1.3,-17.9,185.1,-1091.4,-19.5,323.4,1017.2647,-3.9554999,2838.1,0.03872316,-0.0201494126,-0.016469006,-0.0028419367999999,-2.3181888,-0.0164347376,61835.0,22716.0,29785.0,13.0,12.5,20.5,0,None
2023-01-03 04:49:13,343.13980000000004,0.1001000000000032,99.0,1096.0,24037.5,4879.5,97.0,1080.9,378.9,4878.1,70.24704200000001,3.567281,0.030542482,-0.016733156,-2.38333,61.83,0.038279918,-0.015560774,-2.3129818,0.59038276,1.043582,7.534104099999999,26.1,-14.1,-221.7,9.6,19.4,178.4,-1014.4,26.9,320.8,1017.2659,-3.9544609,2839.4,0.038279918,0.0216176623999999,-0.015560774,-0.0169858098,-2.3129818,0.027726016,61830.0,22753.5,29780.0,8.5,2.0,19.5,0,None
2023-01-03 04:49:14,344.114,0.1043333333333293,99.0,1093.0,24028.5,4868.0,97.0,1078.5555555555557,381.8888888888889,4877.444444444444,70.23561222222222,3.5670963333333336,0.038552915,-0.024797015,-2.37933125,61.82249999999999,0.0459787075,-0.0230998575,-2.3080515000000004,0.6133028111111111,1.3187323333333334,9.852476,35.0,-9.11111111111111,-225.5555555555556,24.11111111111111,-11.88888888888889,176.77777777777777,-1088.7777777777778,15.88888888888889,318.3333333333333,1017.256777777778,-3.963680444444445,2840.777777777778,0.0459787075,0.016985945,-0.0230998575,-0.002614787,-2.3080515000000004,-0.0040910055,61820.0,22771.0,29770.0,7.0,2.0,22.0,0,None
2023-01-03 04:49:15,345.1034,0.1040999999999996,99.0,1076.0,24022.5,4868.0,97.0,1072.0,384.7,4878.6,70.236008,3.5665418000000004,0.040990432,-0.0301959039999999,-2.3752552,61.83200000000001,0.048734754,-0.028502966,-2.3037122,0.6261298799999999,1.1938704999999998,8.347631400000001,31.95,-2.45,-222.7,8.0,4.45,176.8,-1067.2,4.7,322.45,1017.27425,-3.9460428000000007,2842.0,0.048734754,0.0192698525999999,-0.028502966,0.005824858,-2.3037122,-0.014942845,61830.0,22807.5,29780.0,5.0,4.0,19.0,0,None
