00000_Time_epoch,00000_Time_boot_sec,00000_Span_Time_boot_sec,1_battery_remaining_avg,1_current_battery_avg,1_voltage_battery_avg,125_Vcc_avg,147_battery_remaining_avg,147_current_battery_avg,147_current_consumed_avg,165_Vcc_avg,168_direction_avg,168_speed_avg,178_pitch_avg,178_roll_avg,178_yaw_avg,182_altitude_avg,182_pitch_avg,182_roll_avg,182_yaw_avg,241_vibration_x_avg,241_vibration_y_avg,241_vibration_z_avg,27_xacc_avg,27_xgyro_avg,27_xmag_avg,27_yacc_avg,27_ygyro_avg,27_ymag_avg,27_zacc_avg,27_zgyro_avg,27_zmag_avg,29_press_abs_avg,29_press_diff_avg,29_temperature_avg,30_pitch_avg,30_pitchspeed_avg,30_roll_avg,30_rollspeed_avg,30_yaw_avg,30_yawspeed_avg,33_alt_avg,33_hdg_avg,33_relative_alt_avg,33_vx_avg,33_vy_avg,33_vz_avg,label,diagnosis
2023-01-02 09:26:10,265.3513333333333,0.1022222222222176,100.0,90.0,24930.0,4891.0,99.0,80.88888888888889,57.0,4869.666666666667,-123.68246666666668,0.2729427333333333,-0.016738654,-0.020000154,-1.2093356,27.748,-0.0089339314,-0.0189023899999999,-1.2285201999999995,0.0250031777777777,0.0248796488888888,0.0364127599999999,-31.0,-0.1111111111111111,85.66666666666667,2.6666666666666665,6.111111111111111,246.11111111111111,-1060.6666666666667,-1.4444444444444444,336.1111111111111,1022.1043333333332,-0.1923177,3086.555555555556,-0.0089339314,0.0068074964,-0.0189023899999999,-0.00070901552,-1.2285201999999995,-0.0018005919,27725.0,28962.0,195.0,-4.5,18.0,37.5,0,None
2023-01-02 09:26:11,266.32,0.104000000000002,100.0,77.5,24911.5,4879.5,99.0,133.0,57.4,4875.1,-123.03892,0.30122432,-0.016826418,-0.020267406,-1.2087908,27.908,-0.008774119,-0.01934935,-1.228509,0.086445484,0.133322022,0.5769184430000001,-30.2,0.6,85.45,7.7,6.0,243.4,-1067.55,2.2,337.95,1022.0958000000004,-0.20082811,3088.6,-0.008774119,0.0052581118,-0.01934935,0.0001019614399999,-1.228509,0.0100399686,27890.0,28960.5,360.0,-6.5,18.5,39.5,0,None
2023-01-02 09:26:12,267.352,0.0999999999999999,100.0,1103.0,24514.5,4867.0,99.0,1209.4,59.2,4874.2,-122.52014,0.3836635600000001,-0.00933562744,-0.0126938308,-1.2086872,28.160000000000004,-0.00085786626,-0.0122967863999999,-1.2273892,0.433235129,0.8766282499999999,4.47662513,-16.0,19.2,71.2,-7.3,21.0,225.2,-1194.6,-8.9,294.6,1022.3184,0.0216172,3091.2,-0.00085786626,0.024494578,-0.0122967863999999,0.03734964042,-1.2273892,-0.0232610119999999,28070.0,28960.0,540.0,-9.5,13.0,75.0,0,None
2023-01-02 09:26:13,268.348,0.0999999999999999,100.0,1791.5,24167.5,4863.5,99.0,1720.0,63.5,4875.0,-124.47921999999998,0.4805899999999999,0.006829344,0.01626226,-1.2018277999999998,29.736,0.01495538542,0.0161789402,-1.219964,0.36699947,1.8147159,7.529885500000001,2.0,17.2,67.5,-15.6,41.2,232.9,-1199.8,-2.6,272.2,1021.9661,-0.33053124,3093.6,0.01495538542,0.0521504495199999,0.0161789402,0.0063099713999999,-1.219964,-0.00323986404,29425.0,29020.5,1895.0,-5.5,-8.0,271.0,0,None
2023-01-02 09:26:14,269.3505,0.1021000000000014,100.0,1489.0,24250.5,4878.5,99.0,1472.4,68.1,4878.6,-126.7164,0.52117216,0.0214642302,-0.0122134036,-1.2107452,32.529999999999994,0.0282031079999999,-0.0108002822,-1.1979890000000002,0.36160473,1.1475786,4.3118984,-8.7,-38.4,62.4,-15.5,-24.9,224.3,-1061.4,-12.6,287.2,1021.6252,-0.67153905,3096.0,0.0282031079999999,-0.043144462,-0.0108002822,-0.0446088787999999,-1.1979890000000002,-0.0152718518,32155.0,29148.0,4625.0,7.5,6.0,337.5,0,None
2023-01-02 09:26:15,270.36510000000004,0.0999999999999999,100.0,1100.5,24396.0,4881.5,99.0,1102.2,71.9,4875.2,-129.36,0.52607476,-0.0024469407999999,-0.0971778859999999,-1.2194661999999998,35.088,0.007775542,-0.0948672,-1.2065206,0.55660285,0.9836840000000002,2.6410054,-4.6,-176.2,71.8,-14.6,9.8,213.5,-931.2,-18.2,318.6,1021.2989999999998,-0.99768742,3098.3,0.007775542,0.02338969,-0.0948672,-0.1916632568,-1.2065206,-0.0168166246,34830.0,29093.5,7300.0,-14.5,4.5,265.5,0,None
2023-01-02 09:26:16,271.37960000000004,0.1020999999999957,100.0,1188.3333333333333,24353.0,4863.333333333333,99.0,1207.8,75.2,4874.2,-133.37661999999997,0.52230224,-0.0019054202,-0.20268034,-1.4141492000000002,36.562,0.0093797309999999,-0.2010399,-1.3996166,0.4767266099999999,0.99097795,5.2209539,-5.3,8.3,32.3,-7.7,44.1,173.6,-1010.0,-335.2,348.2,1021.0639,-1.2327812,3100.7,0.0093797309999999,0.0010728561999999,-0.2010399,0.0170496343999999,-1.3996166,-0.3507806,36405.0,28249.0,8875.0,-148.5,-39.5,163.0,0,None
2023-01-02 09:26:17,272.34422222222224,0.1000000000000037,100.0,1372.0,24267.0,4883.0,99.0,1300.5555555555557,78.44444444444444,4875.222222222223,-137.6589888888889,0.5227444666666666,-0.0780859925,-0.1687292,-1.7329295,37.6825,-0.067040505,-0.1732089499999999,-1.71494125,0.3763610222222222,1.1958524111111108,8.520161666666665,-6.555555555555555,40.77777777777778,-35.888888888888886,24.55555555555556,-2.4444444444444446,180.3333333333333,-1105.888888888889,-338.6666666666667,354.8888888888889,1020.8961111111112,-1.4005904444444446,3103.0,-0.067040505,0.023876655,-0.1732089499999999,0.0669253725,-1.71494125,-0.34021205,37645.0,26233.5,10115.0,-312.5,-83.5,156.0,0,None
2023-01-02 09:26:18,273.3098999999999,0.1019999999999981,100.0,1098.5,24377.0,4875.0,99.0,1178.7,81.6,4881.0,-143.53726999999998,0.5393068,-0.085975412,-0.11368594,-2.042768,38.942,-0.077268916,-0.12366684,-2.0186336,0.52783336,1.25828387,10.1631942,-28.4,-12.7,-118.6,51.1,31.8,166.6,-1043.1,-341.2,356.3,1020.7325,-1.5642109999999998,3105.1,-0.077268916,0.0447690644,-0.12366684,-0.0268413699999999,-2.0186336,-0.34634714,39045.0,24302.5,11515.0,-415.5,-137.5,169.0,0,None
2023-01-02 09:26:19,274.3299,0.1019999999999981,100.0,1305.5,24284.5,4876.0,99.0,1276.4,85.2,4883.8,-152.46750000000003,0.56555006,-0.081931464,-0.09426587,-2.4063664000000005,40.362,-0.076119028,-0.10585132,-2.3731326000000004,0.47326617,1.2775231000000002,11.1236831,-53.2,-17.5,-191.3,52.2,52.2,107.4,-1082.8,-366.2,347.7,1020.5721,-1.7244687,3107.7,-0.076119028,0.0373243341999999,-0.10585132,0.0082844904,-2.3731326000000004,-0.3674809599999999,40465.0,22267.0,12935.0,-486.0,-172.5,172.5,0,None
2023-01-02 09:26:20,275.36420000000004,0.104000000000002,100.0,1180.0,24309.5,4877.5,99.0,1143.1,88.8,4881.1,-163.21326000000002,0.5845809999999999,-0.089263996,-0.080351672,-2.7747244,42.286,-0.085387278,-0.091870208,-2.735507,0.56702998,1.3475081999999998,10.976806,-76.5,-16.5,-244.25,71.4,6.75,16.25,-1019.15,-315.95,337.25,1020.3400999999998,-1.9565937,3110.4,-0.085387278,0.013672752,-0.091870208,-0.0576669878,-2.735507,-0.3664665,42480.0,20177.0,14950.0,-515.0,-175.5,171.0,0,None
2023-01-02 09:26:21,276.358,0.0999999999999999,100.0,1234.5,24282.0,4859.5,99.0,1220.5,92.1,4877.6,-104.24177999999998,0.60300632,-0.09988794,-0.057404746,-2.963278,44.298,-0.09481884,-0.0677538759999999,-2.9236308,0.68230344,1.4674823,12.2870753,-82.3,19.9,-249.9,21.0,10.4,-11.6,-1065.7,14.3,359.3,1020.2649,-2.0316406,3112.9,-0.09481884,-0.0488347579999999,-0.0677538759999999,0.03773383286,-2.9236308,-0.007304796,44420.0,19241.5,16890.0,-547.5,-168.0,169.5,0,None
2023-01-02 09:26:22,277.362,0.0999999999999999,100.0,916.5,24382.5,4879.0,99.0,1091.0,95.6,4878.2,169.72336,0.6282995600000001,-0.073585234,-0.057474654,-2.9508134000000004,45.874,-0.0653937719999999,-0.06726611,-2.9062094000000003,0.70367031,1.5481399999999998,10.747205,-99.2,12.4,-261.1,20.7,37.4,-16.4,-1060.0,4.4,349.8,1020.1647,-2.1318281000000003,3115.2,-0.0653937719999999,0.0077897379999999,-0.06726611,-0.013240277,-2.9062094000000003,0.019963072,45990.0,19358.0,18460.0,-575.0,-164.0,181.5,0,None
2023-01-02 09:26:23,278.3606,0.0980999999999994,100.0,1022.5,24312.5,4877.0,99.0,1142.5,98.4,4878.3,156.08404,0.6642005000000001,-0.072945304,-0.012834041,-2.934597,47.298,-0.063901076,-0.021996619,-2.8865419999999995,0.73166123,1.4824454,12.78986,-86.4,55.4,-262.5,10.8,38.0,8.9,-1095.2,54.0,339.8,1019.978,-2.3188203,3117.8,-0.063901076,-0.004376044,-0.021996619,0.12036937,-2.8865419999999995,0.053300842,47390.0,19476.5,19860.0,-578.0,-148.5,194.0,0,None
2023-01-02 09:26:24,279.34988888888887,0.1066666666666707,100.0,867.5,24365.0,4877.0,99.0,1044.2222222222222,101.22222222222224,4882.0,143.68345555555555,0.7042154555555555,-0.054423696,-0.0132107076,-2.9020788,48.896,-0.044803162,-0.0211575815999999,-2.8483362,0.7443496555555555,1.5051646666666665,12.404974444444443,-84.33333333333333,-58.888888888888886,-260.44444444444446,34.888888888888886,20.55555555555556,18.88888888888889,-970.0,2.4444444444444446,337.77777777777777,1019.7512222222224,-2.545425333333333,3120.0,-0.044803162,0.058460102,-0.0211575815999999,-0.1324180419999999,-2.8483362,0.014408795,49000.0,19670.0,21470.0,-573.0,-200.0,192.5,0,None
2023-01-02 09:26:25,280.357,0.1060000000000002,100.0,1063.0,24311.666666666668,4873.333333333333,99.0,1062.6,104.2,4863.7,132.51894,0.7577461799999999,-0.03857984,-0.076352284,-2.9202514,50.55799999999999,-0.0303677319999999,-0.081660244,-2.8615276,0.7136485,1.6274628,12.421784,-118.95,-23.45,-265.6,72.25,-22.3,7.2,-1081.45,-28.9,338.35,1019.5757,-2.7209647,3122.15,-0.0303677319999999,-0.0536245989999999,-0.081660244,-0.04656833,-2.8615276,-0.028882321,50630.0,19603.5,23100.0,-540.5,-211.5,192.5,0,None
2023-01-02 09:26:26,281.34766666666667,0.1044444444444441,100.0,797.0,24404.0,4893.0,99.0,1003.8888888888888,107.11111111111111,4877.555555555556,122.0540111111111,0.8413349666666667,-0.063932714,-0.099155654,-2.952479,52.104,-0.0543426039999999,-0.102774638,-2.8911898000000003,0.8276020111111111,1.522414666666667,12.010559888888888,-82.22222222222223,9.666666666666666,-265.55555555555554,49.888888888888886,-10.555555555555555,-12.555555555555555,-1096.2222222222222,-25.77777777777778,336.77777777777777,1019.4334444444444,-2.8631337777777777,3124.777777777778,-0.054787288,-0.0358989488,-0.102914998,0.0121902479999999,-2.8909452,-0.0277946404,52175.0,19426.0,24645.0,-507.5,-174.5,186.5,0,None
2023-01-02 09:26:27,282.3356,0.1041999999999973,100.0,1113.5,24305.5,4881.0,99.0,1061.7,109.6,4881.0,113.86875999999998,0.95991098,-0.088397068,-0.048513858,-2.9378938000000003,53.540000000000006,-0.077569754,-0.053795714,-2.8720536,0.80853313,1.5971932,12.960846,-90.45,36.85,-252.6,52.35,7.55,-4.5,-1082.95,61.2,348.0,1019.2517,-3.045,3127.0,-0.077807388,-0.0049385451999999,-0.05405178,0.05089659258,-2.8721728000000004,0.058112904,53605.0,19555.0,26075.0,-523.0,-161.5,185.5,0,None
2023-01-02 09:26:28,283.369,0.1021000000000014,100.0,1238.0,24216.666666666668,4873.666666666667,99.0,1200.9,113.2,4878.2,108.37784,1.0972126,-0.07275279,-0.06084638,-2.896274,55.074,-0.063612172,-0.066743714,-2.8259834,0.6188692699999999,1.3972382,11.8263525,-72.1,-31.7,-254.9,73.0,36.6,7.8,-1067.6,33.5,331.5,1018.9113,-3.3854921999999994,3129.4,-0.063421912,-0.011579992,-0.066769566,-0.059926804,-2.826097,0.0117581671999999,55155.0,19816.5,27625.0,-537.0,-185.0,189.0,0,None
2023-01-02 09:26:29,284.3769,0.0999999999999999,100.0,967.0,24313.5,4879.5,99.0,1151.3,116.8,4875.9,104.75708000000002,1.2401426,-0.0036378139999999,-0.07751766,-2.8924206000000003,56.702,0.0048390539999999,-0.0822885819999999,-2.8180966,0.61823106,1.3893703,10.9800469,-77.1,31.5,-273.6,53.8,97.5,8.5,-1046.7,2.9,333.2,1018.7393999999998,-3.5572656,3131.6,0.0048390539999999,0.0764597796,-0.0822885819999999,0.034677214,-2.8180966,-0.0015788135999999,56785.0,19854.0,29255.0,-534.5,-179.5,168.5,0,None
2023-01-02 09:26:30,285.3786,0.0999999999999999,100.0,1078.0,24262.0,4878.0,99.0,910.9,119.4,4878.4,101.81032,1.3851074,-0.0320137552,-0.0301980596,-2.8542254,57.75599999999999,-0.024524102,-0.033644982,-2.7762382,0.8466363000000001,1.5993221,9.7020211,-60.6,39.5,-270.1,71.6,-77.9,31.7,-1011.8,77.8,340.9,1018.6947,-3.6019296999999995,3133.6,-0.024524102,-0.0988082146,-0.033644982,0.0547369379999999,-2.7762382,0.072223192,57795.0,20118.5,30265.0,-488.5,-171.5,88.0,0,None
2023-01-02 09:26:31,286.3784999999999,0.1016999999999995,100.0,1012.0,24310.5,4877.5,99.0,903.6,121.9,4880.7,99.12155400000002,1.5173017999999998,-0.052198608,-0.02319781,-2.7907324,57.91799999999999,-0.04394183,-0.0263948239999999,-2.7077540000000004,0.72844317,1.6663271000000002,10.2853203,-47.7,-14.4,-251.8,49.8,8.2,51.2,-1024.5,46.1,341.7,1018.6799,-3.6166248,3135.9,-0.04394183,0.0085639891999999,-0.0263948239999999,0.0149372519999999,-2.7077540000000004,0.0493566778,57920.0,20501.0,30390.0,-487.5,-205.0,37.0,0,None
2023-01-02 09:26:32,287.3868,0.1002000000000009,100.0,988.0,24294.0,4879.0,99.0,958.4,124.5,4877.0,96.829124,1.62703,0.0121028559999999,-0.0287874279999999,-2.768128,57.834,0.019245196,-0.03116332,-2.6812252,0.8142716100000001,1.5845796,10.8536512,-46.4,-19.2,-260.3,50.4,226.3,61.8,-1046.8,30.3,325.9,1018.6213,-3.6754218,3138.0,0.019245196,0.255898002,-0.03116332,0.0074864918,-2.6812252,0.0380625834,57835.0,20656.0,30305.0,-480.5,-239.5,22.0,0,None
2023-01-02 09:26:33,288.36966666666666,0.1044444444444441,100.0,907.0,24336.0,4883.0,99.0,1022.4444444444443,127.11111111111111,4877.555555555556,95.09396777777778,1.726366888888889,0.16185974,-0.060639196,-2.770877,57.73,0.16594036,-0.0580004699999999,-2.6802088,0.8356920555555557,1.5804413333333334,11.113225666666668,-15.333333333333334,-16.555555555555557,-316.3333333333333,39.888888888888886,26.77777777777778,64.11111111111111,-1064.6666666666667,-22.88888888888889,284.44444444444446,1018.6881111111112,-3.608836777777778,3140.333333333333,0.16594036,-0.01031327668,-0.0580004699999999,0.024986124,-2.6802088,-0.0213820668,57725.0,20640.5,30195.0,-352.5,-190.5,25.0,0,None
2023-01-02 09:26:34,289.3471,0.1019999999999981,100.0,1147.0,24240.0,4874.0,99.0,1165.9,130.2,4875.4,93.845068,1.8107642,0.110706614,-0.067347226,-2.765949,57.522000000000006,0.119843382,-0.061653864,-2.6723848,0.6189191399999999,1.3939972000000005,12.644463,14.05,8.75,-305.4,56.7,-19.45,56.25,-1081.35,39.85,290.85,1018.7288,-3.5678631000000003,3142.3,0.119843382,-0.0434737419999999,-0.061653864,0.0131613999999999,-2.6723848,0.0334803202,57515.0,20697.5,29985.0,-222.5,-123.5,31.0,0,None
2023-01-02 09:26:35,290.3672,0.1021000000000014,100.0,1232.6666666666667,24196.666666666668,4878.0,99.0,1205.9,133.6,4878.2,92.703742,1.8976244,0.18659504,-0.064811594,-2.7461114,57.486,0.19885826,-0.058060968,-2.6480806,0.5570952800000001,1.3051057,12.437749,33.4,1.2,-320.6,63.6,107.6,63.2,-1062.3,-0.7,263.7,1018.6682,-3.6285078,3144.7,0.19885826,0.126582848,-0.058060968,0.0063636924,-2.6480806,0.0033914494,57490.0,20829.5,29960.0,-126.5,-75.5,35.0,0,None
2023-01-02 09:26:36,291.3871,0.1019000000000005,100.0,1048.0,24234.5,4879.5,99.0,1111.1,137.1,4879.6,91.543912,1.9895528,0.1819567799999999,-0.076707972,-2.754486,57.614,0.1952136599999999,-0.069012228,-2.6542594,0.58165683,1.3673631399999997,12.399793699999998,52.3,-24.1,-325.5,54.2,-137.5,71.9,-1055.0,-13.3,267.5,1018.6291,-3.6675624,3146.9,0.1952136599999999,-0.1173734482,-0.069012228,-0.043779616,-2.6542594,-0.0095803508,57625.0,20791.5,30095.0,17.0,-7.5,41.5,0,None
2023-01-02 09:26:37,292.35855555555554,0.1022222222222176,100.0,1045.0,24252.0,4887.0,99.0,988.1111111111112,139.77777777777777,4879.777777777777,90.00150555555555,2.0921613333333338,0.066623298,-0.077529904,-2.7525362,57.69199999999999,0.086248668,-0.070196598,-2.650644,0.844799875,1.512071875,10.070970125,59.55555555555556,34.888888888888886,-289.22222222222223,34.111111111111114,-50.22222222222222,67.33333333333333,-1052.111111111111,-2.555555555555556,308.44444444444446,1018.656,-3.640512111111111,3148.777777777778,0.086248668,-0.034977892,-0.070196598,0.032015115,-2.650644,0.0093229968,57690.0,20818.0,30160.0,53.5,29.5,23.0,0,None
2023-01-02 09:26:38,293.327,0.1020000000000038,100.0,997.5,24274.0,4878.0,99.0,995.1,142.3,4885.4,88.5429,2.1978302,0.056668694,-0.0543439959999999,-2.7524942,57.552,0.076426752,-0.050093868,-2.6482838,0.88251836,1.4654728,11.440307,0.0,6.5,-284.4,41.4,20.6,69.1,-1086.2,5.9,307.1,1018.6719,-3.6248124,3150.7,0.076426752,-0.0224579548,-0.050093868,-0.018160426,-2.6482838,-0.006948364,57545.0,20825.0,30015.0,57.5,27.0,25.0,1,27_xacc_avg_constant_0
2023-01-02 09:26:39,294.333,0.0999999999999999,100.0,929.5,24304.0,4879.5,99.0,1068.0,145.2,4883.9,87.25441800000002,2.3070414,0.0608065979999999,-0.06621086,-2.7603356000000003,57.468,0.079305788,-0.063560422,-2.6536342,0.80193119,1.4893616,11.4528604,0.0,-13.1,-282.2,55.2,47.5,67.3,-997.8,-20.8,307.9,1018.6652,-3.6315547,3152.8,0.079305788,-0.0139721227999999,-0.063560422,-0.029577704,-2.6536342,0.0013946972,57465.0,20793.0,29935.0,53.5,24.0,29.5,1,27_xacc_avg_constant_0
2023-01-02 09:26:40,295.333,0.0999999999999999,100.0,1133.0,24214.5,4881.0,99.0,1041.0,148.2,4886.1,86.127214,2.4147072,0.036105918,-0.056050194,-2.771481,57.394000000000005,0.0533508139999999,-0.0551954239999999,-2.6604976,0.77081259,1.4003229999999998,10.3348383,0.0,10.3,-285.0,40.4,0.7,56.8,-1074.1,-12.6,309.7,1018.6821,-3.614632699999999,3154.9,0.0533508139999999,-0.0328387524,-0.0551954239999999,0.014016222,-2.6604976,-0.001872972,57390.0,20762.5,29860.0,42.0,19.5,38.0,1,27_xacc_avg_constant_0
2023-01-02 09:26:41,296.347,0.1019999999999981,100.0,1026.5,24245.0,4880.5,99.0,950.3,150.9,4884.3,85.13560799999999,2.5185014,0.047869112,-0.053142346,-2.767844,57.322,0.0640475319999999,-0.0532634159999999,-2.6549102,0.9742727,1.3869717,11.035504200000002,0.0,-6.65,-281.9,62.95,38.45,73.15,-999.45,-4.0,314.9,1018.7204,-3.5763709500000003,3157.05,0.0640475319999999,0.018825899,-0.0532634159999999,-0.0088947872,-2.6549102,-0.0110742766,57325.0,20794.0,29795.0,31.0,13.0,39.5,1,27_xacc_avg_constant_0
2023-01-02 09:26:42,297.3732,0.1021000000000014,100.0,954.6666666666666,24282.0,4878.0,99.0,869.6,153.6,4881.4,84.291864,2.6146388000000003,0.0192931659999999,-0.051705424,-2.7995498,57.276,0.034380944,-0.05145488,-2.6849587999999995,1.0660576,1.3170583,9.553490399999998,0.0,3.3,-276.6,25.4,-40.7,63.5,-1030.5,-20.7,323.9,1018.738,-3.5586641,3158.9,0.034380944,-0.0517283192,-0.05145488,0.0260601658,-2.6849587999999995,-0.006681324,57275.0,20610.0,29745.0,22.5,23.5,40.0,1,27_xacc_avg_constant_0
2023-01-02 09:26:43,298.3732,0.0999999999999999,100.0,1012.5,24241.5,4881.0,99.0,965.7,156.2,4881.5,83.624758,2.7005978,0.039526022,-0.02948595,-2.7935914,57.23,0.0537769779999999,-0.0309536919999999,-2.676493,0.94894551,1.2474258,9.059592999999998,0.0,6.6,-284.2,53.2,38.4,69.7,-1076.6,24.0,314.2,1018.7198000000002,-3.5770234000000003,3161.1,0.0537769779999999,0.0050477054,-0.0309536919999999,-0.0183038702,-2.676493,0.0305441758,57230.0,20660.5,29700.0,1.5,10.5,34.0,1,27_xacc_avg_constant_0
2023-01-02 09:26:44,299.3831,0.1019000000000005,100.0,943.5,24262.5,4881.5,99.0,1044.4,159.1,4876.6,83.06045400000001,2.7710866,0.073945204,-0.043418982,-2.7667724,57.208000000000006,0.085851648,-0.044666052,-2.6479676000000003,0.8364440399999999,1.6790351,11.7542207,0.0,-31.7,-285.3,45.7,18.6,79.2,-992.4,-10.0,304.8,1018.6785,-3.6181327,3162.9,0.085851648,-0.0011495139999999,-0.044666052,-0.029713114,-2.6479676000000003,-0.011046268,57205.0,20834.5,29675.0,1.5,-11.5,36.0,1,27_xacc_avg_constant_0
2023-01-02 09:26:45,300.393,0.0999999999999999,100.0,1206.5,24178.5,4878.5,98.6,1036.6,161.8,4878.6,82.43187999999999,2.833882,0.0878037739999999,-0.077947718,-2.7772284,57.322,0.100223464,-0.0771346719999999,-2.6562354,0.9894966,1.4263047000000002,11.452578399999998,0.0,-14.8,-292.1,72.7,56.4,64.6,-970.9,-10.7,304.6,1018.658,-3.638679600000001,3164.9,0.100223464,0.0378660718,-0.0771346719999999,0.0128525039999999,-2.6562354,-0.0057677207999999,57325.0,20778.0,29795.0,9.5,-14.5,31.0,1,27_xacc_avg_constant_0
2023-01-02 09:26:46,301.393,0.0999999999999999,100.0,1145.0,24155.0,4878.0,98.0,1157.1,165.1,4879.3,81.699368,2.9025184000000004,0.0813474,-0.07356101,-2.790745,57.336,0.094617986,-0.072726368,-2.667413,0.6730858599999999,1.3243166999999998,11.2088169,0.0,-3.1,-296.7,43.4,-43.0,59.4,-1093.7,-11.3,295.4,1018.6571,-3.639632699999999,3166.8,0.094617986,-0.0683026274,-0.072726368,-0.023982866,-2.667413,-0.0075456813999999,57335.0,20719.0,29805.0,27.5,-2.0,27.0,1,27_xacc_avg_constant_0
2023-01-02 09:26:47,302.3948,0.0999999999999999,100.0,1047.0,24211.5,4882.0,98.0,1065.5,168.1,4882.9,80.931762,2.9801518,0.05693968,-0.077728334,-2.7882016,57.342,0.072366916,-0.077786998,-2.6627874,0.7777029799999999,1.4623131,11.3996837,0.0,13.9,-286.6,43.9,20.7,54.0,-1026.4,2.2,312.1,1018.6659000000002,-3.6307188,3168.7,0.072366916,-0.0019708338,-0.077786998,0.05204945,-2.6627874,0.0014009386,57340.0,20742.5,29810.0,17.0,5.0,25.0,1,27_xacc_avg_constant_0
2023-01-02 09:26:48,303.393,0.0999999999999999,100.0,1183.5,24174.5,4882.5,98.0,1212.8,171.2,4878.5,80.234454,3.0626164000000005,0.065578776,-0.074334004,-2.7919708,57.282,0.080768574,-0.075427262,-2.6646226000000004,0.69797686,1.4040514000000002,11.554041799999998,0.0,-1.2,-293.8,44.0,-5.4,61.6,-1080.2,-15.7,304.2,1018.6473000000002,-3.6493516,3170.3,0.080768574,-0.037586766,-0.075427262,-0.035151106,-2.6646226000000004,-0.016888702,57280.0,20734.5,29750.0,12.0,6.5,22.5,1,27_xacc_avg_constant_0
2023-01-02 09:26:49,304.393,0.0999999999999999,100.0,976.0,24232.0,4882.5,98.0,1090.8,174.5,4884.8,79.61911,3.1468868000000003,0.060580888,-0.08092581,-2.794194,57.306,0.076052946,-0.082755906,-2.6655338000000004,0.7635457999999999,1.3351351,12.125937,0.0,-16.5,-288.1,64.0,20.0,56.2,-1031.6,7.2,306.6,1018.6247,-3.6719845,3172.4,0.076052946,0.0275616639999999,-0.082755906,0.0265426909999999,-2.6655338000000004,0.0037883204,57300.0,20728.0,29770.0,10.0,5.5,28.0,1,27_xacc_avg_constant_0
2023-01-02 09:26:50,305.393,0.0999999999999999,100.0,1118.0,24187.5,4882.5,98.0,1106.5,177.5,4880.6,79.07864400000001,3.232055199999999,0.067145346,-0.077989738,-2.8045142000000003,57.3,0.083092876,-0.080140306,-2.6741036,0.7476481500000001,1.3986681,13.144744,0.0,11.6,-291.9,74.9,6.6,58.1,-1058.2,1.4,301.7,1018.6205,-3.6761484,3174.2,0.083092876,-0.010271504,-0.080140306,-0.023925012,-2.6741036,0.0005525182,57300.0,20673.5,29770.0,8.5,9.5,16.0,1,27_xacc_avg_constant_0
2023-01-02 09:26:51,306.361,0.1022222222222176,100.0,805.0,24312.0,4890.0,98.0,994.8888888888888,180.22222222222223,4888.111111111111,78.59629000000001,3.3215641111111105,0.062135815,-0.0796676725,-2.80530125,57.2625,0.0778693175,-0.0820640774999999,-2.67449525,0.8201862222222223,1.477218777777778,13.282351111111112,0.0,5.888888888888889,-283.8888888888889,25.55555555555556,5.333333333333333,58.77777777777778,-1064.4444444444443,-18.55555555555556,315.1111111111111,1018.6267777777778,-3.669913111111111,3175.8888888888887,0.0778693175,0.04193369925,-0.0820640774999999,0.0188427825,-2.67449525,-0.0197180685,57260.0,20660.0,29730.0,2.5,7.0,26.5,1,27_xacc_avg_constant_0
2023-01-02 09:26:52,307.31319999999994,0.0999999999999999,100.0,896.0,24265.5,4881.0,98.0,792.7,182.7,4886.0,78.22304599999998,3.402244,0.070090714,-0.065610466,-2.821529,57.248000000000005,0.084875444,-0.068180652,-2.6900546,0.98276677,1.503752,11.1688798,24.5,26.6,-294.8,31.9,-8.9,65.3,-1032.9,-12.7,322.6,1018.6567,-3.6401797,3177.4,0.084875444,-0.030379116,-0.068180652,0.0349757899999999,-2.6900546,-0.009762978,57235.0,20570.0,29705.0,12.5,23.0,22.5,0,None
2023-01-02 09:26:53,308.3149,0.0999999999999999,100.0,1038.5,24166.0,4885.0,98.0,1017.8,185.0,4886.0,77.867988,3.4803404,0.034579046,-0.046460378,-2.8403952,57.128,0.0489870119999999,-0.0488287959999999,-2.7073616,0.94715585,1.2791115999999998,9.787419,22.7,15.3,-284.6,42.1,-61.9,58.0,-1074.7,-10.1,312.5,1018.6737,-3.623078,3179.2,0.0489870119999999,-0.0733681458,-0.0488287959999999,-0.014108649,-2.7073616,-0.0110109739999999,57100.0,20484.5,29570.0,24.5,21.5,23.0,0,None
2023-01-02 09:26:54,309.3149,0.0999999999999999,100.0,1092.0,24202.0,4881.0,98.0,1138.4,188.2,4877.8,77.55417,3.545161,0.024941939,-0.039647208,-2.8261774,57.048,0.040052496,-0.042919714,-2.69067,0.6799593799999999,1.12819842,10.82162,40.0,-10.3,-282.8,43.2,65.9,61.4,-1042.6,39.4,306.6,1018.6688888888888,-3.627708222222223,3181.0,0.040052496,0.065339732,-0.042919714,-0.0197532086,-2.69067,0.0464877188,57045.0,20618.5,29515.0,12.5,5.0,32.5,0,None
2023-01-02 09:26:55,310.3148,0.0999999999999999,100.0,1069.0,24192.0,4878.0,98.0,1055.6,191.1,4878.4,77.337372,3.5946364,0.0127147126,-0.049641678,-2.8143458000000003,57.062,0.0267561897999999,-0.052111072,-2.6784204000000003,0.6180878000000001,1.4342426,11.6288186,17.6,14.3,-272.7,24.8,-46.8,68.7,-1042.3,-8.8,319.6,1018.6975,-3.5992891,3182.5,0.0267561897999999,-0.006312534,-0.052111072,0.059110452,-2.6784204000000003,-0.0197054866,57070.0,20659.5,29540.0,6.5,5.0,32.0,0,None
2023-01-02 09:26:56,311.3131,0.0999999999999999,100.0,748.0,24288.0,4883.5,98.0,782.4,193.7,4882.3,77.26091399999999,3.6302933999999993,0.0114572301999999,-0.0244797,-2.8071502,57.074,0.02512969,-0.027101742,-2.6709064,0.81551482,1.3656132,8.5229942,13.2,23.7,-272.9,7.8,61.7,83.2,-1060.9,2.0,327.2,1018.7702,-3.5263360000000006,3184.3,0.02512969,0.0338158998,-0.027101742,-0.0110432132,-2.6709064,0.0017543819999999,57060.0,20697.0,29530.0,-8.0,6.0,38.5,0,None
2023-01-02 09:26:57,312.333,0.1020000000000038,100.0,836.5,24262.0,4882.0,98.0,873.7,196.0,4884.5,77.26468600000001,3.649945400000001,0.017760714,-0.0154932379999999,-2.8145302,56.96,0.02910207,-0.018386924,-2.6779708,0.9750215999999998,1.3007275,8.9128423,24.5,1.6,-273.6,28.2,2.5,88.8,-1056.8,-8.5,321.5,1018.7566,-3.5400779,3186.2,0.02910207,0.0143732399999999,-0.018386924,-0.0007299976,-2.6779708,-0.010097957,56945.0,20647.5,29415.0,0.0,-0.5,41.5,0,None
2023-01-02 09:26:58,313.333,0.0999999999999999,100.0,1011.0,24202.5,4885.5,98.0,1063.1,198.6,4886.5,77.21916999999999,3.655806399999999,0.017692533,-0.028325208,-2.8169106,56.928,0.028339046,-0.030700586,-2.6799728,0.8548977900000001,1.299857,9.8491008,16.7,-18.7,-279.0,37.6,33.7,68.1,-1059.9,8.5,307.4,1018.7078,-3.588914,3187.7,0.028339046,0.025281117,-0.030700586,-0.007905402,-2.6799728,0.0115333652,56930.0,20654.5,29400.0,-1.0,-13.5,37.0,0,None
2023-01-02 09:26:59,314.333,0.0999999999999999,100.0,1050.0,24184.5,4881.0,98.0,1075.9,201.7,4888.0,77.179148,3.6538222,0.020373468,-0.040358744,-2.8151764,56.96,0.031394034,-0.042400422,-2.6781072000000004,0.64497343,1.2594417,10.2733329,29.2,-15.2,-274.9,32.8,-2.8,68.7,-1042.2,-2.2,315.4,1018.6953,-3.6014219,3189.3,0.031394034,0.0024262202,-0.042400422,-0.0132265862,-2.6781072000000004,-0.007048442,56965.0,20657.5,29435.0,-2.5,-13.0,38.5,0,None
2023-01-02 09:27:00,315.333,0.0999999999999999,100.0,1137.0,24152.0,4883.5,98.0,1142.1,204.8,4888.6,77.16865,3.6516928,0.0376069319999999,-0.050196104,-2.8008188,57.01800000000001,0.049657452,-0.0530669619999999,-2.6635598000000003,0.69835803,1.3758647000000002,11.4056144,38.7,-23.4,-277.3,55.6,50.1,64.2,-1041.8,14.6,313.8,1018.6428000000002,-3.6538358,3191.1,0.049657452,0.0262981886,-0.0530669619999999,-0.0330263402,-2.6635598000000003,0.0124368739999999,57030.0,20746.0,29500.0,-7.5,-24.5,34.0,0,None
2023-01-02 09:27:01,316.333,0.0999999999999999,100.0,983.5,24209.5,4884.5,98.0,937.3,207.8,4890.5,77.16656800000001,3.657841,0.03757792,-0.07388417,-2.8159514000000003,57.166,0.049332614,-0.07577007,-2.6781526,0.88483873,1.2730685999999998,9.896916999999998,5.0,-14.7,-278.1,50.6,-28.3,62.6,-1024.2,-27.6,308.8,1018.6308,-3.6658515,3192.7,0.049332614,0.0072880619999999,-0.07577007,-0.0257395339999999,-2.6781526,-0.025863784,57195.0,20633.0,29665.0,-0.5,-10.5,26.0,0,None
2023-01-02 09:27:02,317.333,0.0999999999999999,100.0,952.0,24212.5,4884.0,98.0,967.0,210.2,4885.8,77.131856,3.671244,0.032064496,-0.066126404,-2.8198853999999995,57.2,0.046982686,-0.067763998,-2.6809926,0.84326241,1.4259723,10.0405042,13.1,27.4,-276.3,15.0,16.2,57.4,-1026.5,6.4,321.4,1018.6333,-3.6633125,3194.4,0.046982686,-0.0035940866,-0.067763998,0.039309058,-2.6809926,0.0063143718,57195.0,20657.0,29665.0,-11.0,10.5,22.5,0,None
2023-01-02 09:27:03,318.337,0.1019999999999981,100.0,963.5,24210.0,4883.0,98.0,1071.6,213.1,4889.6,77.06317,3.6886951999999993,0.0634761716666666,-0.0493351233333333,-2.8034171666666663,57.16333333333333,0.0782693683333333,-0.0525503566666666,-2.6646110000000003,0.77373852,1.4477146,11.3293254,34.95,-6.45,-282.75,50.5,24.55,71.25,-1117.3,13.05,316.5,1018.6215500000002,-3.675203,3195.9,0.0782693683333333,0.0397511708333333,-0.0525503566666666,-0.0158933071833333,-2.6646110000000003,0.008688159,57155.0,20747.5,29625.0,-4.5,14.0,19.0,0,None
2023-01-02 09:27:04,319.3532,0.0999999999999999,100.0,1070.5,24159.5,4868.5,98.0,989.7777777777778,216.11111111111111,4880.2,76.94349600000001,3.7090834,0.076537468,-0.0482382499999999,-2.795599,57.178,0.089939918,-0.0506357639999999,-2.6568718,0.91613313,1.4144496999999998,10.6016111,69.7,13.5,-290.2,21.6,2.3,72.0,-1012.0,-14.8,299.4,1018.6337,-3.663078,3197.4,0.089939918,-0.0019912559999999,-0.0506357639999999,0.0053878012,-2.6568718,-0.017791169,57180.0,20782.0,29650.0,0.5,17.0,21.0,0,None
2023-01-02 09:27:05,320.35479999999995,0.1018000000000028,100.0,1153.0,24122.0,4880.0,98.0,1085.4,218.9,4883.3,76.746862,3.7334328,0.079065784,-0.033917446,-2.8031288000000005,57.124,0.091775012,-0.035528452,-2.6635802,0.8032227000000001,1.28020054,8.906665700000001,50.5,13.9,-292.7,2.3,-11.4,74.7,-1063.2,-22.9,301.3,1018.676,-3.6205624,3199.2,0.091775012,-0.0032405207999999,-0.035528452,0.001167466,-2.6635802,-0.02231889,57125.0,20741.0,29595.0,12.0,22.0,25.0,0,None
2023-01-02 09:27:06,321.35299999999995,0.098199999999997,100.0,1043.5,24166.0,4881.5,98.0,1043.9,221.9,4883.3,76.446466,3.7599514,0.068495242,-0.0266852479999999,-2.8004808000000003,57.08,0.080971718,-0.027758366,-2.6609522,0.7773726100000001,1.4830184,11.128255500000002,54.0,-7.6,-289.2,6.3,-17.5,85.5,-1119.4,3.2,296.8,1018.6784,-3.6182421,3200.6,0.080971718,-0.01951624,-0.027758366,-0.0148432236,-2.6609522,0.0051712174,57080.0,20759.5,29550.0,29.0,17.5,32.5,0,None
2023-01-02 09:27:07,322.3531,0.0999999999999999,100.0,1071.0,24128.0,4888.0,98.0,1156.8,224.8,4884.7,76.036974,3.7848804,0.067659086,-0.033331212,-2.805952,57.078,0.07861751,-0.033518622,-2.6664834,0.75032601,1.3250006,9.3826345,62.0,2.0,-287.2,24.7,10.1,75.7,-1051.6,-24.6,293.7,1018.6731999999998,-3.6233985,3202.2,0.07861751,0.0122893002,-0.033518622,-0.0067267664,-2.6664834,-0.0244469184,57080.0,20720.0,29550.0,36.5,10.5,28.5,0,None
2023-01-02 09:27:08,323.3532,0.0999999999999999,100.0,1100.5,24139.0,4885.5,98.0,1153.8,228.2,4890.7,75.611234,3.8059964,0.058404332,-0.043518122,-2.8124662,57.10600000000001,0.069367124,-0.044696638,-2.6731138000000003,0.70647381,1.379141,9.95458,67.2,-4.1,-282.5,36.9,20.2,69.3,-1021.4,-20.8,309.8,1018.632,-3.6645547,3203.4,0.069367124,0.0122916239999999,-0.044696638,0.00437589004,-2.6731138000000003,-0.0204715774,57110.0,20693.0,29580.0,31.0,1.5,27.0,0,None
2023-01-02 09:27:09,324.3571,0.1021000000000014,100.0,1181.6666666666667,24103.666666666668,4885.333333333333,98.0,1180.4,231.6,4889.5,75.220652,3.8267396,0.0608727119999999,-0.048886252,-2.8253542,57.152,0.071038592,-0.050672336,-2.6866012,0.6354162,1.2507429,9.2586418,50.4,-9.9,-290.7,37.0,45.2,62.4,-1028.2,-5.2,307.3,1018.6413,-3.6553359,3205.2,0.071038592,0.033443394,-0.050672336,-0.0185886539999999,-2.6866012,-0.0131973059999999,57155.0,20603.0,29625.0,30.5,-7.5,28.0,0,None
2023-01-02 09:27:10,325.391,0.1019000000000005,100.0,1189.5,24110.0,4882.0,98.0,1185.0,234.8,4884.1,74.849514,3.8482718,0.042955158,-0.0617782999999999,-2.8199956,57.138,0.053120172,-0.063548644,-2.6808914,0.5488728500000001,1.2417005199999998,9.5613158,39.7,5.6,-282.0,23.2,-12.0,53.6,-1062.0,15.1,304.2,1018.6483999999998,-3.6482656,3206.4,0.053132452,-0.0193176908,-0.063464406,0.02193172624,-2.6810092,0.0165801788,57140.0,20636.5,29610.0,24.5,8.0,21.5,0,None
2023-01-02 09:27:11,326.3931,0.0999999999999999,100.0,940.5,24186.5,4885.5,98.0,990.0,238.0,4884.1,74.52751599999999,3.871426000000001,0.028784014,-0.03703264,-2.814056,57.148,0.0393388539999999,-0.040273098,-2.6763636,0.83956143,1.2995816000000002,9.2425729,50.6,5.0,-273.1,-0.7,27.4,70.9,-1103.0,11.7,326.9,1018.6657,-3.630961,3207.7,0.0393388539999999,0.0469055947999999,-0.040273098,0.0236659782,-2.6763636,0.0073679592,57150.0,20662.0,29620.0,5.5,10.5,34.0,0,None
2023-01-02 09:27:12,327.393,0.0999999999999999,100.0,1245.0,24078.0,4887.0,98.0,1023.8,240.7,4883.4,74.284186,3.891076200000001,0.060500888,-0.022379806,-2.812187,57.14,0.069225886,-0.02641764,-2.6752816,0.8572281400000001,1.3027628000000002,9.7260762,51.9,12.2,-285.8,18.2,32.4,80.7,-1049.6,9.7,305.6,1018.6411,-3.6556328,3209.2,0.069225886,0.056381112,-0.02641764,0.01264882,-2.6752816,0.0136168799999999,57145.0,20669.0,29615.0,-2.5,2.0,21.0,0,None
2023-01-02 09:27:13,328.393,0.0999999999999999,100.0,1037.5,24154.0,4881.5,98.0,1038.0,243.7,4885.4,74.04681199999999,3.9064692,0.061822822,-0.045081438,-2.8083888,57.158,0.06909794,-0.047629026,-2.6723626,0.8045353500000001,1.3826605,10.5974068,41.6,-38.8,-282.9,32.5,-32.3,75.6,-1024.8,-16.4,310.5,1018.6006,-3.6961560000000007,3210.6,0.06909794,-0.0351841082,-0.047629026,-0.061686834,-2.6723626,-0.0217974138,57155.0,20686.0,29625.0,19.5,-6.5,20.0,0,None
2023-01-02 09:27:14,329.393,0.0999999999999999,100.0,953.0,24198.5,4884.5,98.0,999.8,246.4,4879.7,73.77397400000001,3.9212898,0.0415324359999999,-0.048712392,-2.817552,57.234,0.0505445739999999,-0.0506513739999999,-2.6816188,0.8955381499999999,1.2939693,9.1682422,56.0,49.5,-274.1,-4.6,-1.5,63.7,-1048.0,-15.8,312.1,1018.6267,-3.6698985,3212.3,0.0505445739999999,0.010572024,-0.0506513739999999,0.041738106,-2.6816188,-0.0114659168,57235.0,20645.0,29705.0,14.0,10.0,12.5,0,None
2023-01-02 09:27:15,330.3475555555555,0.1022222222222176,100.0,850.0,24194.0,4885.0,98.0,929.2222222222222,248.88888888888889,4880.555555555556,73.53513111111108,3.936602,0.0380537225,-0.021388515,-2.8303587500000003,57.255,0.04821652,-0.025256105,-2.6948105,0.9917054666666666,1.377243,9.132492777777776,10.555555555555555,-10.22222222222222,-277.1111111111111,-19.0,24.11111111111111,71.44444444444444,-966.1111111111112,-5.666666666666667,320.22222222222223,1018.6207777777776,-3.675850555555556,3213.555555555556,0.0486791825,0.0221659445,-0.025001165,-0.0280173625,-2.6948555,-0.0016107687499999,57250.0,20556.0,29720.0,15.5,11.0,15.0,0,None
2023-01-02 09:27:16,331.31319999999994,0.0999999999999999,100.0,1006.0,24173.0,4884.0,98.0,980.2,251.5,4880.5,73.295088,3.9495999999999993,0.035237468,-0.0366337719999999,-2.8221758,57.25599999999999,0.045466614,-0.040157486,-2.6868488,0.79892625,1.2711412,9.0504678,47.5,-6.3,-279.9,24.8,14.5,68.8,-1038.8,17.9,316.4,1018.593,-3.703836555555556,3214.777777777778,0.045466614,-0.0193670639999999,-0.040157486,0.003390894,-2.6868488,0.011628256,57270.0,20621.0,29740.0,9.0,7.0,14.0,0,None
2023-01-02 09:27:17,332.3131,0.0999999999999999,100.0,969.0,24153.0,4884.5,98.0,988.6,254.2,4884.6,73.09442200000001,3.9587056,0.054032196,-0.033915544,-2.810992,57.282,0.064081094,-0.037634916,-2.6769694,0.87108718,1.3365621,10.0391816,39.7,27.4,-276.8,40.2,50.4,75.2,-1045.9,-0.7,307.2,1018.6048,-3.6918749000000006,3216.3,0.064081094,0.05644806,-0.037634916,0.01499383,-2.6769694,0.003661638,57270.0,20670.0,29740.0,1.5,8.5,9.5,0,None
2023-01-02 09:27:18,333.3172,0.1001000000000033,100.0,1110.5,24132.5,4885.5,98.0,1024.5,257.1,4888.2,72.89211200000001,3.9673276,0.06410456,-0.02612861,-2.8117374,57.226,0.072946902,-0.0293877159999999,-2.6779516,0.7881177899999999,1.4833865,9.5269741,33.8,-5.9,-287.0,18.1,-18.5,72.0,-1092.0,-1.5,305.5,1018.6422,-3.654624800000001,3217.7,0.072946902,-0.036203344,-0.0293877159999999,0.0023082578,-2.6779516,-0.0010626358,57220.0,20654.5,29690.0,15.5,6.5,18.0,0,None
2023-01-02 09:27:19,334.3157,0.0999999999999999,100.0,915.5,24210.0,4887.0,98.0,971.4,259.9,4888.4,72.63899,3.976406400000001,0.0624282739999999,-0.0296696219999999,-2.8036644,57.23199999999999,0.072411596,-0.032068738,-2.6713554,0.93262301,1.2535949,10.731423799999998,48.5,10.0,-280.3,3.1,25.8,82.3,-1087.4,6.5,306.8,1018.6178000000002,-3.6788515,3219.2,0.072411596,0.011542668,-0.032068738,0.021120194,-2.6713554,0.0010792943999999,57235.0,20708.5,29705.0,18.5,12.0,18.0,0,None
2023-01-02 09:27:20,335.3174,0.0999999999999999,100.0,939.0,24206.0,4886.0,98.0,1012.4,262.6,4888.7,72.35351,3.986236000000001,0.070172162,-0.024509188,-2.8014052,57.248000000000005,0.079583176,-0.0268181139999999,-2.6697812,0.8623694500000001,1.4071615,11.2658646,52.1,-14.8,-283.0,33.9,15.8,78.7,-1016.5,-6.9,307.9,1018.5929000000002,-3.7037656,3220.5,0.079583176,0.056791002,-0.0268181139999999,-0.00134944,-2.6697812,-0.0048891454,57250.0,20704.5,29720.0,27.5,6.5,13.0,1,27_xgyro_avg_constant_-14.8
2023-01-02 09:27:21,336.3174,0.0999999999999999,100.0,952.0,24209.0,4885.0,98.0,969.4,265.4,4889.9,72.03451399999999,3.9963968,0.06781542,-0.032562252,-2.801757,57.254,0.0763854619999999,-0.033866324,-2.6707664,0.8667722,1.3960151,10.2934422,70.6,-14.8,-285.4,-28.8,-22.0,74.3,-1118.0,-12.9,299.7,1018.6159,-3.6806796,3221.8,0.0763854619999999,-0.035343498,-0.033866324,-0.010270134,-2.6707664,-0.0089408226,57255.0,20691.0,29725.0,33.0,5.5,20.0,1,27_xgyro_avg_constant_-14.8
2023-01-02 09:27:22,337.3157,0.0999999999999999,100.0,938.0,24210.0,4883.5,98.0,939.3,268.0,4886.5,71.70217,4.0072202,0.051265538,-0.0353217559999999,-2.80722,57.238,0.0599821599999999,-0.036563724,-2.6766136,0.92362009,1.4122987,10.7029027,20.4,-14.8,-281.3,-10.8,10.4,72.0,-1034.4,-1.6,319.8,1018.6214,-3.6753437,3223.3,0.0599821599999999,0.0337987222,-0.036563724,0.002817923,-2.6766136,0.0004239171999999,57235.0,20657.5,29705.0,29.0,18.5,19.5,1,27_xgyro_avg_constant_-14.8
2023-01-02 09:27:23,338.3174,0.0999999999999999,100.0,837.0,24225.5,4882.5,98.0,891.3,270.5,4881.8,71.385414,4.0180908,0.053507542,-0.02284963,-2.8142184,57.20399999999999,0.061718132,-0.024301918,-2.685928,1.1476263,1.3041908,11.1451569,24.0,-14.8,-278.5,13.6,9.4,84.4,-1036.0,-18.1,313.9,1018.652,-3.6447031,3224.7,0.061718132,-0.009913014,-0.024301918,0.013992302,-2.685928,-0.0242152819999999,57185.0,20591.0,29655.0,31.5,16.5,23.0,1,27_xgyro_avg_constant_-14.8
2023-01-02 09:27:24,339.314,0.0999999999999999,100.0,962.0,24201.0,4881.5,98.0,878.6,273.0,4880.2,71.079046,4.0270212,0.046842364,-0.028477844,-2.825937,57.165,0.0577089824999999,-0.0289293899999999,-2.697229,1.02934859,1.1804752,10.3553715,11.6,-14.8,-278.4,38.0,17.8,65.0,-1112.6,-10.8,314.4,1018.6186999999998,-3.6779373,3226.4,0.054620592,0.0378677864,-0.029860098,0.014784443,-2.6970398,-0.0140326569999999,57165.0,20543.0,29635.0,23.0,12.0,23.0,1,27_xgyro_avg_constant_-14.8
2023-01-02 09:27:25,340.3157,0.0999999999999999,100.0,920.0,24219.5,4886.5,98.0,871.6,275.5,4878.8,70.789192,4.0342398,0.04673194,-0.022367904,-2.8287553999999995,57.174,0.0528248959999999,-0.024164016,-2.6997814,1.1303373,1.2891936999999998,9.189355099999998,10.7,-14.8,-287.1,7.4,-30.9,57.8,-1069.7,1.6,308.8,1018.6445,-3.6520624,3227.4,0.0528248959999999,-0.0405498314,-0.024164016,5.4892640000000006e-05,-2.6997814,0.002721743,57170.0,20530.0,29640.0,31.0,8.5,22.0,1,27_xgyro_avg_constant_-14.8
2023-01-02 09:27:26,341.3157,0.0999999999999999,100.0,841.5,24249.0,4877.5,98.0,868.6,277.8,4883.0,70.516882,4.0389952,0.025987394,-0.039689114,-2.8285042,57.148,0.03252938,-0.04118733,-2.7003874,1.0862411799999998,1.4198444,9.314531,7.1,-14.8,-273.0,20.9,3.9,61.1,-1004.0,2.4,307.5,1018.6369,-3.6596795,3228.7,0.03252938,0.013415414,-0.04118733,-0.04089524078,-2.7003874,0.0028184908,57140.0,20532.0,29610.0,29.5,5.5,22.0,1,27_xgyro_avg_constant_-14.8
2023-01-02 09:27:27,342.314,0.0999999999999999,100.0,1004.0,24173.5,4885.0,98.0,979.1,280.4,4882.5,70.30313799999999,4.0411884,0.0202496,-0.039994816,-2.8265596000000004,57.14,0.02667937,-0.04209316,-2.700615,0.83258683,1.5502045,11.5690054,13.1,-14.8,-273.9,47.4,13.5,68.8,-1045.0,-1.2,320.2,1018.6377,-3.6590704,3230.3,0.02667937,0.009066208,-0.04209316,0.034067724,-2.700615,-0.0049646997999999,57140.0,20522.0,29610.0,19.5,1.0,25.5,1,27_xgyro_avg_constant_-14.8
2023-01-02 09:27:28,343.3155,0.0998999999999966,100.0,852.0,24210.0,4886.5,98.0,928.4,283.0,4891.3,70.17115600000001,4.041252399999999,0.023345716,-0.058291222,-2.8178718000000003,57.13199999999999,0.02989338,-0.060245486,-2.6936878,0.8424366899999999,1.4563895,11.4150915,36.8,-14.8,-265.1,35.7,16.9,62.5,-1127.3,14.0,315.8,1018.6321000000002,-3.6645388999999993,3231.7,0.02989338,0.010796062,-0.060245486,-0.031543842,-2.6936878,0.0099453916,57130.0,20578.0,29600.0,4.5,10.5,32.5,1,27_xgyro_avg_constant_-14.8
2023-01-02 09:27:29,344.314,0.1001000000000033,100.0,887.0,24223.0,4888.5,98.0,912.5,285.5,4893.1,70.11009800000001,4.0401342,0.046060332,-0.042308024,-2.8121402,57.136,0.052691248,-0.044760754,-2.689139,0.98756359,1.4746265,9.676934,-15.2,-14.8,-280.4,48.6,7.6,66.7,-1063.7,-13.7,319.1,1018.6453,-3.651406299999999,3233.1,0.052691248,-0.0090769138,-0.044760754,0.009624916,-2.689139,-0.0148654681999999,57130.0,20579.0,29600.0,4.5,19.5,25.5,1,27_xgyro_avg_constant_-14.8
2023-01-02 09:27:30,345.3157,0.0999999999999999,100.0,935.0,24184.0,4884.0,98.0,882.3,288.2,4894.3,70.060494,4.040449199999999,0.0383236,-0.0371945525,-2.811443,57.11,0.043339706,-0.040482788,-2.6889246,0.8721587699999999,1.5719995,10.293705,51.4,-14.8,-277.6,-5.2,11.7,70.7,-1051.3,13.8,325.7,1018.6379999999996,-3.6587031,3234.4,0.043339706,0.035167752,-0.040482788,-0.028751538,-2.6889246,0.0187835096,57105.0,20607.0,29575.0,7.0,13.0,27.0,1,27_xgyro_avg_constant_-14.8
2023-01-02 09:27:31,346.3177,0.0999999999999999,100.0,948.5,24202.0,4886.5,98.0,992.4,290.7,4892.0,70.005908,4.0414118000000006,0.048417714,-0.036026554,-2.8002758,57.056,0.055025572,-0.037624954,-2.6802428000000003,0.9280310900000002,1.3167219,9.4829322,42.0,-14.8,-279.6,15.9,30.1,73.2,-1066.7,5.1,312.7,1018.6492,-3.6475389000000007,3235.7,0.055025572,0.023592688,-0.037624954,0.054253418,-2.6802428000000003,0.0042490578,57035.0,20659.5,29505.0,-3.0,12.5,23.0,1,27_xgyro_avg_constant_-14.8
2023-01-02 09:27:32,347.314,0.0999999999999999,100.0,940.0,24178.5,4892.0,98.0,983.0,293.4,4889.1,69.93997399999998,4.0427002000000005,0.068369582,-0.0155933662,-2.790934,56.978,0.0751385,-0.017351314,-2.6714124000000004,0.8122320999999999,1.3874922,8.243542899999998,44.1,-14.8,-284.0,18.2,27.1,79.9,-1075.4,-1.7,301.6,1018.6778000000002,-3.6189922,3237.2,0.0751385,0.030109744,-0.017351314,0.019393884,-2.6714124000000004,-0.0041578872,56960.0,20691.5,29430.0,16.0,3.0,28.5,1,27_xgyro_avg_constant_-14.8
2023-01-02 09:27:33,348.316,0.0999999999999999,100.0,1053.5,24162.5,4883.5,98.0,1057.8,296.3,4888.8,69.81328799999999,4.044271799999999,0.060676464,-0.032079188,-2.7912666,56.898,0.0672210999999999,-0.03247941,-2.672878,0.76332948,1.2416184,8.924069400000002,26.6,-14.8,-280.5,20.1,-24.8,75.2,-1086.3,3.3,304.7,1018.6799,-3.6168124,3238.5,0.0672210999999999,0.0070041731999999,-0.03247941,-0.0446922152,-2.672878,0.00051056342,56880.0,20693.0,29350.0,42.0,0.5,29.5,1,27_xgyro_avg_constant_-14.8
2023-01-02 09:27:34,349.316,0.0999999999999999,100.0,1044.0,24146.0,4886.5,98.0,1098.4444444444443,299.3333333333333,4883.1,69.66877400000001,4.0466728,0.0396345159999999,-0.043712758,-2.7872582,56.836,0.048093936,-0.044153056,-2.6691942,0.6703063400000001,1.32186955,12.236259,30.5,-4.0,-275.8,34.5,10.7,69.1,-1058.2,5.0,310.9,1018.6596000000002,-3.6371173,3239.8,0.048093936,0.0097442596,-0.044153056,-0.0034923099999999,-2.6691942,0.0095853173999999,56830.0,20712.0,29300.0,39.0,-1.0,29.5,0,None
2023-01-02 09:27:35,350.316,0.0999999999999999,100.0,1037.0,24139.5,4877.0,98.0,1061.1,302.3,4883.9,69.553072,4.0505496,0.0295440319999999,-0.054484356,-2.786302,56.80400000000001,0.037902434,-0.0554110299999999,-2.6700121999999995,0.7196400599999999,1.2208646,10.500403600000002,31.7,2.3,-273.2,33.8,1.4,65.6,-1057.7,-9.9,320.8,1018.6700999999996,-3.6264921,3241.3,0.037902434,-0.027348036,-0.0554110299999999,-0.00660318,-2.6700121999999995,-0.0093139642,56795.0,20688.5,29265.0,26.0,0.5,31.5,0,None
2023-01-02 09:27:36,351.316,0.0999999999999999,100.0,1091.0,24133.5,4887.5,98.0,1073.8,305.3,4883.5,69.47322199999999,4.0551418,0.035639208,-0.055366448,-2.786385,56.766000000000005,0.04446492,-0.0578832259999999,-2.6720904,0.64193266,1.2787536,10.9400431,19.0,-14.9,-273.0,32.7,21.8,78.0,-1054.8,-0.5,313.4,1018.6586,-3.638164,3242.3,0.04446492,0.0540064164,-0.0578832259999999,-0.0144619308,-2.6720904,0.0034448656659999,56760.0,20698.5,29230.0,11.5,6.0,32.5,0,None
2023-01-02 09:27:37,352.314,0.0999999999999999,100.0,1123.5,24089.0,4886.0,98.0,1128.4,308.3,4883.7,69.43731,4.0605202,0.042032214,-0.046133944,-2.7803388,56.71600000000001,0.05086758,-0.0483201319999999,-2.6674726,0.53755923,1.19711483,10.2441814,24.0,30.3,-278.4,21.6,19.3,75.8,-1043.8,-2.1,318.7,1018.6709,-3.6258046,3243.8,0.05086758,0.0133791734,-0.0483201319999999,0.04012805,-2.6674726,-0.0051925708,56705.0,20718.5,29175.0,10.0,18.5,29.0,0,None
2023-01-02 09:27:38,353.316,0.0999999999999999,100.0,1104.0,24117.0,4886.0,98.0,1133.3,311.5,4889.2,69.42574400000001,4.0666846,0.02951004,-0.030964812,-2.7823816,56.648,0.0384773319999999,-0.033336924,-2.6695124,0.5862730899999999,1.19513318,9.2827891,29.0,-0.9,-275.7,15.5,-7.1,70.6,-1099.4,-0.1,288.6,1018.692,-3.6047811,3245.2,0.0384773319999999,-0.009372366,-0.033336924,-0.0027097989999999,-2.6695124,0.00092081626,56630.0,20704.5,29100.0,7.5,12.5,32.0,0,None
2023-01-02 09:27:39,354.3159,0.0998999999999966,100.0,1079.0,24132.0,4890.5,98.0,1089.8,314.6,4892.2,69.415786,4.071255799999999,0.036620922,-0.027877766,-2.7832494,56.576,0.045609406,-0.030241012,-2.6709574,0.6301232600000001,1.21099789,9.1436981,32.4,8.2,-270.9,30.7,26.9,77.8,-1076.0,-1.4,313.8,1018.6858000000002,-3.6108591999999993,3246.4,0.045609406,0.0275118419999999,-0.030241012,0.0121670216,-2.6709574,0.0023389506,56570.0,20685.5,29040.0,1.5,4.5,34.0,0,None
2023-01-02 09:27:40,355.314,0.1001000000000033,100.0,1035.5,24129.5,4886.5,98.0,1063.0,317.6,4889.5,69.398066,4.073957399999999,0.05742539,-0.023959132,-2.7857276,56.538,0.065336976,-0.025451894,-2.6746818,0.67145581,1.2669591999999998,8.9590317,31.8,-7.0,-283.4,25.4,3.1,77.4,-1085.4,-3.5,298.8,1018.6878,-3.6088592,3247.8,0.065336976,0.0026608007999999,-0.025451894,-0.00625987326,-2.6746818,-0.00750608788,56530.0,20677.5,29000.0,13.5,-1.0,32.5,0,None
2023-01-02 09:27:41,356.31590000000006,0.0999999999999999,100.0,1111.5,24109.5,4887.5,98.0,1096.1,320.6,4893.1,69.33521599999999,4.076423800000001,0.0555106879999999,-0.035159432,-2.7854222,56.502,0.063904646,-0.036180108,-2.6758106,0.67982491,1.2755858,9.9744228,32.8,-8.7,-279.3,26.3,-0.6,79.2,-1058.5,2.1,309.3,1018.6774,-3.6192498,3249.1,0.063904646,-0.0080673822,-0.036180108,-0.021537751,-2.6758106,0.0024493862,56495.0,20668.5,28965.0,27.0,0.0,33.5,0,None
2023-01-02 09:27:42,357.31590000000006,0.0999999999999999,100.0,1052.5,24095.5,4889.5,97.9,1030.1,323.5,4889.8,69.250202,4.079719200000001,0.0361901419999999,-0.0424143799999999,-2.7798638,56.508,0.0453416539999999,-0.04271364,-2.6716336,0.7150783300000001,1.20141366,8.859963899999999,34.4,-1.6,-276.6,5.0,-4.7,74.1,-1094.7,9.2,315.7,1018.6985,-3.5982186000000005,3250.5,0.0453416539999999,-0.0092413239999999,-0.04271364,-0.00865048468,-2.6716336,0.0131051756,56505.0,20706.0,28975.0,23.0,7.5,35.5,0,None
2023-01-02 09:27:43,358.316,0.0999999999999999,100.0,1114.0,24090.0,4889.0,97.0,1130.9,326.5,4890.9,69.16766399999997,4.0836028,0.056782526,-0.023968444,-2.7766934,56.474,0.066284228,-0.025022754,-2.668727,0.64396323,1.196803,8.956886599999999,24.5,13.8,-277.3,17.7,24.4,72.2,-1044.1,-16.0,308.9,1018.6863,-3.6103827,3251.6,0.066284228,0.0306333499999999,-0.025022754,0.0126401501999999,-2.668727,-0.0174223602,56465.0,20706.0,28935.0,25.5,8.5,32.0,0,None
2023-01-02 09:27:44,359.31800000000004,0.0999999999999999,100.0,1147.5,24056.5,4886.5,97.0,1148.7,329.7,4890.7,69.08206799999999,4.087192400000001,0.040711536,-0.039309788,-2.7834494,56.5,0.049338088,-0.0406372699999999,-2.675796,0.5581287100000001,1.2894605999999995,10.4822111,31.7,-13.1,-276.5,37.1,-18.0,72.2,-1079.9,-0.9,307.9,1018.6567,-3.640140399999999,3252.6,0.049338088,-0.0475952687999999,-0.0406372699999999,-0.010816137,-2.675796,0.003410127,56515.0,20659.5,28985.0,32.0,3.5,32.0,0,None
2023-01-02 09:27:45,360.318,0.0999999999999999,100.0,1123.5,24092.0,4883.5,97.0,1145.3,332.8,4887.2,68.993232,4.0907286,0.03377008,-0.044039888,-2.7815058,56.542,0.0433557879999999,-0.045348708,-2.6746888,0.58832487,1.1651732,8.8456896,25.1,11.5,-272.5,5.3,6.2,67.0,-1102.0,11.9,303.1,1018.663,-3.6336483,3253.9,0.0433557879999999,0.0117265047999999,-0.045348708,0.0177610798,-2.6746888,0.0138438172,56545.0,20699.0,29015.0,17.5,4.5,28.0,0,None
2023-01-02 09:27:46,361.324,0.1019999999999981,100.0,1213.5,24048.0,4884.5,97.0,1191.1,336.2,4880.9,68.91964800000001,4.0943570000000005,0.048257748,-0.034395016,-2.7772466,56.54,0.0575319319999999,-0.035987858,-2.6708604,0.5539752499999999,1.2054836,8.5344011,26.0,15.3,-278.4,4.0,2.2,72.6,-1067.7,4.0,303.8,1018.6708999999998,-3.6256876,3255.5,0.0575319319999999,-0.024500337,-0.035987858,0.017321915,-2.6708604,0.0051667542,56540.0,20684.5,29010.0,18.0,9.5,29.0,0,None
2023-01-02 09:27:47,362.354,0.1019999999999981,100.0,1098.5,24097.5,4879.5,97.0,1096.0,339.3,4886.4,68.85189399999999,4.0982468,0.026721994,-0.03497964,-2.7773834,56.548,0.036303914,-0.036485508,-2.6717156,0.57330187,1.14491316,8.3952896,26.1,15.85,-271.95,17.65,25.7,73.45,-1050.55,21.4,311.1,1018.6595,-3.63719905,3256.5,0.036303914,-0.0229940379999999,-0.036485508,-0.0060317867999999,-2.6717156,0.0105328118,56550.0,20693.0,29020.0,8.0,11.5,29.0,0,None
2023-01-02 09:27:48,363.376,0.104000000000002,100.0,1138.6666666666667,24073.666666666668,4882.333333333333,97.0,1139.9,342.7,4883.0,68.80032,4.100900600000001,0.0487903283333333,-0.013734964,-2.775364,56.5,0.0584779933333333,-0.0152991816666666,-2.6709211666666666,0.5577639999999999,1.21468963,8.4460099,10.0,9.9,-280.5,-9.0,26.1,85.6,-1051.8,-5.0,311.2,1018.6934,-3.6031719,3257.7,0.0584779933333333,0.0105710394999999,-0.0152991816666666,0.0028700748333333,-2.6709211666666666,0.0008278094999999,56490.0,20697.5,28960.0,12.0,14.0,28.5,0,None
2023-01-02 09:27:49,364.394,0.0999999999999999,100.0,1057.5,24093.0,4887.5,97.0,1081.1,345.8,4882.5,68.72734,4.1017684,0.030381444,-0.0084223351999999,-2.787346,56.456,0.040758274,-0.0088958329999999,-2.6833073999999995,0.51456356,1.0966147000000004,8.4755785,17.1,4.6,-277.9,7.6,-12.7,78.4,-1030.5,-15.9,315.0,1018.6728,-3.6239689,3259.2,0.040758274,0.007510456,-0.0088958329999999,3.401239999999972e-05,-2.6833073999999995,-0.0006584675999999,56455.0,20623.0,28925.0,24.0,8.0,36.0,0,None
2023-01-02 09:27:50,365.344,0.1000000000000037,100.0,1057.0,24075.0,4893.0,97.0,1076.4444444444443,348.6666666666667,4886.222222222223,68.62509666666666,4.1001988888888885,0.0293764275,-0.02244307,-2.77867,56.475,0.0388133725,-0.0231570925,-2.67485175,0.5198131666666668,1.327277,9.302521666666667,28.33333333333333,-20.77777777777778,-271.8888888888889,25.77777777777778,-22.77777777777778,76.66666666666667,-1150.6666666666667,20.22222222222222,316.8888888888889,1018.688888888889,-3.607725666666667,3260.333333333333,0.0388133725,0.02054844825,-0.0231570925,-0.005882865,-2.67485175,0.0014996599999999,56475.0,20672.0,28945.0,21.0,2.5,31.0,0,None
2023-01-02 09:27:51,366.3139,0.1018999999999948,100.0,1054.5,24101.0,4889.0,97.0,1075.6,351.5,4890.5,68.506716,4.0958282,0.035162856,-0.018029098,-2.781941600000001,56.470000000000006,0.044889438,-0.018940916,-2.678819,0.6148516500000001,1.4165769,8.4873188,26.3,-8.0,-269.0,22.4,41.5,79.2,-1129.9,2.6,315.0,1018.6729,-3.6237888,3261.6,0.044889438,0.0287996366,-0.018940916,-0.0221517077999999,-2.678819,-0.0186168348,56470.0,20654.0,28940.0,20.5,0.5,31.0,0,None
2023-01-02 09:27:52,367.346,0.1040999999999996,100.0,1114.0,24057.0,4886.0,97.0,1125.6,354.5,4890.8,68.398604,4.0904814,0.03777244,-0.0304342259999999,-2.7863614,56.472,0.0471060039999999,-0.030561432,-2.68345,0.50270472,1.12400355,6.647554,25.75,0.3,-279.25,21.75,-17.5,72.6,-1101.5,-5.0,307.1,1018.6758999999998,-3.62078515,3263.1,0.0471060039999999,-0.0148168659999999,-0.030561432,0.0075667094,-2.68345,-0.037224898,56470.0,20614.0,28940.0,23.5,13.0,30.0,0,None
2023-01-02 09:27:53,368.358,0.0999999999999999,100.0,1169.0,24048.0,4888.0,97.0,1128.0,357.8,4888.2,68.29432599999998,4.085467199999999,0.029696092,-0.01226984724,-2.7883812,56.456,0.040501258,-0.0127147418,-2.6854318000000004,0.52132627,1.0219343,7.0163612,36.9,5.2,-277.4,19.9,10.4,78.2,-1076.1,12.7,305.7,1018.6742,-3.6225234,3264.4,0.040501258,0.0142102239999999,-0.0127147418,0.0115937696,-2.6854318000000004,-0.0058480638,56460.0,20623.0,28930.0,15.0,8.0,33.5,0,None
2023-01-02 09:27:54,369.358,0.0999999999999999,100.0,1171.5,24066.0,4887.5,97.0,1111.3,360.8,4888.4,68.191058,4.079506,0.043601696,-0.0126545377999999,-2.7875518,56.488,0.053878676,-0.0128492125999999,-2.6849458,0.5583178666666666,1.1980825222222222,8.240526222222222,25.4,-21.5,-281.5,22.6,24.6,80.4,-1056.7,-1.2,317.7,1018.6242999999998,-3.6722734,3265.6,0.053878676,-0.013486642,-0.0128492125999999,-0.02761077,-2.6849458,-0.0148601877999999,56510.0,20611.0,28980.0,20.5,-7.5,30.0,0,None
2023-01-02 09:27:55,370.366,0.1020000000000038,100.0,1104.3333333333333,24062.666666666668,4881.0,97.0,1096.6,364.0,4883.8,68.07680800000001,4.0727720000000005,0.047234778,-0.033192708,-2.7939326,56.56999999999999,0.056910896,-0.032598996,-2.6913894,0.58085272,1.17710897,9.6150543,20.6,-19.2,-278.8,19.2,-0.9,64.4,-1069.2,-12.5,309.0,1018.6037,-3.692867000000001,3266.9,0.056910896,-0.0032621178,-0.032598996,0.0037719908,-2.6913894,-0.02226048,56575.0,20568.0,29045.0,32.0,-9.0,19.5,0,None
2023-01-02 09:27:56,371.378,0.0999999999999999,100.0,1059.5,24067.5,4880.5,97.0,1139.2,367.3,4884.5,67.96043399999999,4.06733,-0.02452292,-0.063741126,-2.8042638,56.59,-0.013480496,-0.0630405139999999,-2.7019888,0.4078593199999999,1.2176075999999998,12.255502,4.9,-8.0,-259.0,36.1,-155.5,57.2,-1064.6,-14.4,323.5,1018.6152,-3.6814296,3268.4,-0.013480496,-0.1129377799999999,-0.0630405139999999,0.040382596,-2.7019888,-0.0280164663999999,56595.0,20513.0,29065.0,14.5,-5.0,18.5,0,None
2023-01-02 09:27:57,372.3760000000001,0.0999999999999999,100.0,1134.5,24066.0,4880.0,97.0,1205.3,370.5,4882.3,67.88371999999998,4.0648594000000005,-0.1312924999999999,-0.0506853999999999,-2.8664448,56.604,-0.11820768,-0.0544629179999999,-2.7658634,0.50099921,1.1340232,9.4518902,-12.1,3.1,-222.9,28.9,0.0,52.2,-1112.1,-114.3,354.8,1018.6385,-3.658320400000001,3269.6,-0.11820768,-0.0078097902,-0.0544629179999999,7.081760000000049e-05,-2.7658634,-0.108708378,56610.0,20014.5,29080.0,-111.5,-43.0,25.5,0,None
2023-01-02 09:27:58,373.374,0.0999999999999999,99.0,1236.0,24017.0,4889.0,97.0,1227.3,373.8,4884.7,67.838708,4.066324,-0.1436232,-0.0401977919999999,-2.8684794,56.66600000000001,-0.1333631,-0.047283664,-2.7695854000000004,0.4822390499999999,1.2234105,9.503611199999998,-17.2,23.9,-222.9,49.8,-59.0,42.4,-1098.9,90.1,353.8,1018.6138,-3.6828437,3270.7,-0.1291811,-0.04097657,-0.0490921925,-0.03111885,-2.7759832500000003,0.1048653575,56690.0,20247.5,29160.0,-244.5,-94.0,39.0,0,None
2023-01-02 09:27:59,374.374,0.0999999999999999,99.0,1134.5,24047.0,4889.5,97.0,1120.2,377.2,4885.1,67.817038,4.070189400000001,-0.12030033,-0.01925779,-2.8129324,56.856,-0.1118539047999999,-0.028367756,-2.7146424,0.5154767333333333,1.0820167111111112,9.287351444444443,-24.2,122.3,-220.9,51.5,263.8,62.4,-1031.5,69.8,354.7,1018.6111,-3.685461,3272.5,-0.1118539047999999,0.165752572,-0.028367756,0.096113018,-2.7146424,0.035767956,56895.0,20526.0,29365.0,-369.0,-170.5,51.0,0,None
2023-01-02 09:28:00,375.376,0.0999999999999999,99.0,1160.0,24033.5,4887.5,97.0,1181.3,380.4,4886.2,67.83148600000001,4.0737332,0.0585489770799999,0.1970906,-2.583569,57.034000000000006,0.0604970695199999,0.18914964,-2.4871316,0.75657613,1.4603677000000002,11.7019664,-22.2,63.0,-266.6,4.9,-27.3,169.9,-1081.5,383.2,247.5,1018.6126000000002,-3.6841173,3273.7,0.0604970695199999,0.0504787255999999,0.18914964,0.0984342999999999,-2.4871316,0.38369742,57050.0,22194.0,29520.0,-238.0,-283.0,39.0,0,None
2023-01-02 09:28:01,376.378,0.0999999999999999,99.0,1170.0,24024.0,4886.5,97.0,1173.6,383.7,4886.6,67.864078,4.074320599999999,-0.092559858,0.0890601899999999,-2.2014902,57.062,-0.09232499,0.089007524,-2.1020252,0.42319001,1.28720066,10.306148899999998,-17.4,-121.1,-127.9,-1.9,-16.7,222.7,-1142.3,389.5,292.7,1018.6458,-3.6508437,3275.3,-0.09232499,-0.012609574,0.089007524,-0.144027144,-2.1020252,0.4154755,57060.0,24438.5,29530.0,-127.0,-433.0,40.5,0,None
2023-01-02 09:28:02,377.3779,0.1019999999999981,99.0,1178.5,24039.5,4886.5,97.0,1182.4,386.8,4886.3,67.920128,4.073389799999999,-0.07024636,0.016121916,-1.8652006,57.05800000000001,-0.0723065579999999,0.0175624279999999,-1.7609102,0.43164181,1.11578659,7.4116106,-19.3,17.5,355.65,-12.9,62.2,240.3,-1091.8,166.4,300.7,1018.6337,-3.6630391,3276.5,-0.0723065579999999,0.083090416,0.0175624279999999,0.0292432972,-1.7609102,0.2125993139999999,57065.0,26151.0,29535.0,-113.0,-517.0,39.5,1,27_xmag_avg_constant_355.65
2023-01-02 09:28:03,378.374,0.0980000000000018,99.0,1179.0,24041.5,4890.0,97.0,1170.7,390.2,4887.2,68.009374,4.0709564,-0.037948778,0.0134287222,-1.7847772,57.1,-0.04057169,0.0127912287999999,-1.677183,0.41581044,1.0270992500000002,7.9201952,-19.2,-6.7,355.65,-3.4,15.1,247.6,-1052.8,-2.0,312.5,1018.6118,-3.6848359,3277.6,-0.04057169,0.0176131884999999,0.0127912287999999,-0.0063950947999999,-1.677183,-0.0004173696,57110.0,26404.5,29580.0,-88.0,-548.5,36.0,1,27_xmag_avg_constant_355.65
2023-01-02 09:28:04,379.374,0.0999999999999999,99.0,1182.5,24033.0,4886.5,97.0,1185.8,393.5,4887.3,68.119584,4.067412599999999,-0.036993986,0.046755254,-1.7476703999999998,57.13,-0.038528772,0.0450700792,-1.6369589999999998,0.41713927,0.953825,7.0512917,-24.6,53.6,355.65,-8.0,10.1,251.5,-1067.0,81.9,298.2,1018.6079000000002,-3.6887343,3279.2,-0.038528772,0.006095784,0.0450700792,0.062864828,-1.6369589999999998,0.0739182572,57135.0,26740.0,29605.0,-49.0,-566.0,32.5,1,27_xmag_avg_constant_355.65
2023-01-02 09:28:05,380.378,0.0999999999999999,99.0,1181.0,24012.0,4886.5,97.0,1179.3,396.8,4888.7,68.23816600000002,4.062927200000001,-0.033000348,0.04723822,-1.6465206,57.152,-0.0338230759999999,0.045654872,-1.5320444000000002,0.46855375,1.0174305599999998,4.8409776,-31.0,-23.0,355.65,-22.5,10.8,258.8,-1054.3,69.7,291.8,1018.6021,-3.6946483,3280.6,-0.0338230759999999,0.005198604,0.045654872,-0.022625508,-1.5320444000000002,0.072540372,57155.0,27331.5,29625.0,3.0,-573.5,33.5,1,27_xmag_avg_constant_355.65
2023-01-02 09:28:06,381.3760000000001,0.0999999999999999,99.0,1186.5,24015.5,4891.5,97.0,1196.3,400.2,4887.1,68.355742,4.0580634,-0.041755152,0.028894828,-1.5948628,57.172,-0.040969336,0.029333764,-1.4785976,0.4400121,1.07064877,5.3906984,-32.1,-3.2,355.65,-22.7,6.0,257.0,-1062.2,7.8,294.9,1018.5864,-3.7100626,3282.1,-0.040969336,0.001586804,0.029333764,-0.0050037399999999,-1.4785976,0.0066737805999999,57175.0,27555.0,29645.0,32.5,-583.5,31.0,1,27_xmag_avg_constant_355.65
2023-01-02 09:28:07,382.374,0.0999999999999999,99.0,1164.5,24039.0,4886.5,97.0,1161.9,403.4,4886.1,68.468412,4.0532932,-0.038249406,0.024625692,-1.5830912,57.212,-0.036801244,0.025629858,-1.4676694,0.4679579777777777,1.0718314666666666,6.314875555555555,-34.9,0.5,355.65,-17.4,19.1,250.2,-1058.9,-2.3,285.2,1018.5557,-3.7409452,3283.4,-0.036801244,0.011346561,0.025629858,-0.0186225702,-1.4676694,-0.0033841908,57220.0,27603.0,29690.0,50.0,-596.0,29.5,1,27_xmag_avg_constant_355.65
2023-01-02 09:28:08,383.3760000000001,0.0999999999999999,99.0,1228.0,23995.0,4883.5,97.0,1199.1,406.5,4886.4,68.57562800000001,4.048903000000001,-0.03243313,0.02383093,-1.5694554,57.24400000000001,-0.03024392,0.0260594779999999,-1.4549004,0.48278909,1.12730978,5.3733189,-39.2,-3.4,355.65,-24.1,3.9,258.4,-1069.4,-2.5,298.3,1018.5531,-3.7435392,3284.6,-0.03024392,-0.0054414108,0.0260594779999999,0.0102727049999999,-1.4549004,-0.0055618252,57245.0,27671.0,29715.0,64.5,-600.0,24.5,1,27_xmag_avg_constant_355.65
