00000_Time_epoch,00000_Time_boot_sec,00000_Span_Time_boot_sec,1_battery_remaining_avg,1_current_battery_avg,1_voltage_battery_avg,125_Vcc_avg,147_battery_remaining_avg,147_current_battery_avg,147_current_consumed_avg,165_Vcc_avg,168_direction_avg,168_speed_avg,178_pitch_avg,178_roll_avg,178_yaw_avg,182_altitude_avg,182_pitch_avg,182_roll_avg,182_yaw_avg,241_vibration_x_avg,241_vibration_y_avg,241_vibration_z_avg,27_xacc_avg,27_xgyro_avg,27_xmag_avg,27_yacc_avg,27_ygyro_avg,27_ymag_avg,27_zacc_avg,27_zgyro_avg,27_zmag_avg,29_press_abs_avg,29_press_diff_avg,29_temperature_avg,30_pitch_avg,30_pitchspeed_avg,30_roll_avg,30_rollspeed_avg,30_yaw_avg,30_yawspeed_avg,33_alt_avg,33_hdg_avg,33_relative_alt_avg,33_vx_avg,33_vy_avg,33_vz_avg,label,diagnosis
2023-01-04 10:43:18,140.027,0.1044444444444441,82.0,85.0,23221.0,4875.0,99.0,84.77777777777777,32.0,4874.111111111111,-169.6347777777778,0.2812607666666667,0.0037330784999999,-0.02201794,-1.212916,35.2025,0.007370189,-0.02214471,-1.212001,0.0237979244444444,0.0252913177777777,0.0364463588888888,-10.444444444444445,2.0,77.0,9.333333333333334,3.7777777777777777,252.77777777777777,-1076.111111111111,0.0,340.3333333333333,1017.684777777778,-0.2450260333333333,2960.4444444444443,0.00737152475,0.0045614225,-0.02214834,0.0027225279999999,-1.21199875,0.0002104886749999,35230.0,29056.5,-60.0,0.0,11.5,-31.5,0,None
2023-01-04 10:43:19,141.0171,0.1061000000000006,82.0,101.66666666666669,23220.33333333333,4866.666666666667,99.0,140.2,32.4,4872.9,-170.31928,0.29832642,0.004183566,-0.0222616039999999,-1.214255,35.138,0.0078867914,-0.021728258,-1.2125562,0.050680395,0.076432762,0.347572579,-8.95,1.9,75.0,6.3,4.45,249.75,-1077.5,-1.05,338.25,1017.696,-0.2336992,2964.7,0.0078867914,0.0042108371999999,-0.021728258,0.0019071817,-1.2125562,-0.001392027644,35155.0,29053.5,-135.0,0.0,14.0,-32.5,0,None
2023-01-04 10:43:20,142.02511111111113,0.1044444444444441,81.0,1550.0,22839.0,4874.0,99.0,1134.3333333333333,34.0,4877.0,-170.60297777777777,0.3677311333333332,0.0132024876,-0.021758496,-1.2165958,35.12400000000001,0.0176596694,-0.021193516,-1.2129238,0.311493285,0.8200723874999999,2.69252255,-6.444444444444445,6.555555555555555,54.0,6.555555555555555,25.666666666666668,230.88888888888889,-1172.3333333333333,3.6666666666666665,321.55555555555554,1017.9077777777778,-0.0219791688888888,2969.111111111112,0.0176596694,-0.0131751538,-0.021193516,0.0004624903999999,-1.2129238,0.0117136598,35115.0,29044.0,-175.0,-2.5,16.0,-18.0,0,None
2023-01-04 10:43:21,143.01600000000002,0.1060000000000002,80.66666666666667,1759.0,22750.33333333333,4858.0,99.0,1810.9,38.4,4873.4,-173.10452,0.4220957800000001,-0.0121263872,-0.00521366046,-1.2096432,36.148,-0.0080082035,-0.00444261,-1.2009668,0.32642976,1.3988039899999998,4.6020946,-12.6,25.65,53.0,-18.6,-38.3,233.95,-1247.25,16.2,286.8,1017.7068,-0.2229179579999999,2973.65,-0.0080082035,-0.025129664,-0.00444261,0.0279617371999999,-1.2009668,0.023700966,36035.0,29115.5,745.0,-21.5,17.5,136.5,0,None
2023-01-04 10:43:22,144.05840000000003,0.1000999999999975,79.5,1701.0,22728.5,4866.5,99.0,1745.8,43.8,4873.4,-175.98492,0.44727416,-0.0149265984,0.0140714879999999,-1.2135664,38.93,-0.0107058804,0.014206282,-1.2567742000000002,0.3126353399999999,1.5965308000000002,5.3611983,-15.4,15.7,61.8,-11.3,26.9,231.5,-1155.2,-4.1,270.0,1017.3082,-0.62149218,2978.2,-0.0107058804,0.0277701793999999,0.014206282,0.020565198,-1.2567742000000002,0.0016977561999999,38755.0,28853.5,3465.0,-11.5,-4.5,279.5,0,None
2023-01-04 10:43:23,145.01800000000003,0.1022222222222239,79.0,1357.0,22799.0,4879.0,99.0,1285.2222222222222,47.888888888888886,4873.444444444444,-177.04896666666667,0.4450010444444445,-0.003314478,0.0163246268,-1.2232150000000002,42.244,0.000971463652,0.0184504262,-1.29813,0.3617105333333333,1.1605995777777778,3.1689288888888885,-20.0,-11.88888888888889,59.11111111111112,-10.666666666666666,3.4444444444444446,250.5555555555556,-958.4444444444443,-18.55555555555556,297.44444444444446,1016.947888888889,-0.9818143444444444,2982.222222222222,0.000971463652,0.0048182202,0.0184504262,-0.008962887,-1.29813,-0.0102604083999999,42105.0,28564.0,6815.0,6.5,-7.5,278.0,0,None
2023-01-04 10:43:24,146.0131,0.1039999999999991,78.5,1042.5,22821.0,4861.0,99.0,1076.2,50.7,4865.1,-177.71323999999998,0.42589594,0.00957683042,0.0045318094,-1.2349092000000002,44.284000000000006,0.01363407,0.0064164272,-1.3050106,0.5151808099999999,0.8916418399999999,1.5554363999999998,-6.5,-6.3,57.6,-18.4,20.9,242.4,-908.9,-3.5,309.4,1016.6753,-1.2542969000000002,2986.3,0.01363407,0.0185822966,0.0064164272,-0.0098868024,-1.3050106,-0.0183241141999999,44240.0,28527.5,8950.0,13.5,-3.0,97.0,0,None
2023-01-04 10:43:25,147.0336,0.1040999999999996,78.0,1206.0,22809.666666666668,4864.666666666667,99.0,1204.4,53.9,4872.2,-178.31202,0.40467506,0.0119291056,0.0057372042,-1.2433706,44.904,0.016005815,0.00894919912,-1.3090696,0.40954863,0.83413375,3.8952355,-13.95,14.45,50.1,-10.85,-7.55,233.9,-1042.0,2.35,297.1,1016.55065,-1.3789802999999998,2991.05,0.016005815,-0.0091743938,0.00894919912,0.015973428,-1.3090696,0.015624061,44885.0,28496.5,9595.0,10.0,10.5,11.0,0,None
2023-01-04 10:43:26,148.02522222222223,0.1044444444444441,77.0,1189.0,22822.0,4877.0,99.0,1190.7777777777778,57.333333333333336,4871.888888888889,-99.41234444444444,0.3894187444444444,-0.003249362425,0.0094127435,-1.241132,45.165,0.00110812945,0.01191918675,-1.3026777500000002,0.3593646222222222,0.9975096,5.336997777777778,-11.555555555555555,-2.333333333333333,59.66666666666666,-17.666666666666668,0.7777777777777778,246.66666666666663,-1038.5555555555557,18.0,310.44444444444446,1016.5103333333334,-1.4193055555555556,2995.222222222222,0.00110812945,-0.00075559,0.01191918675,-0.00038950675,-1.3026777500000002,0.00697570525,45175.0,28538.0,9885.0,12.0,18.0,-15.0,0,None
2023-01-04 10:43:27,149.014,0.1060000000000002,77.0,1209.6666666666667,22800.33333333333,4864.0,99.0,1205.9,60.5,4866.3,178.77697999999998,0.37099866,-0.0047318039399999,0.00013064248,-1.2406468,45.298,-0.0003485476599999,0.0022219507999999,-1.297982,0.3468547199999999,1.0008294699999998,4.3901821,-12.95,1.95,61.8,-36.15,4.9,243.0,-1056.15,9.4,312.6,1016.47915,-1.45051175,2999.65,-0.0003485476599999,0.0219782272,0.0022219507999999,0.0084535926,-1.297982,0.0214344376,45310.0,28566.5,10020.0,11.0,14.5,-28.5,0,None
2023-01-04 10:43:28,149.99444444444444,0.1000000000000006,76.0,1209.0,22797.0,4871.0,99.0,1227.3333333333333,64.11111111111111,4873.444444444444,177.14945555555556,0.3518797777777778,0.00261744616,0.0093398508,-1.2387632,45.372,0.006268948,0.0114938303999999,-1.2924124,0.3987602222222223,1.0104226888888888,4.761191666666667,-26.22222222222222,8.666666666666666,62.11111111111112,-11.11111111111111,-6.666666666666667,248.5555555555556,-1117.888888888889,-8.222222222222221,312.6666666666667,1016.4733333333334,-1.456119777777778,3004.0,0.006268948,0.002952877,0.0114938303999999,0.012528807,-1.2924124,0.01124935974,45375.0,28601.5,10085.0,11.5,17.0,-34.0,0,None
2023-01-04 10:43:29,150.982,0.1039999999999991,76.0,1245.0,22775.0,4866.5,99.0,1252.0,67.5,4874.7,175.00011,0.3306438299999999,0.00434069098,0.0060605804,-1.2361354,45.39200000000001,0.007084685,0.008600264,-1.286364,0.36033001,0.99403414,3.4842459,-17.5,-11.9,61.7,-30.6,13.6,242.5,-1090.3,-9.1,303.8,1016.4604,-1.4692813,3008.1,0.007084685,0.0109931505999999,0.008600264,-0.0110904086,-1.286364,0.0058524428599999,45395.0,28627.5,10105.0,16.0,21.5,-36.5,0,None
2023-01-04 10:43:30,152.01000000000002,0.102000000000001,76.0,1244.5,22762.0,4871.5,99.0,1261.888888888889,71.11111111111111,4876.2,171.83700000000002,0.30881884,0.000240294,-0.0145363623999999,-1.2415894,45.404,0.00355036594,-0.0110073573999999,-1.288707,0.37814831,1.03391859,3.0833169,-15.7,-4.2,63.2,-7.9,-2.2,240.2,-1076.9,-10.5,312.3,1016.4590999999998,-1.4706484999999998,3012.7,0.00355036594,9.87360000000003e-06,-0.0110073573999999,-0.0002534973999999,-1.288707,-0.005354136,45405.0,28612.0,10115.0,6.0,20.0,-37.5,0,None
2023-01-04 10:43:31,153.0201,0.1001000000000004,75.0,1375.0,22719.5,4873.5,99.0,1486.0,74.7,4882.9,169.67933999999997,0.29594954,-0.1081943971999999,0.0059561534,-1.2504188,45.484,-0.1036462483999999,0.0094267024,-1.2943524,0.36461999,1.2448456699999997,3.8943929,-16.1,26.2,81.4,-16.9,-200.4,237.8,-1179.0,13.4,289.2,1016.4454000000002,-1.4843670999999998,3017.0,-0.1036462483999999,-0.1845964071999999,0.0094267024,0.03476628998,-1.2943524,-0.0036212073999999,45525.0,28590.0,10235.0,14.5,-34.5,-2.0,0,None
2023-01-04 10:43:32,154.027,0.1039999999999991,74.66666666666667,1564.6666666666667,22652.0,4869.0,99.0,1579.2,79.2,4874.7,166.79508,0.29870872,-0.17340324,-0.0062064744,-1.2562140000000002,46.398,-0.1682564,-0.0040297216,-1.2950282,0.3869196199999999,1.2990396,5.7476558,-34.1,-79.25,116.55,-18.85,55.15,233.55,-1159.1,-14.35,272.25,1016.3664,-1.56326945,3021.5,-0.1682564,0.0630009912,-0.0040297216,-0.079438896,-1.2950282,-0.035354923,46595.0,28571.5,11305.0,80.0,-214.5,110.0,0,None
2023-01-04 10:43:33,155.04500000000002,0.1,74.0,1541.0,22646.0,4874.5,99.0,1535.5,83.4,4879.1,164.4077,0.3116631000000001,-0.1773647599999999,-0.104772748,-1.271866,48.006,-0.17458794,-0.1004716579999999,-1.3056432,0.47157602,1.4635433,8.0222578,-48.3,6.4,111.0,-6.6,-26.3,204.3,-1093.5,-14.3,299.5,1016.1626,-1.7670155,3026.0,-0.17458794,-0.0157264425999999,-0.1004716579999999,-0.01715219,-1.3056432,0.007186623,48225.0,28514.5,12935.0,62.5,-373.0,129.5,0,None
2023-01-04 10:43:34,156.04500000000002,0.1,74.0,1444.5,22663.0,4862.5,99.0,1473.5,87.6,4875.3,163.49844,0.3296913,-0.18884104,-0.0571323959999999,-1.2734662,49.786,-0.1861629199999999,-0.0534200579999999,-1.3037372,0.46259865,1.5296967999999995,9.030960099999998,-71.6,20.1,117.5,13.2,17.1,229.0,-1093.6,17.2,316.3,1015.9225,-2.0072736000000004,3030.5,-0.1861629199999999,0.0358103578,-0.0534200579999999,0.0379479779999999,-1.3037372,0.011248547,50030.0,28538.0,14740.0,55.5,-532.0,150.0,0,None
2023-01-04 10:43:35,156.99566666666666,0.1002222222222239,73.0,1530.0,22642.0,4882.0,99.0,1495.111111111111,91.55555555555556,4877.0,164.63092222222224,0.3496718888888889,-0.1866184599999999,-0.063286594,-1.2705466,51.682,-0.1868100999999999,-0.058753568,-1.2968604,0.4991134888888889,1.6488754444444444,9.988503333333334,-88.22222222222223,-6.0,118.88888888888889,13.88888888888889,-8.777777777777779,214.88888888888889,-1063.4444444444443,-3.6666666666666665,305.55555555555554,1015.661222222222,-2.268619777777778,3034.555555555556,-0.1868100999999999,-0.0077862105999999,-0.058753568,-0.020792548,-1.2968604,-0.0018233024,51935.0,28562.0,16645.0,77.5,-649.0,145.5,0,None
2023-01-04 10:43:36,157.99499999999998,0.1060000000000002,73.0,1481.5,22626.0,4874.5,99.0,1396.8,95.6,4877.5,167.7701,0.3751119999999999,-0.18605166,-0.06273611,-1.2761376,53.698,-0.1862307999999999,-0.0565262999999999,-1.3019432,0.5484131299999999,1.4873584999999998,9.6250307,-104.3,19.0,120.2,18.5,13.1,222.1,-1085.1,-1.6,307.7,1015.4766,-2.4530391,3038.4,-0.1862307999999999,0.0438766659999999,-0.0565262999999999,0.0272209542,-1.3019432,0.0068053454,53945.0,28538.5,18655.0,85.5,-754.0,137.0,0,None
2023-01-04 10:43:37,158.9952222222222,0.1022222222222208,73.0,1441.0,22640.0,4873.0,99.0,1381.6666666666667,99.44444444444444,4878.111111111111,171.0622,0.405429411111111,-0.180912575,-0.0466076925,-1.2725235,55.425,-0.1817615249999999,-0.0401403225,-1.298282,0.5876060555555556,1.469415,9.925784,-116.44444444444444,-3.2777777777777777,121.0,26.38888888888889,22.55555555555556,218.61111111111111,-1042.7777777777778,1.7222222222222223,292.8888888888889,1015.2268888888888,-2.7026257777777776,3042.8888888888887,-0.1817615249999999,0.0048243285,-0.0401403225,-0.009869228575,-1.298282,0.01242188525,55845.0,28557.0,20555.0,109.0,-838.5,138.5,0,None
2023-01-04 10:43:38,160.003,0.1080000000000012,72.5,1479.0,22611.5,4872.0,99.0,1501.5,103.6,4874.0,174.18468,0.44523086,-0.1703881,-0.0471024216666666,-1.2741803333333337,57.30833333333334,-0.17213355,-0.0409714233333333,-1.2990695,0.61863661,1.6495176,9.9292111,-129.9,13.4,118.1,26.1,3.8,220.2,-1054.8,-0.7,307.0,1015.0104,-2.9192344,3047.1,-0.17213355,0.0458983346666666,-0.0409714233333333,0.0280200201666666,-1.2990695,0.0010938866833333,57715.0,28563.0,22425.0,127.5,-898.0,132.5,0,None
2023-01-04 10:43:39,161.02411111111113,0.1088888888888877,72.0,1284.0,22648.0,4873.0,99.0,1145.111111111111,107.55555555555556,4876.111111111111,176.111,0.4899929,0.013383545,-0.02433821,-1.2824165,59.2025,0.00998309,-0.01752615,-1.30676675,0.6938250888888889,1.3370675555555556,9.09680722222222,-139.44444444444446,23.666666666666668,77.11111111111111,24.83333333333333,263.8888888888889,223.0555555555556,-1128.111111111111,-36.11111111111112,312.6111111111111,1014.9319444444444,-2.997673555555556,3051.4444444444443,0.00998309,0.261405775,-0.01752615,0.025798395,-1.30676675,-0.0518429575,59170.0,28530.0,23880.0,136.0,-886.0,151.0,0,None
2023-01-04 10:43:40,162.00211111111108,0.1088888888888877,72.0,1260.5,22664.0,4874.5,99.0,1292.2222222222222,110.77777777777776,4871.222222222223,175.0701222222222,0.5323963222222222,0.08500796,0.0020199463799999,-1.2983528,60.702,0.079705732,0.01008305394,-1.3174838000000002,0.6415921888888888,1.5085021111111112,10.473862555555558,-105.11111111111111,42.333333333333336,29.5,17.5,-66.33333333333333,230.72222222222223,-1091.8333333333333,14.055555555555555,320.77777777777777,1014.7655,-3.164222888888889,3055.6666666666665,0.079705732,-0.06381801,0.01008305394,0.0604260079999999,-1.3174838000000002,0.0029025181999999,60420.0,28444.0,25130.0,114.5,-734.5,149.5,0,None
2023-01-04 10:43:41,163.0271,0.104000000000002,72.0,1459.0,22602.5,4872.0,99.0,1482.6,114.7,4883.1,171.94747999999998,0.56947194,0.036184646,0.0208385419999999,-1.2937012,62.492,0.036002576,0.028992068,-1.3003638,0.5146530666666667,1.4873697777777777,9.501444555555556,-95.88888888888889,2.888888888888889,46.66666666666666,5.222222222222222,24.22222222222222,239.22222222222223,-1058.0,2.111111111111111,302.3333333333333,1014.4949,-3.4350154,3059.5,0.036002576,0.015902146,0.028992068,0.0082014734,-1.3003638,0.0032890169999999,62185.0,28535.5,26895.0,107.5,-566.5,162.0,0,None
2023-01-04 10:43:42,164.03533333333334,0.1088888888888877,71.0,1562.0,22579.5,4871.5,99.0,1534.111111111111,119.11111111111111,4872.0,168.6199,0.6019501555555554,0.078048066,0.0123148466,-1.3021832,64.436,0.077952724,0.0196732477999999,-1.2972331999999998,0.4495559555555555,1.518893888888889,9.32459,-73.88888888888889,-21.166666666666668,30.666666666666668,12.61111111111111,44.61111111111112,238.61111111111111,-1068.0,-20.61111111111111,304.3888888888889,1014.2483888888888,-3.6813325555555534,3063.777777777778,0.077952724,0.0387133936,0.0196732477999999,-0.0304664188,-1.2972331999999998,-0.03370794,64110.0,28576.0,28820.0,110.5,-439.5,160.0,0,None
2023-01-04 10:43:43,165.033,0.1039999999999991,71.0,1235.5,22658.5,4875.0,99.0,1205.7,122.9,4882.1,166.17576,0.63083232,0.10487684,0.0091369308,-1.3274838,66.01,0.105792134,0.0152698857999999,-1.3137312,0.46011218,1.2146454800000002,7.212011700000001,-55.85,33.1,20.4,7.3,44.1,242.4,-957.25,-16.2,316.1,1014.09295,-3.83681245,3067.6,0.105792134,0.0345584353,0.0152698857999999,0.0291961112,-1.3137312,0.0060465302,65835.0,28476.0,30545.0,85.0,-305.0,98.5,0,None
2023-01-04 10:43:44,166.02200000000002,0.1044444444444441,71.0,1356.5,22614.0,4876.0,99.0,1376.111111111111,126.44444444444444,4882.666666666667,164.47214444444444,0.6530640000000001,0.156216625,0.0345660874999999,-1.32335625,66.275,0.156422575,0.0405205675,-1.3036045,0.3846507222222222,1.0501444777777778,5.840328111111112,-32.111111111111114,10.11111111111111,-0.4444444444444444,-6.777777777777778,27.22222222222222,241.77777777777777,-1056.6666666666667,4.777777777777778,303.8888888888889,1014.0288888888888,-3.900659555555555,3071.4444444444443,0.156422575,0.033476585,0.0405205675,0.0032846557499999,-1.3036045,0.0122612897499999,66280.0,28522.5,30990.0,61.0,-168.0,-24.5,0,None
2023-01-04 10:43:45,167.033,0.1080000000000012,71.0,1442.0,22584.5,4876.5,99.0,1428.3,130.3,4881.3,163.04332000000002,0.66779086,0.10939307,0.02078257,-1.3269209999999998,66.21666666666665,0.1120867166666666,0.0270518649999999,-1.3039219999999998,0.35151676,1.11310956,3.2901914,-25.85,-7.4,11.55,-25.35,-85.35,247.0,-1079.7,-10.2,310.1,1014.03495,-3.89470305,3075.6,0.1120867166666666,-0.0902721366666666,0.0270518649999999,-0.0147844884999999,-1.3039219999999998,-0.0138146276666666,66215.0,28531.5,30925.0,37.0,-10.5,-28.0,0,None
2023-01-04 10:43:46,168.03522222222222,0.1044444444444441,70.5,1378.0,22590.0,4873.5,99.0,1390.4444444444443,134.22222222222223,4885.666666666667,161.22523333333336,0.6790105333333334,0.0155669467499999,0.01958333,-1.3343925,66.21499999999999,0.02142997,0.0242177149999999,-1.31001375,0.3780929555555555,0.9564832444444444,3.4917953333333336,-17.666666666666668,12.444444444444445,40.22222222222222,-26.22222222222222,-25.0,246.11111111111111,-1060.7777777777778,-7.666666666666667,299.6666666666667,1013.0622833333334,-3.9243747777777775,3079.555555555556,0.02142997,-0.02422021375,0.0242177149999999,0.007708967475,-1.31001375,-0.0114209485,66210.0,28498.0,30920.0,23.5,49.0,-29.0,1,29_press_abs_avg_abrupt_-0.9430499999999711
2023-01-04 10:43:47,169.02411111111113,0.1088888888888877,70.0,1390.0,22563.0,4872.0,99.0,1396.4444444444443,138.0,4880.777777777777,159.27497777777774,0.6913507888888889,0.019225712,0.0114005792,-1.3364919999999998,66.218,0.022883848,0.0146582558,-1.3123122,0.3534122111111111,0.9733263666666668,3.3448161111111108,-6.277777777777778,-34.611111111111114,44.11111111111112,-11.27777777777778,9.555555555555555,237.77777777777777,-1071.0,4.833333333333333,286.05555555555554,1013.0341722222224,-3.952582444444445,3083.555555555556,0.022883848,0.0093484321999999,0.0146582558,-0.0210495022,-1.3123122,0.0028635848,66215.0,28481.0,30925.0,30.5,52.5,-32.5,1,29_press_abs_avg_abrupt_-0.9430499999999711
2023-01-04 10:43:48,170.021,0.104000000000002,70.0,1400.0,22564.0,4873.0,99.0,1404.1,141.8,4885.3,157.72636000000003,0.7019920000000001,0.0135402392,-0.0069757068,-1.3305434,66.21,0.016211728,-0.0038500142,-1.307958,0.36952123,1.10531754,4.3588396000000005,-6.0,6.2,44.8,-9.5,-2.7,236.3,-1062.1,-11.3,305.6,1013.01265,-3.9738514,3087.4,0.016211728,-0.0060215541999999,-0.0038500142,0.0071350708,-1.307958,0.0062936457599999,66210.0,28506.0,30920.0,18.5,51.0,-37.5,1,29_press_abs_avg_abrupt_-0.9430499999999711
2023-01-04 10:43:49,171.02633333333335,0.1088888888888877,70.0,1405.5,22566.0,4873.5,99.0,1409.6666666666667,145.88888888888889,4880.0,156.35399999999996,0.7112503444444446,0.0100074401999999,-0.0133178516,-1.334687,66.172,0.0123423035999999,-0.0103399038,-1.3117084,0.3790593555555555,0.9287957666666666,3.585245333333332,-4.277777777777778,-10.166666666666666,43.11111111111112,-23.11111111111111,12.11111111111111,241.0555555555556,-1065.6666666666667,-8.333333333333334,309.8888888888889,1013.0041166666666,-3.982426055555555,3091.333333333333,0.0123423035999999,0.0114598968,-0.0103399038,-0.0065280644,-1.3117084,-0.0003372457999999,66180.0,28485.5,30890.0,10.5,41.0,-40.5,1,29_press_abs_avg_abrupt_-0.9430499999999711
2023-01-04 10:43:50,172.031,0.1039999999999991,70.0,1401.5,22560.5,4869.0,99.0,1390.0,149.8,4878.5,155.10336,0.7200811,0.0084558217999999,-0.011604894,-1.3317608,66.138,0.011219816,-0.0080287613999999,-1.3088532,0.3766558,1.0483733000000002,4.0424281,-7.55,10.7,40.3,-6.3,-1.55,230.45,-1064.55,-17.65,314.4,1012.98915,-3.997371,3095.0,0.011219816,0.0004306734,-0.0080287613999999,0.0156282818,-1.3088532,-0.0166326296,66135.0,28500.5,30845.0,-0.5,31.5,-41.0,1,29_press_abs_avg_abrupt_-0.9430499999999711
2023-01-04 10:43:51,173.00666666666663,0.1023333333333324,69.0,1344.0,22565.5,4876.5,99.0,1361.5555555555557,153.55555555555554,4880.666666666667,154.0499777777778,0.7293969555555555,0.00554073,-0.01694899,-1.333266,66.13,0.0087050053333333,-0.0130230816666666,-1.3097733333333337,0.363803788888889,1.1375691111111113,4.730010666666667,7.555555555555555,-13.555555555555555,43.0,-12.11111111111111,16.333333333333332,235.77777777777777,-1072.7777777777778,31.77777777777778,310.55555555555554,1012.9933944444444,-3.9930987777777776,3099.0,0.0105689889999999,0.0219853625,-0.01520676375,-0.0198506359999999,-1.307652,0.01889312725,66120.0,28525.0,30830.0,-6.0,22.0,-44.0,1,29_press_abs_avg_abrupt_-0.9430499999999711
2023-01-04 10:43:52,174.013,0.1059000000000025,69.0,1361.0,22562.0,4871.5,99.0,1363.7,157.2,4880.5,153.16276000000002,0.7407787,0.0082079006666666,-0.0140145096833333,-1.3194011666666663,66.07000000000001,0.0120412383333333,-0.0090456733333333,-1.2962543333333334,0.39012442,1.24256609,3.1884138,2.6,21.8,48.7,9.7,0.1,244.0,-1094.2,10.3,311.1,1012.9956500000001,-3.9908829,3102.6,0.0120412383333333,-0.0056911448333333,-0.0090456733333333,0.0319549883333333,-1.2962543333333334,0.0146407463333333,66065.0,28571.0,30775.0,-19.5,15.0,-45.0,1,29_press_abs_avg_abrupt_-0.9430499999999711
2023-01-04 10:43:53,175.04299999999998,0.1039999999999991,69.0,1395.0,22547.5,4875.5,98.7,1390.4,161.2,4881.8,152.7087,0.75356168,0.001903437,0.008765879,-1.3279636,66.00000000000001,0.0065875579999999,0.0136941464,-1.3053094,0.35721786,0.98418659,3.4424779,-6.0,6.05,48.35,-15.45,-3.5,244.0,-1091.1,-16.55,304.1,1012.99005,-3.99655465,3106.5,0.0065875579999999,0.0009675191999999,0.0136941464,0.0063349201999999,-1.3053094,-0.0084711904,66000.0,28519.5,30710.0,-13.0,14.0,-44.0,1,29_press_abs_avg_abrupt_-0.9430499999999711
2023-01-04 10:43:54,176.033,0.1066666666666675,69.0,1392.0,22526.5,4877.0,98.0,1393.3333333333333,165.11111111111111,4882.666666666667,152.23872222222224,0.7639792111111112,0.00099620235,-0.0025217015,-1.3293855,65.96249999999999,0.0052665149999999,0.003557867825,-1.307208,0.3634458111111111,1.1032243111111109,3.5144368888888886,-4.777777777777778,-12.22222222222222,46.77777777777778,-0.5555555555555556,4.888888888888889,242.88888888888889,-1074.3333333333333,9.444444444444445,309.3333333333333,1012.9927277777779,-3.993940888888889,3110.4444444444443,0.0053204067499999,-0.00146014145,0.003604365075,-0.0133378765,-1.3070745,0.0116323373249999,65960.0,28512.5,30670.0,0.0,10.5,-42.5,1,29_press_abs_avg_abrupt_-0.9430499999999711
2023-01-04 10:43:55,176.993,0.1044444444444441,69.0,1381.5,22532.0,4874.0,98.0,1378.888888888889,168.66666666666666,4885.666666666667,151.78461111111108,0.7705781222222222,0.0004155962399999,-0.0025028978,-1.329727,65.96600000000001,0.0055659673999999,0.0036288398,-1.308215,0.3756766666666666,0.9942606444444444,3.725537777777778,-6.055555555555555,2.2777777777777777,47.72222222222222,-7.166666666666667,7.388888888888889,240.16666666666663,-1070.5,7.722222222222222,305.5,1012.9868944444444,-3.99967,3113.777777777778,0.0053547018,0.0043001392,0.003585879,0.0024871104,-1.3082699999999998,0.0019431178,65970.0,28504.5,30680.0,4.0,6.0,-44.0,1,29_press_abs_avg_abrupt_-0.9430499999999711
2023-01-04 10:43:56,177.987,0.1060000000000002,69.0,1372.0,22540.5,4873.0,98.0,1378.1,172.6,4882.5,151.42425,0.7753308299999999,0.0039195006,-0.0074241688,-1.3243652,65.978,0.0091959822,-0.00057823538,-1.3039496,0.3617776499999999,1.04263586,3.7813715,-9.2,1.2,45.8,-12.4,4.9,239.8,-1062.5,1.7,310.4,1012.98855,-3.998117,3117.5,0.0091959822,0.0085382988,-0.00057823538,0.0021179008,-1.3039496,0.0086156196,65975.0,28534.0,30685.0,5.0,4.5,-44.0,1,29_press_abs_avg_abrupt_-0.9430499999999711
2023-01-04 10:43:57,179.01977777777776,0.1066666666666643,68.5,1377.5,22539.0,4874.5,98.0,1387.5555555555557,176.55555555555554,4881.333333333333,151.1904111111111,0.7794253000000001,0.0070356894,-0.0042184619399999,-1.3228582,65.949998,0.013238482,0.00197056614,-1.3030225999999998,0.3347156333333333,1.0106892,4.376588666666667,-4.444444444444445,1.2222222222222223,47.44444444444444,-12.555555555555555,8.0,241.5,-1074.0,-6.666666666666667,309.72222222222223,1012.9898944444444,-3.996679611111112,3121.3888888888887,0.013238482,0.0141377113999999,0.00197056614,0.00566394432,-1.3030225999999998,-0.007325344,65945.0,28539.5,30655.0,5.5,5.0,-42.5,1,29_press_abs_avg_abrupt_-0.9430499999999711
2023-01-04 10:43:58,180.031,0.1080000000000012,68.0,1376.0,22534.0,4874.5,98.0,1372.3,180.4,4879.0,151.05626,0.7832804999999999,0.0108894832,-0.0052073694,-1.3236111999999998,65.924,0.018249322,0.0016859986,-1.3047664,0.38419767,1.0088128,3.9878178000000006,-4.8,7.6,45.25,-18.85,13.2,234.05,-1072.2,-8.7,306.9,1012.9973999999999,-3.98928495,3125.1,0.018249322,0.0147955116,0.0016859986,0.0102739381999999,-1.3047664,-0.00744184838,65925.0,28520.5,30635.0,6.5,8.0,-42.5,1,29_press_abs_avg_abrupt_-0.9430499999999711
2023-01-04 10:43:59,181.03522222222225,0.1044444444444441,68.0,1378.0,22561.0,4874.5,98.0,1371.0,184.22222222222223,4880.777777777777,150.8387555555556,0.7876780888888889,0.0129542246,-0.0024214377999999,-1.3211426,65.918,0.019222766,0.004092482,-1.3021726,0.3552783222222222,1.1180798222222224,3.940151555555555,-4.0,6.0,38.22222222222222,-12.77777777777778,-5.666666666666667,240.22222222222223,-1059.4444444444443,4.333333333333333,331.77777777777777,1012.9835055555558,-4.003055555555556,3128.555555555556,0.019222766,-0.0038177561999999,0.004092482,0.0039528347,-1.3021726,0.01471895916,65915.0,28542.0,30625.0,6.5,16.0,-42.5,1,29_press_abs_avg_abrupt_-0.9430499999999711
2023-01-04 10:44:00,181.9952222222222,0.1088888888888877,68.0,1379.0,22524.0,4877.0,98.0,1380.2222222222222,187.88888888888889,4879.888888888889,150.49507777777777,0.7926512333333333,0.0075116818,-0.0034636548,-1.3198219999999998,65.884,0.01506515,0.00222970026,-1.3000926000000002,0.4049716111111111,1.0682283111111113,3.7492334444444446,2.7222222222222223,-0.5555555555555556,43.77777777777778,-3.2222222222222223,11.61111111111111,237.16666666666663,-1084.7777777777778,8.444444444444445,314.3333333333333,1013.932277777778,-3.997478111111111,3132.055555555556,0.01506515,0.0049409442,0.00222970026,0.0012533848,-1.3000926000000002,-0.0127053513999999,65890.0,28552.0,30600.0,6.0,16.0,-45.0,0,None
2023-01-04 10:44:01,183.0091,0.1040000000000019,68.0,1380.5,22505.0,4873.5,98.0,1381.2,191.7,4878.1,150.0859,0.79806452,0.0086370832,-0.00267967926,-1.3186262000000002,65.83399999999999,0.016194846,0.0027327057599999,-1.3002624,0.37914278,1.0381413600000002,3.702905,-4.9,0.3,43.2,-11.2,8.3,220.5,-1076.3,-9.6,295.0,1013.9247,-4.0049611,3135.8,0.016194846,0.0071259298,0.0027327057599999,-0.00241137956,-1.3002624,0.005297336,65845.0,28556.5,30555.0,5.5,16.0,-42.5,0,None
2023-01-04 10:44:02,184.0042222222222,0.1044444444444441,68.0,1384.5,22507.5,4873.5,98.0,1382.5555555555557,195.77777777777777,4878.555555555556,149.72822222222223,0.8028910111111109,0.0154042549999999,-0.0064917234999999,-1.322465,65.79500000000002,0.0234626875,-0.001350310225,-1.30498425,0.4312274444444444,1.0176130222222222,4.089603888888889,-10.27777777777778,1.8333333333333333,43.27777777777778,-14.88888888888889,11.27777777777778,236.77777777777777,-1059.2222222222222,-18.55555555555556,309.22222222222223,1013.9301111111112,-3.9994051111111113,3139.333333333333,0.0234626875,0.0193476485,-0.001350310225,0.00577248125,-1.30498425,-0.00817316275,65800.0,28527.5,30510.0,4.0,16.5,-43.5,0,None
2023-01-04 10:44:03,184.975,0.1019999999999981,68.0,1410.5,22509.5,4876.0,98.0,1402.7777777777778,199.44444444444449,4882.8,149.34215999999998,0.80855068,0.0124551587,-0.00077674244,-1.3245854,65.72999999999999,0.0199346096,0.00525200745,-1.308014,0.38699298,0.98581036,3.9364968,-1.8,15.6,43.7,-16.2,-19.5,240.3,-1066.3,9.4,308.9,1013.9302,-3.999460700000001,3143.0,0.0199346096,-0.0187861496,0.00525200745,0.014478346,-1.308014,0.0037058234,65740.0,28503.5,30450.0,1.0,23.5,-43.5,0,None
2023-01-04 10:44:04,186.0431,0.1080000000000012,68.0,1408.5,22495.0,4877.0,98.0,1398.3,203.6,4883.6,148.89210000000003,0.81510842,-0.0029220847,-0.0006432526,-1.3242724,65.677998,0.0052162589999999,0.0045932244,-1.3083006,0.3412080999999999,1.08962196,3.780273,-9.95,-12.3,47.15,-7.1,18.3,238.8,-1065.15,-7.75,309.25,1013.9294,-4.000234350000001,3146.9,0.0052162589999999,0.0082590576,0.0045932244,-0.01222978804,-1.3083006,-0.007875363,65685.0,28507.0,30395.0,7.0,22.0,-42.5,0,None
2023-01-04 10:44:05,187.02644444444445,0.1022222222222208,68.0,1359.5,22515.0,4880.0,98.0,1365.111111111111,207.44444444444449,4882.222222222223,148.52964444444444,0.8194104222222223,0.0045329776,-0.0087355,-1.3266544,65.626,0.0120677098,-0.0032660481999999,-1.3114826,0.3721406444444445,1.0565267333333337,4.539379111111112,-7.0,2.888888888888889,45.22222222222222,-1.6666666666666667,3.6666666666666665,240.88888888888889,-1078.2222222222222,-2.111111111111111,315.22222222222223,1013.9336666666668,-3.9959983333333335,3150.111111111112,0.0120677098,0.0093090888,-0.0032660481999999,0.0055693176,-1.3114826,-0.0131237084,65630.0,28491.0,30340.0,7.0,15.5,-41.5,0,None
2023-01-04 10:44:06,187.9872,0.0999999999999999,67.0,1372.5,22488.0,4878.0,98.0,1370.6,211.0,4885.1,148.31108,0.82301786,0.0055534098,-0.0135308184,-1.3273894,65.59,0.0128501,-0.007470255,-1.3135090000000005,0.36473391,1.00212133,4.1104681,-9.0,0.5,45.6,-15.9,3.8,236.7,-1068.8,10.0,312.1,1013.9173,-4.012531200000001,3153.6,0.0128501,0.0042651092,-0.007470255,0.0029417964,-1.3135090000000005,0.0073084605999999,65595.0,28468.0,30305.0,2.5,14.0,-43.5,0,None
2023-01-04 10:44:07,189.0171,0.104000000000002,67.0,1391.5,22489.0,4877.5,98.0,1401.7,214.8,4885.8,148.27475999999996,0.82705348,0.0034125273999999,-0.002799428,-1.317472,65.53999999999999,0.010633738,0.0029581482799999,-1.3045714,0.35373778,1.02242101,4.795565,-6.6,21.2,44.8,-8.0,5.6,236.8,-1072.9,1.7,306.9,1013.9191,-4.0106093,3157.4,0.010633738,0.0023190091999999,0.0029581482799999,0.0224307589999999,-1.3045714,-0.0086939134,65550.0,28524.5,30260.0,-3.5,12.5,-45.5,0,None
2023-01-04 10:44:08,190.039,0.1019999999999981,67.0,1371.0,22493.0,4873.5,98.0,1380.5,218.9,4883.5,148.30996,0.83094924,0.0029582726,-0.0035764725999999,-1.3182524,65.494,0.0100848135999999,0.00128644198,-1.3054378000000002,0.36986196,0.89897496,5.7284801000000005,-9.95,-19.9,44.5,-3.6,2.7,238.35,-1064.7,-3.25,302.5,1013.9114000000002,-4.0181602000000005,3161.0,0.0100848135999999,0.006530196,0.00128644198,-0.028562436,-1.3054378000000002,0.0029172817999999,65505.0,28520.5,30215.0,3.0,13.5,-44.5,0,None
2023-01-04 10:44:09,191.0218888888889,0.1044444444444441,67.0,1393.5,22474.5,4869.0,98.0,1378.5,222.5,4881.111111111111,148.30139999999997,0.8338407888888889,0.0041124506,-0.0061687706,-1.3143596,65.46799999999999,0.0109853101999999,-0.0011712021999999,-1.3031707999999995,0.3497690222222222,0.9590703777777778,5.494282555555556,-9.444444444444445,26.0,46.77777777777778,-5.777777777777778,6.666666666666667,238.11111111111111,-1079.888888888889,14.666666666666666,310.0,1013.9173333333332,-4.012334888888889,3164.4444444444443,0.0109853101999999,0.0050631239999999,-0.0011712021999999,0.0238506473999999,-1.3031707999999995,0.01410053924,65475.0,28525.0,30185.0,0.0,12.5,-46.0,0,None
2023-01-04 10:44:10,192.013,0.104000000000002,67.0,1354.5,22474.5,4873.0,98.0,1358.2,226.4,4877.2,148.34622000000002,0.83674906,0.0025483532,-0.00534311384,-1.306981,65.41999799999999,0.0095989994,-0.00101275558,-1.2966758000000005,0.39065686,1.0603021800000003,4.5891321000000005,-6.0,-4.9,50.0,1.0,2.1,245.4,-1056.6,4.5,317.0,1013.9144,-4.0154138,3167.9,0.0095989994,-0.0041327608,-0.00101275558,-0.0084456056,-1.2966758000000005,-0.021057443,65420.0,28572.0,30130.0,1.0,12.5,-47.0,0,None
2023-01-04 10:44:11,193.039,0.1039999999999991,67.0,1379.0,22460.0,4878.0,98.0,1370.9,230.2,4882.0,148.4088,0.8390750599999999,0.0076252714,-0.0035736119999999,-1.3108727999999998,65.35,0.0143831399999999,0.00068039016,-1.3021642,0.36196468,1.04585163,4.8769644,-6.3,10.5,48.4,-21.25,14.8,228.4,-1069.2,-6.85,303.7,1013.9233499999998,-4.006277150000001,3171.25,0.0143831399999999,0.0081046806,0.00068039016,0.0081193409999999,-1.3021642,-0.0005535192,65355.0,28543.0,30065.0,0.5,11.5,-46.0,0,None
2023-01-04 10:44:12,194.02411111111115,0.1022222222222208,67.0,1376.0,22476.0,4877.5,98.0,1366.5555555555557,234.22222222222223,4880.333333333333,148.45567777777777,0.8411446777777777,0.00682927975,0.00320582825,-1.31337825,65.29,0.01338486775,0.007714217,-1.30553075,0.3801938666666666,1.0192725,4.6871017777777775,-10.22222222222222,7.333333333333333,45.888888888888886,-14.88888888888889,-4.111111111111111,236.44444444444449,-1061.7777777777778,-5.111111111111111,301.3333333333333,1013.9299999999998,-3.999687444444445,3175.0,0.01338486775,0.0006183305,0.007714217,0.00758818625,-1.30553075,-0.0065663675,65290.0,28519.0,30000.0,1.5,18.0,-44.5,0,None
2023-01-04 10:44:13,195.02910000000003,0.1080000000000012,67.0,1368.0,22471.5,4879.5,98.0,1363.3,237.9,4886.8,148.41696000000005,0.8428791,-0.002479272,0.0016212024,-1.3143042,65.248,0.0042146778,0.0061397994,-1.3068604,0.361689,1.02110457,4.736098299999999,-15.0,4.5,46.9,-14.05,1.3,241.3,-1069.5,-2.4,312.15,1013.91995,-4.00964845,3178.15,0.0042146778,-0.0014702379999999,0.0061397994,0.0037972196,-1.3068604,-0.015184807,65245.0,28512.5,29955.0,6.0,18.5,-43.5,0,None
2023-01-04 10:44:14,196.02633333333333,0.1022222222222208,67.0,1352.5,22474.5,4880.5,98.0,1359.5555555555557,241.66666666666663,4878.555555555556,148.33363333333332,0.8433196444444445,-0.0002317500799999,-0.0013485086,-1.3145063999999995,65.197996,0.0070457408,0.0026866424,-1.3080659999999995,0.3780887777777778,0.948674988888889,4.066371111111111,-12.22222222222222,-4.555555555555555,49.11111111111112,-2.333333333333333,1.1111111111111112,236.0,-1080.0,8.777777777777779,308.22222222222223,1013.9213333333332,-4.008237555555556,3181.555555555556,0.0070457408,0.0074181086,0.0026866424,-0.0057379618,-1.3080659999999995,0.009215794,65200.0,28508.5,29910.0,7.5,16.0,-44.0,0,None
2023-01-04 10:44:15,196.973,0.1088888888888908,67.0,1355.5,22467.0,4879.5,98.0,1359.2222222222222,245.11111111111111,4885.222222222223,148.28135555555554,0.8425720444444446,-0.0037487415,-0.002390507,-1.30122275,65.155,0.003272535125,0.00119771725,-1.295435,0.2830557111111111,1.0803519333333331,3.666842111111111,-5.722222222222222,12.833333333333334,52.61111111111112,-27.27777777777778,12.444444444444445,235.5555555555556,-1047.7777777777778,4.444444444444445,302.94444444444446,1013.927277777778,-4.002556388888888,3184.8888888888887,0.003272535125,0.02391075375,0.00119771725,0.0056071812499999,-1.295435,0.014299845,65145.0,28586.5,29855.0,9.5,9.0,-45.5,0,None
2023-01-04 10:44:16,197.975,0.1019999999999981,66.5,1357.5,22464.5,4874.0,98.0,1353.9,249.1,4877.2,148.31413999999998,0.8408188900000001,0.0131054266,-0.0047211442,-1.3009106,65.102,0.0197600959999999,-0.0004777296,-1.296082,0.39168753,0.98500273,4.28279,-8.7,-13.0,50.2,-17.0,23.0,244.2,-1067.4,-11.2,324.0,1013.9303,-3.9993358,3188.6,0.0197600959999999,0.016777714,-0.0004777296,-0.0101625068,-1.296082,-0.0045118699999999,65085.0,28547.0,29795.0,9.5,12.0,-44.0,0,None
2023-01-04 10:44:17,199.017,0.1080000000000012,66.0,1355.5,22458.0,4880.5,98.0,1372.3,252.9,4881.5,148.30922000000004,0.8394706,0.0132588568333333,-0.0013257621666666,-1.3166336666666665,65.03500000000001,0.0201765083333333,0.0029945166666666,-1.3128,0.37034736,0.98707289,4.281130699999999,-9.45,18.45,40.25,-13.7,-9.6,233.45,-1074.65,-12.1,303.7,1013.9341111111112,-3.9955815555555554,3191.777777777778,0.0201765083333333,-0.0137524241666666,0.0029945166666666,0.016191525,-1.3128,-0.0090257426666666,65020.0,28472.0,29730.0,4.0,25.0,-44.0,0,None
2023-01-04 10:44:18,200.02633333333333,0.1022222222222208,66.0,1368.0,22455.5,4880.5,98.0,1368.6666666666667,256.77777777777777,4885.0,148.23956666666666,0.8397219777777779,-0.0065589505,0.0018084235,-1.3194015,64.985,0.000739919275,0.0063648095,-1.315666,0.3628752333333333,1.0698395333333333,4.264598,-10.22222222222222,-1.1111111111111112,46.333333333333336,-8.88888888888889,-6.444444444444445,243.77777777777777,-1066.0,-0.6666666666666666,300.6666666666667,1013.925222222222,-4.004496444444444,3195.222222222222,0.000739919275,-0.0008632199999999,0.0063648095,0.0020618425,-1.315666,-0.0027188674999999,64990.0,28462.0,29700.0,7.0,27.0,-44.0,0,None
2023-01-04 10:44:19,201.023,0.104000000000002,66.0,1372.0,22446.5,4874.5,98.0,1363.7,260.5,4879.4,148.19682,0.83934632,0.0018755333199999,-0.0080999664,-1.3160654,64.953998,0.0089345662,-0.0036663473799999,-1.3128786,0.3600927299999999,1.0166923,4.4637152,-4.9,-8.9,43.5,-19.4,15.1,235.4,-1064.9,13.9,311.1,1013.9172,-4.012429599999999,3198.4,0.0089345662,0.02032959288,-0.0036663473799999,-0.0075935136,-1.3128786,0.0130032342,64956.66666666666,28489.33333333333,29666.666666666668,12.333333333333334,19.33333333333333,-44.66666666666666,0,None
2023-01-04 10:44:20,202.0108888888889,0.1066666666666643,66.0,1340.5,22461.5,4877.0,98.0,1352.7777777777778,264.3333333333333,4878.666666666667,148.17755555555553,0.8383670333333334,-4.781780000000062e-06,-0.014013094,-1.299203,64.911998,0.0066958928,-0.0087157946,-1.2963672000000002,0.3347016888888888,0.8796865111111111,3.850781666666666,-13.22222222222222,7.111111111111111,48.66666666666666,0.7222222222222222,8.0,231.61111111111111,-1090.6666666666667,-13.666666666666666,308.5,1013.9293888888888,-4.000312444444444,3201.9444444444443,0.0066958928,0.02161656662,-0.0087157946,0.0179983339999999,-1.2963672000000002,0.0133119001999999,64920.0,28584.0,29630.0,5.0,12.0,-45.0,0,None
2023-01-04 10:44:21,203.01088888888887,0.111111111111111,66.0,1340.5,22458.0,4878.0,98.0,1349.5555555555557,268.0,4880.666666666667,148.23871111111114,0.8378857444444444,0.0141523359999999,-0.0059613024,-1.3131338,64.85,0.021048354,-0.001138191916,-1.3110932000000002,0.4047217888888889,0.9827038444444444,4.487111888888889,-7.277777777777778,6.111111111111111,43.72222222222222,-6.0,13.77777777777778,230.8333333333333,-1065.888888888889,-13.333333333333334,297.72222222222223,1013.925888888889,-4.003806333333333,3205.4444444444443,0.021048354,0.01034656588,-0.001138191916,0.0044691646,-1.3110932000000002,-0.0112869894,64865.0,28517.0,29575.0,0.0,11.0,-45.5,0,None
2023-01-04 10:44:22,203.98188888888888,0.1088888888888908,66.0,1346.0,22450.5,4863.0,98.0,1354.888888888889,271.6666666666667,4883.222222222223,148.29065555555553,0.8383138000000001,0.003608879975,-0.0003506454749999,-1.320647,64.795,0.0104625455,0.004872672775,-1.31882075,0.3433169111111111,1.1582930111111112,4.173233666666666,-6.111111111111111,11.555555555555555,42.77777777777778,-20.38888888888889,-7.111111111111111,243.16666666666663,-1072.0555555555557,1.5555555555555556,307.8888888888889,1013.9256111111112,-4.003988722222222,3208.4444444444443,0.0104625455,-0.008096572,0.004872672775,0.012647973,-1.31882075,-0.004052294,64810.0,28447.5,29520.0,-1.5,17.5,-44.0,0,None
2023-01-04 10:44:23,205.0091,0.1079999999999983,66.0,1337.5,22438.0,4877.5,98.0,1341.0,275.6,4886.8,148.29168,0.8391363999999999,0.0040036143999999,0.0016625514,-1.3114122,64.75200000000001,0.0113479194,0.0070281504,-1.3100922,0.3637756599999999,1.00737146,3.6859212,-12.85,0.45,48.45,-4.35,12.3,242.15,-1065.6,2.3,307.35,1013.9339000000002,-3.9955702,3211.95,0.0113479194,0.0084426308,0.0070281504,-0.0029229653999999,-1.3100922,0.015832382,64750.0,28493.5,29460.0,2.5,17.5,-44.5,0,None
2023-01-04 10:44:24,206.03077777777776,0.1044444444444441,66.0,1322.0,22446.5,4883.5,98.0,1329.111111111111,279.44444444444446,4885.777777777777,148.24817777777776,0.8394014000000001,0.0054174872,-0.0036700402,-1.3040214,64.691998,0.0130059759999999,0.00225300734,-1.3030356,0.4100485666666666,0.9835766222222224,3.3106131111111115,-8.0,10.333333333333334,47.44444444444444,-16.333333333333332,5.111111111111111,234.44444444444449,-1065.6666666666667,0.1111111111111111,311.22222222222223,1013.9285555555556,-4.000998222222223,3215.333333333333,0.0130059759999999,0.00855412822,0.00225300734,0.0063743396,-1.3030356,0.014002112,64690.0,28532.5,29400.0,3.0,19.0,-43.0,0,None
2023-01-04 10:44:25,207.023,0.104000000000002,66.0,1341.0,22452.5,4881.0,98.0,1330.8,282.9,4890.6,148.19592,0.83954968,0.003580414,0.00182688622,-1.3045712,64.63000000000001,0.0106565421999999,0.007994914,-1.304148,0.3535730199999999,0.99246895,3.2683662,-7.3,3.0,48.6,-11.0,2.9,243.0,-1065.0,-4.5,315.4,1013.9255,-4.0041485,3218.5,0.0106565421999999,0.0017418762,0.007994914,0.00731374268,-1.304148,-0.01658090062,64635.0,28533.0,29345.0,4.5,18.5,-43.0,0,None
2023-01-04 10:44:26,208.029,0.0999999999999999,66.0,1312.0,22455.0,4864.0,98.0,1317.4,286.6,4888.5,148.12747999999996,0.83936864,0.0009872657,0.0029009882,-1.3129484,64.592,0.0080700192,0.0087544118,-1.3124742,0.3673432,1.13883167,3.805831800000001,-10.6,2.3,46.0,-13.5,8.2,243.8,-1064.9,-4.5,307.2,1013.9206,-4.0089842,3221.9,0.0080700192,0.01152399,0.0087544118,0.0059626492,-1.3124742,-0.0072037543799999,64605.0,28482.5,29315.0,7.5,18.5,-44.0,0,None
2023-01-04 10:44:27,209.033,0.0999999999999999,66.0,1325.5,22449.5,4882.0,98.0,1329.6,290.3,4889.0,148.04782,0.8385085200000001,0.0042160598,-0.002047857,-1.3155196,64.542,0.011381082,0.0041704038,-1.3151884,0.36083006,1.07810096,3.6683431,-11.6,-1.5,45.1,-11.3,3.5,238.9,-1076.1,5.9,305.0,1013.9245,-4.0052029,3225.0,0.011381082,0.0062598924,0.0041704038,-0.001441131732,-1.3151884,0.0066459597,64555.0,28461.5,29265.0,10.0,18.5,-45.5,0,None
2023-01-04 10:44:28,210.01533333333333,0.1066666666666643,66.0,1334.5,22444.5,4882.5,98.0,1338.3333333333333,294.1111111111111,4885.444444444444,147.96106666666665,0.8373377555555556,0.0023358328,-0.0017802799,-1.3070226,64.498,0.0094286263999999,0.0045170958,-1.3068422000000002,0.3901090222222222,0.9450944777777776,3.092598888888889,-9.055555555555555,3.6666666666666665,45.888888888888886,-12.11111111111111,1120.538888888889,233.5,-1058.8333333333333,4.833333333333333,301.8333333333333,1013.926222222222,-4.003480833333333,3228.4444444444443,0.0094286263999999,0.0013390895999999,0.0045170958,0.00071663298,-1.3068422000000002,0.0075247579999999,64505.0,28509.5,29215.0,8.0,18.5,-45.5,1,27_ygyro_avg_abrupt_1113.9833333333333
2023-01-04 10:44:29,211.017,0.104000000000002,66.0,1346.5,22445.5,4879.5,98.0,1331.5,297.7,4883.7,147.87366000000003,0.8359122399999999,0.00217744426,-0.0052589431,-1.3050776000000002,64.443996,0.0093145454,0.0011737021399999,-1.3050904,0.34556463,1.1356738400000002,3.2140291,-9.4,7.1,48.4,-13.4,1120.3833333333334,234.8,-1076.1,-5.0,311.7,1013.9245,-4.005077999999999,3231.7,0.0093145454,0.0031060878,0.0011737021399999,0.0016518821999999,-1.3050904,-0.004765848,64450.0,28525.0,29160.0,3.5,16.0,-44.0,1,27_ygyro_avg_abrupt_1113.9833333333333
2023-01-04 10:44:30,212.039,0.1019999999999981,66.0,1333.0,22437.5,4882.5,98.0,1339.4,301.4,4881.2,147.8246,0.83452214,0.0069728334,0.0060489896,-1.3082034,64.40599999999999,0.01391131,0.01164205,-1.3084251999999998,0.34153606,1.15637199,4.7672577,-8.05,8.75,44.65,-13.1,1116.3333333333333,234.4,-1066.75,7.5,304.25,1013.91695,-4.012601399999999,3235.1,0.01391131,-0.00163261728,0.01164205,0.005763494,-1.3084251999999998,0.0012543216,64410.0,28503.5,29120.0,2.0,19.0,-46.5,1,27_ygyro_avg_abrupt_1113.9833333333333
2023-01-04 10:44:31,213.02211111111112,0.1044444444444441,66.0,1366.0,22432.5,4873.0,98.0,1372.4444444444443,305.44444444444446,4884.111111111111,147.7531111111111,0.8329961000000001,-0.0013917647499999,0.013602085,-1.3020435,64.36,0.00544693475,0.019788165,-1.302132,0.3904453666666667,0.9798839111111112,4.486308666666666,-15.0,-0.6666666666666666,48.66666666666666,-15.444444444444445,1110.7611111111112,249.0,-1075.0,-2.2222222222222223,305.6666666666667,1013.9243333333332,-4.005329777777778,3238.222222222222,0.00544693475,-0.006149143,0.019788165,0.0048027925,-1.302132,0.0026393791,64360.0,28537.5,29070.0,10.5,23.5,-46.5,1,27_ygyro_avg_abrupt_1113.9833333333333
2023-01-04 10:44:32,214.015,0.1060000000000002,65.5,1398.5,22403.0,4876.5,98.0,1385.1,309.0,4882.4,147.65006,0.8304872199999999,-0.00303274706,-0.007851818,-1.298931,64.304,0.0038308725999999,-0.00117404164,-1.2982742,0.35651051,1.14906505,2.8430651,-11.9,-13.95,50.0,-15.4,1123.8333333333333,233.8,-1062.85,11.8,301.3,1013.9276999999998,-4.0018474500000005,3241.6,0.0038308725999999,0.0196004558,-0.00117404164,-0.019478888,-1.2982742,0.007120604,64295.0,28566.0,29005.0,16.0,21.0,-45.0,1,27_ygyro_avg_abrupt_1113.9833333333333
2023-01-04 10:44:33,215.0218888888889,0.1044444444444441,65.0,1390.5,22420.0,4872.5,98.0,1384.6666666666667,313.1111111111111,4888.666666666667,147.5694888888889,0.8272643555555556,-0.0021515586,-0.005698455,-1.2979056,64.244,0.0051551743999999,0.00043474796,-1.2977794,0.3182849444444444,1.0610214333333332,4.057099777777777,-12.22222222222222,21.88888888888889,52.77777777777778,-6.333333333333333,1124.3166666666666,235.44444444444449,-1063.7777777777778,-17.11111111111111,306.8888888888889,1013.9213333333332,-4.008237888888889,3244.6666666666665,0.0051551743999999,0.0115356463999999,0.00043474796,0.0161965744,-1.2977794,-0.0042072993399999,64250.0,28557.0,28960.0,7.5,15.5,-44.0,1,27_ygyro_avg_abrupt_1113.9833333333333
2023-01-04 10:44:34,216.023,0.1080000000000012,65.0,1352.5,22426.0,4889.0,98.0,1357.3,316.7,4890.4,147.55132000000003,0.8241162799999999,0.0017943725799999,-0.0045733348,-1.3074662,64.248,0.0088412659999999,0.0013627797999999,-1.3075834,0.3832020499999999,0.93733456,4.9876424,-10.95,-9.75,50.1,-16.9,1127.4333333333334,238.05,-1070.5,-4.45,312.1,1013.92435,-4.00512485,3247.8,0.0088412659999999,0.0114412958,0.0013627797999999,-0.01901253244,-1.3075834,0.0039708176,64245.0,28509.5,28955.0,10.5,14.0,-45.0,1,27_ygyro_avg_abrupt_1113.9833333333333
2023-01-04 10:44:35,217.02633333333333,0.1044444444444441,65.0,1364.5,22412.0,4885.5,98.0,1362.111111111111,320.6666666666667,4891.666666666667,147.56419999999997,0.8209685111111111,0.008561933,-0.0140080782499999,-1.3027875,64.24,0.01573444,-0.00805907375,-1.302349,0.3292366,1.0352530111111111,4.492771,-7.666666666666667,15.444444444444445,44.44444444444444,-3.4444444444444446,1126.538888888889,232.88888888888889,-1061.0,12.22222222222222,313.44444444444446,1013.913111111111,-4.016492777777778,3251.0,0.01573444,0.00684498275,-0.00805907375,0.02091628775,-1.302349,-0.009179543575,64240.0,28540.0,28950.0,4.0,13.0,-45.0,1,27_ygyro_avg_abrupt_1113.9833333333333
2023-01-04 10:44:36,218.011,0.102000000000001,65.0,1326.5,22405.5,4881.0,97.6,1344.5,324.3,4888.9,147.61549999999997,0.81879242,0.00476987702,0.00571734592,-1.3031278,64.256,0.0119438421999999,0.011454263,-1.3023834,0.3713698444444444,1.0148757555555556,4.045999777777777,-8.9,12.0,46.1,-21.5,1109.9833333333333,243.6,-1064.1,-0.7,303.5,1013.9124,-4.0172968,3253.9,0.0110820927499999,0.0116548726999999,0.0111008962499999,0.0052095764999999,-1.30238425,0.00158226125,64255.0,28540.0,28965.0,-1.0,18.5,-45.0,1,27_ygyro_avg_abrupt_1113.9833333333333
2023-01-04 10:44:37,219.02411111111115,0.1088888888888877,65.0,1333.0,22421.0,4880.0,97.0,1325.888888888889,328.0,4884.888888888889,147.63073333333335,0.8170553777777778,0.0052295866,-0.001655706508,-1.296588,64.26,0.012515002,0.0038476534199999,-1.2956442,0.3326488444444445,0.9892034,3.896931,-12.77777777777778,-6.611111111111111,46.11111111111112,0.8333333333333334,1125.4277777777777,232.72222222222223,-1065.9444444444443,-4.055555555555555,307.1111111111111,1013.9152222222224,-4.014440222222223,3257.4444444444443,0.012515002,0.0145919468,0.0038476534199999,-0.0028269833999999,-1.2956442,0.0175847424,64260.0,28566.0,28970.0,6.0,21.0,-46.0,1,27_ygyro_avg_abrupt_1113.9833333333333
2023-01-04 10:44:38,220.071,0.1079999999999983,65.0,1351.5,22422.5,4878.5,97.0,1337.6,331.9,4879.2,147.61323,0.8152484300000001,0.0029624551999999,-0.0091662672,-1.2964288,64.244,0.0107246858,-0.00285810258,-1.295612,0.41386267,0.98563983,3.7053178,-7.05,-0.6,52.45,-23.9,1118.4833333333333,228.6,-1073.8,2.7,299.45,1013.92325,-4.006562550000001,3260.7,0.0107246858,0.0001497524,-0.00285810258,0.0016011305999999,-1.295612,0.0165388818,64250.0,28575.5,28960.0,6.5,22.0,-47.5,1,27_ygyro_avg_abrupt_1113.9833333333333
2023-01-04 10:44:39,221.08633333333333,0.1066666666666675,65.0,1337.5,22418.0,4883.0,97.0,1340.4444444444443,335.6666666666667,4883.444444444444,147.61523333333332,0.8138338444444444,0.0075145227999999,-0.0018001959999999,-1.299673,64.23,0.0144798939999999,0.00464510896,-1.2992852,0.4208788777777777,1.0474009777777775,3.607316666666667,-6.888888888888889,17.77777777777778,47.44444444444444,-4.166666666666667,1120.7055555555555,225.8333333333333,-1060.7222222222222,-5.333333333333333,288.3888888888889,1013.914,-4.015716055555555,3263.8888888888887,0.0144798939999999,0.0019739542,0.00464510896,0.0160318974,-1.2992852,-0.00988651744,64230.0,28571.0,28940.0,0.5,19.5,-45.5,1,27_ygyro_avg_abrupt_1113.9833333333333
2023-01-04 10:44:40,222.03977777777777,0.1066666666666675,65.0,1333.5,22419.5,4882.5,97.0,1332.7777777777778,339.22222222222223,4884.333333333333,147.64555555555555,0.8129575777777779,0.0033336358999999,0.0032981410999999,-1.3117474999999998,64.2475,0.0098613375,0.0098227062499999,-1.310928,0.3692889777777777,1.0002625444444444,3.644185444444445,-11.88888888888889,-2.6666666666666665,48.333333333333336,-13.11111111111111,1111.538888888889,249.11111111111111,-1061.111111111111,-15.77777777777778,312.77777777777777,1013.9136666666668,-4.015911555555555,3266.777777777778,0.0098613375,0.00848624475,0.0098227062499999,0.00653255625,-1.310928,-0.011623381675,64245.0,28495.5,28955.0,3.5,24.0,-46.5,1,27_ygyro_avg_abrupt_1113.9833333333333
2023-01-04 10:44:41,223.0491,0.1060000000000002,65.0,1336.5,22406.5,4882.5,97.0,1330.2,343.0,4884.7,147.65588000000002,0.81199054,-0.001456018,-0.0088600658,-1.310431,64.252,0.00485018974,-0.0022485606,-1.308824,0.3577782111111111,0.9973413555555556,4.94909,-12.9,1.5,44.5,-5.7,1114.0833333333333,240.4,-1066.5,2.1,305.85,1013.9097,-4.02001165,3270.1,0.00485018974,0.0070987972,-0.0022485606,-0.0022561722,-1.308824,0.016933334,64255.0,28500.0,28965.0,6.5,24.5,-47.0,1,27_ygyro_avg_abrupt_1113.9833333333333
2023-01-04 10:44:42,224.0618888888889,0.1088888888888877,65.0,1308.0,22432.5,4874.5,97.0,1319.7777777777778,346.6666666666667,4883.444444444444,147.68276666666668,0.8108521777777776,-0.0050847046,-0.010297905,-1.3088411999999998,64.268,0.00151196168,-0.0043627812,-1.3065494000000002,0.3670493555555555,0.9565406666666666,5.170146222222221,-10.77777777777778,-6.277777777777778,49.388888888888886,-7.166666666666667,8.277777777777779,236.16666666666663,-1062.7222222222222,2.5,303.0,1013.9024444444444,-4.0273305,3272.9444444444443,0.00151196168,-0.0009076408,-0.0043627812,-0.0067480957999999,-1.3065494000000002,-0.0111231626,64270.0,28514.5,28980.0,5.5,19.5,-48.0,0,None
2023-01-04 10:44:43,225.03522222222225,0.1066666666666675,65.0,1334.0,22398.0,4882.5,97.0,1336.0,350.3333333333333,4887.666666666667,147.76884444444443,0.8095659666666667,-0.0016401134399999,-0.0078422714,-1.3158818,64.268,0.0046965582,-0.0012134653399999,-1.3135442,0.3599933777777778,0.9872370222222222,6.556598444444445,-16.666666666666668,6.555555555555555,48.0,-3.333333333333333,5.222222222222222,235.0,-1066.7777777777778,-21.77777777777778,309.6666666666667,1013.9005555555556,-4.028958333333333,3276.111111111112,0.0046965582,0.0027413083999999,-0.0012134653399999,0.00341728928,-1.3135442,-0.0225476246,64265.0,28478.5,28975.0,5.0,15.5,-50.5,0,None
2023-01-04 10:44:44,226.031,0.1039999999999991,65.0,1338.5,22416.0,4885.0,97.0,1335.5,354.0,4885.1,147.92438,0.8083077399999998,-0.00225377468,-0.017016852,-1.3339374,64.26,0.0044488226,-0.0103695676,-1.3316882,0.38343677,0.87687948,6.204012800000001,-18.4,-2.55,44.9,-4.3,7.05,239.55,-1075.6,-3.0,312.8,1013.8992,-4.030488400000001,3278.95,0.0044488226,-0.0007990708,-0.0103695676,-0.0004673956,-1.3316882,-0.014217666,64260.0,28370.0,28970.0,2.5,15.0,-47.0,0,None
2023-01-04 10:44:45,227.02422222222225,0.1066666666666675,65.0,1347.0,22403.0,4887.0,97.0,1339.4444444444443,357.77777777777777,4891.888888888889,148.17730000000003,0.8073502666666665,-0.0004795296,-0.007318345,-1.32998125,64.2625,0.0064241795,-0.0008230714999999,-1.32700575,0.3645779333333332,0.8661752444444445,5.432843666666667,-16.11111111111111,23.77777777777778,40.44444444444444,-7.777777777777778,8.555555555555555,242.66666666666663,-1063.7777777777778,16.444444444444443,307.1111111111111,1013.9043333333334,-4.025407777777777,3282.0,0.0064241795,0.00373222675,-0.0008230714999999,0.027499365,-1.32700575,-0.0025902614999999,64265.0,28408.5,28975.0,-4.5,13.0,-49.5,0,None
2023-01-04 10:44:46,228.063,0.1079999999999983,65.0,1325.0,22410.5,4887.5,97.0,1323.9,361.5,4887.1,148.52363,0.8065591199999999,-0.001173137,0.0094835945,-1.3176138333333334,64.26166666666667,0.0051885626666666,0.0153165883333333,-1.3139855,0.3690652,0.93355491,5.67617,-17.05,3.95,41.65,-12.35,3.4,247.65,-1059.8,9.75,308.8,1013.91535,-4.0143554,3285.25,0.0051885626666666,-0.0007168974999999,0.0153165883333333,0.0065434116666666,-1.3139855,0.0180162138333333,64260.0,28475.5,28970.0,4.0,16.0,-47.0,0,None
2023-01-04 10:44:47,229.0663333333333,0.1044444444444473,65.0,1311.5,22411.5,4875.5,97.0,1305.7777777777778,365.1111111111111,4892.111111111111,148.76434444444442,0.8050353666666665,-0.0018234013,0.00324906725,-1.30089175,64.25,0.004738114,0.0088748515,-1.2969485,0.3638785555555555,0.9389695111111108,5.232986111111112,-14.555555555555555,0.1111111111111111,49.44444444444444,-1.8888888888888888,12.88888888888889,232.88888888888889,-1058.4444444444443,16.22222222222222,303.1111111111111,1013.9188888888888,-4.010607444444443,3288.111111111112,0.004738114,0.00220640275,0.0088748515,0.00319283875,-1.2969485,0.003330279,64250.0,28578.0,28960.0,12.5,17.0,-47.0,0,None
2023-01-04 10:44:48,229.9072857142857,0.1057142857142829,65.0,1314.5,22411.0,4884.0,97.0,1312.7142857142858,368.1428571428572,4889.428571428572,148.9066571428571,0.8031843857142859,0.00827360325,-0.00233037197,-1.29405625,64.23250000000002,0.0147705775,0.0034705532749999,-1.289853,0.3943483714285714,0.958224,4.505978285714285,-13.071428571428571,5.428571428571429,49.57142857142857,-25.785714285714285,15.714285714285714,237.0,-1076.7857142857142,3.7142857142857135,309.7142857142857,1013.920714285714,-4.008989785714286,3291.0,0.0147705775,0.0262300875,0.0034705532749999,0.0054101954999999,-1.289853,0.0007119399999999,64230.0,28609.0,28940.0,13.0,19.0,-45.0,0,None
2023-01-04 10:44:54,236.05533333333327,0.6977777777777779,65.0,1275.0,22396.5,4889.5,97.0,1277.111111111111,387.8888888888889,4887.111111111111,149.8314777777778,0.7963212,-0.0046007081999999,-0.00861230025,-1.31440725,64.2325,0.002883866025,-0.003543599,-1.30832475,0.3878421888888889,0.9138125666666668,6.582747666666666,-16.555555555555557,5.777777777777778,47.55555555555556,-2.2222222222222223,-8.444444444444445,227.3333333333333,-1070.4444444444443,-1.8888888888888888,310.1111111111111,1013.9155555555556,-4.014123111111111,3309.6666666666665,0.002883866025,0.000289472,-0.003543599,0.00389371175,-1.30832475,-0.006911832,64230.0,28501.5,28940.0,5.0,27.0,-47.0,0,None
2023-01-04 10:44:55,237.04909999999995,0.1039999999999991,65.0,1286.5,22409.0,4886.0,97.0,1278.7,393.4,4892.0,149.99097999999998,0.7956863000000002,-0.0074868553333333,-0.0048407075,-1.3024583333333333,64.22833333333334,0.0004997212333333,0.0002095480833333,-1.2962691666666666,0.3641550999999999,0.91982692,6.640929700000001,-14.4,7.35,52.85,-19.25,11.1,236.85,-1067.0,16.15,307.15,1013.9125,-4.0171796,3312.35,0.0004997212333333,0.0016945348333333,0.0002095480833333,0.0043948739666666,-1.2962691666666666,0.015655817,64225.0,28575.0,28935.0,6.0,22.0,-47.0,0,None
2023-01-04 10:44:56,238.073,0.1088888888888908,65.0,1282.0,22404.5,4893.0,97.0,1280.6666666666667,397.1111111111111,4887.333333333333,150.18249999999998,0.7944075222222221,-0.0076321439999999,-0.00330148425,-1.2946725,64.2275,-0.0001163682499999,0.0017880607499999,-1.288316,0.4083074333333332,0.9672898222222224,5.716988333333333,-22.77777777777778,-3.5,53.27777777777778,16.055555555555557,-1.3888888888888888,237.16666666666663,-1057.2222222222222,-15.22222222222222,309.22222222222223,1013.9265555555556,-4.003129222222223,3315.3888888888887,-0.0001163682499999,-0.005409604,0.0017880607499999,-0.0073205729999999,-1.288316,-0.0243666,64225.0,28617.5,28935.0,8.5,20.0,-46.0,0,None
2023-01-04 10:44:57,239.03533333333337,0.1088888888888877,65.0,1282.5,22409.5,4899.0,97.0,1271.7777777777778,400.6666666666667,4889.888888888889,150.3863333333333,0.7926281111111112,-0.0086065006,-0.0062714262,-1.2981922,64.22,-0.0006261005359999,-0.00142673336,-1.291546,0.3332928666666667,0.9682661555555554,5.919439666666666,-10.333333333333334,4.222222222222222,57.55555555555556,-18.11111111111111,5.888888888888889,237.44444444444449,-1054.7777777777778,10.22222222222222,301.6666666666667,1013.9153333333336,-4.014357555555556,3318.4444444444443,-0.0006261005359999,0.0205488304,-0.00142673336,0.0052590547999999,-1.291546,0.0055830392,64215.0,28596.5,28925.0,9.5,15.5,-44.5,0,None
2023-01-04 10:44:58,240.041,0.1039999999999991,65.0,1265.5,22411.5,4897.0,97.0,1264.6,404.0,4889.5,150.64651999999995,0.79022832,-0.0046124306,-0.0070531375999999,-1.2988380000000002,64.224,0.0036097476,-0.0021688292,-1.292067,0.40141338,0.94306702,5.337624,-18.05,3.3,53.25,-12.1,8.15,232.3,-1092.45,-6.75,310.75,1013.91885,-4.010871150000001,3321.25,0.0036097476,0.02968018,-0.0021688292,0.0104997073999999,-1.292067,0.0090820411999999,64225.0,28595.5,28935.0,9.5,13.5,-46.5,0,None
2023-01-04 10:44:59,241.0243333333333,0.1022222222222239,65.0,1274.0,22411.5,4897.0,97.0,1272.4444444444443,407.6666666666667,4888.444444444444,150.9283888888889,0.7876775666666667,0.00046644198,-0.003904998,-1.2957264,64.226,0.008493663,0.00159705814,-1.2890156,0.3981459444444444,0.9594253,4.643736666666666,-18.33333333333333,11.555555555555555,52.333333333333336,12.11111111111111,17.0,237.3333333333333,-1038.2222222222222,-5.777777777777778,314.3333333333333,1013.9274444444446,-4.002204666666667,3324.111111111112,0.008493663,0.0021319826,0.00159705814,0.0158557944,-1.2890156,0.0052540792,64230.0,28615.5,28940.0,6.5,14.5,-46.5,0,None
2023-01-04 10:45:00,242.021,0.1060000000000002,65.0,1260.5,22399.0,4881.0,97.0,1261.7,411.1,4892.9,151.23156,0.78480414,0.001266634206,0.0002535365,-1.2991134,64.224,0.009252547,0.005479014,-1.2923326,0.34640449,0.9959306200000002,4.82807,-17.0,5.5,51.4,-22.3,4.2,231.8,-1074.5,-4.8,301.6,1013.9174,-4.0121092,3326.9,0.009252547,0.0100617444,0.005479014,0.0058892845999999,-1.2923326,-0.0052923008,64225.0,28596.5,28935.0,6.5,18.5,-46.0,0,None
2023-01-04 10:45:01,243.0331111111112,0.1066666666666675,65.0,1315.5,22398.5,4894.0,97.0,1267.6666666666667,414.55555555555554,4892.777777777777,151.4869111111111,0.782057811111111,-0.00950561732,-0.0013341494,-1.3097764,64.228,-0.0017154923399999,0.0032705559999999,-1.3025711999999998,0.3923220875,0.946634525,5.26627225,-13.27777777777778,-17.38888888888889,48.66666666666666,-10.72222222222222,-24.33333333333333,234.72222222222223,-1062.888888888889,-5.888888888888889,309.6111111111111,1013.9186111111112,-4.011197833333334,3329.8888888888887,-0.0014892827399999,-0.0313353112,0.0032852198,-0.0254212056,-1.3023142,-0.0006331301999999,64225.0,28531.5,28935.0,10.0,22.5,-46.5,0,None
2023-01-04 10:45:02,244.0351,0.1020999999999986,65.0,1263.0,22396.5,4886.5,97.0,1324.6,418.3,4885.5,151.78911999999997,0.77866442,0.029789796,0.0414823599999999,-1.3200876,64.367998,0.0378237819999999,0.045704098,-1.3138884000000002,0.36557215,0.90904943,6.1944143,-21.4,146.3,42.9,-17.0,143.8,245.0,-1084.7,-24.4,304.0,1013.9066,-4.0232265,3332.6,0.0378237819999999,0.157171188,0.045704098,0.158268472,-1.3138884000000002,-0.0187933035,64395.0,28468.0,29105.0,14.5,22.5,-18.5,0,None
