00000_Time_epoch,00000_Time_boot_sec,00000_Span_Time_boot_sec,1_battery_remaining_avg,1_current_battery_avg,1_voltage_battery_avg,125_Vcc_avg,147_battery_remaining_avg,147_current_battery_avg,147_current_consumed_avg,165_Vcc_avg,168_direction_avg,168_speed_avg,178_pitch_avg,178_roll_avg,178_yaw_avg,182_altitude_avg,182_pitch_avg,182_roll_avg,182_yaw_avg,241_vibration_x_avg,241_vibration_y_avg,241_vibration_z_avg,27_xacc_avg,27_xgyro_avg,27_xmag_avg,27_yacc_avg,27_ygyro_avg,27_ymag_avg,27_zacc_avg,27_zgyro_avg,27_zmag_avg,29_press_abs_avg,29_press_diff_avg,29_temperature_avg,30_pitch_avg,30_pitchspeed_avg,30_roll_avg,30_rollspeed_avg,30_yaw_avg,30_yawspeed_avg,33_alt_avg,33_hdg_avg,33_relative_alt_avg,33_vx_avg,33_vy_avg,33_vz_avg,label,diagnosis
2023-01-02 06:31:26,167.64,-0.076666666666668,80.0,57.0,23183.0,4893.0,99.0,58.0,28.0,4881.5,-145.3692,0.2231868999999999,-0.0010034140666666,-0.01258408,-1.1669036666666666,27.723333333333333,-0.0005827418999999,-0.0129680733333333,-1.1768663333333331,0.023376892,0.026074742,0.037395196,-14.8,0.0,94.0,-2.0,1.0,248.6,-1064.6,0.0,337.2,1022.3572,0.074468746,3303.0,-0.0005827418999999,0.0013823826666666,-0.0129680733333333,-0.00018152877,-1.1768663333333331,9.510966666666662e-06,27725.0,29257.5,5.0,-2.0,5.5,6.5,0,None
2023-01-02 06:31:27,168.4188888888889,0.1022222222222239,80.0,59.0,23174.0,4885.0,99.0,57.55555555555556,28.0,4883.888888888889,-149.10412222222217,0.1592877111111111,-0.001047288825,-0.0128152825,-1.16559675,27.75,-0.000523569325,-0.0127883375,-1.17659375,0.0265301,0.0246261344444444,0.0363259877777777,-14.11111111111111,0.4444444444444444,94.0,-1.1111111111111112,0.8888888888888888,248.3333333333333,-1065.0,-0.1111111111111111,336.8888888888889,1022.360888888889,0.0780468722222222,3303.777777777778,-0.000523569325,0.00171127175,-0.0127883375,0.0008119204,-1.17659375,-0.0006428642749999,27750.0,29259.0,30.0,-2.0,6.0,7.0,0,None
2023-01-02 06:31:28,169.41799999999998,0.1039999999999991,80.0,76.66666666666667,23171.666666666668,4868.333333333333,99.0,115.6,28.7,4878.0,-153.23005999999998,0.17528702,-0.00081877729,-0.0129024783333333,-1.1638156666666666,27.79833333333333,-0.0001901586933333,-0.012734435,-1.1759631666666668,0.071439967,0.164778789,0.7672501519999999,-12.75,-1.5,91.8,-2.25,0.85,246.0,-1071.7,3.7,342.65,1022.3623,0.0796171855,3304.85,-0.0001901586933333,0.0036395769333333,-0.012734435,0.0028802989833333,-1.1759631666666668,-0.0004462318866666,27790.0,29261.0,70.0,-2.0,7.5,7.0,0,None
2023-01-02 06:31:29,170.426,0.1019999999999981,80.0,134.0,23137.0,4873.0,99.0,98.2,29.0,4879.4,-155.03314,0.22319512,-0.00112567286,-0.013751448,-1.1635334,27.832,-0.0001293893946,-0.012753232,-1.1757259999999998,0.111325123,0.3525929499999999,2.1675665,-14.3,1.1,89.0,-1.1,2.7,247.4,-1067.3,-0.5,333.8,1022.3761,0.093312496,3305.9,-0.0001293893946,0.0036804751999999,-0.012753232,0.0014099983999999,-1.1757259999999998,-0.0003864286,27825.0,29264.5,105.0,-2.0,8.0,7.5,0,None
2023-01-02 06:31:30,171.42155555555556,0.1045555555555558,80.0,1981.0,22617.0,4891.0,99.0,1480.111111111111,31.11111111111111,4877.444444444444,-155.0776,0.2742646333333333,0.0068501015,-0.00334057425,-1.16430775,27.9875,0.0081089363,-0.003326009,-1.17617875,0.456121911111111,1.0388186333333334,3.776153333333333,-8.777777777777779,43.333333333333336,74.22222222222223,-30.33333333333333,6.222222222222222,234.0,-1188.111111111111,-4.555555555555555,291.3333333333333,1022.62,0.3371614444444444,3307.111111111112,0.0081089363,0.015888607,-0.003326009,0.04397293825,-1.17617875,0.0022389229999999,27905.0,29261.5,185.0,-3.5,7.5,38.0,0,None
2023-01-02 06:31:31,172.405,0.104000000000002,78.66666666666667,1808.6666666666667,22559.0,4884.0,99.0,1813.0,35.5,4870.9,-155.89736,0.3244721,0.0024454729999999,-0.0064406762199999,-1.1579576,29.368,0.0039552972,-0.0060572774,-1.1680904,0.5060139800000001,1.4454805,3.5659497,9.8,-26.05,71.15,-13.45,58.5,226.75,-1230.2,12.6,289.4,1022.21425,-0.0685859325,3308.0,0.0039552972,0.055017998,-0.0060572774,-0.008764474,-1.1680904,0.0313338708,29155.0,29303.5,1435.0,10.0,-7.0,224.0,0,None
2023-01-02 06:31:32,173.413,0.0999999999999999,77.5,1635.5,22559.5,4890.0,99.0,1739.1,40.5,4882.5,-159.47557999999998,0.3763219399999999,0.0413653899999999,-0.0212402594,-1.1579962,32.258,0.04210854,-0.0204168658,-1.1862874,0.5168882499999999,1.1361328000000002,2.7180173,-3.9,19.7,64.0,-11.4,-39.2,225.9,-1078.7,-17.9,304.7,1021.8531,-0.42981249,3309.5,0.04210854,-0.019346068,-0.0204168658,0.029487146,-1.1862874,-0.0063465261999999,31980.0,29250.5,4260.0,-6.0,-4.5,328.0,0,None
2023-01-02 06:31:33,174.421,0.0999999999999999,77.0,1215.0,22655.0,4882.0,99.0,1227.2,44.7,4886.4,-166.66690000000003,0.43438064,-0.124777834,0.0511890639999999,-1.1763366,35.230000000000004,-0.11995164,0.050236536,-1.2083782,0.55643623,0.94083713,2.8359961999999994,19.2,77.6,113.8,-8.1,-274.5,258.1,-969.3,67.0,286.4,1021.5177,-0.76510936,3310.7,-0.11995164,-0.290204566,0.050236536,0.090757496,-1.2083782,0.0414560021999999,35015.0,29068.0,7295.0,-1.0,-16.5,280.5,0,None
2023-01-02 06:31:34,175.429,0.1019999999999981,76.0,1634.0,22542.0,4886.5,99.0,1515.4,48.5,4880.4,-175.70118000000002,0.4854181199999999,-0.22119302,-0.0028274679999999,-0.97335492,37.24,-0.214224,-0.0025451299999999,-1.00451678,0.40999641,1.14274835,5.0764159,15.7,-70.9,200.7,-15.1,186.2,232.8,-1103.4,233.9,253.5,1021.237,-1.0457656600000005,3311.6,-0.214224,0.2144020659999999,-0.0025451299999999,-0.059511772,-1.00451678,0.260019662,37075.0,30110.0,9355.0,147.5,-209.0,194.5,0,None
2023-01-02 06:31:35,176.409,0.1044444444444441,75.0,1644.0,22508.0,4890.0,99.0,1633.4444444444443,53.0,4884.222222222223,176.47310000000002,0.5263638555555555,-0.0334310633999999,-0.004638153202,-0.8919701,39.334,-0.03625945,-0.0022379783999999,-0.92671728,0.3942314888888888,0.8454163777777778,3.6170186666666666,-7.222222222222222,93.55555555555556,162.22222222222223,-25.33333333333333,94.33333333333331,207.22222222222223,-1106.0,-4.777777777777778,291.8888888888889,1021.0123333333332,-1.270503333333333,3312.777777777778,-0.03625945,0.1156200119999999,-0.0022379783999999,0.1039183768,-0.92671728,-0.0058341079999999,39130.0,30695.5,11410.0,214.0,-369.0,228.0,0,None
2023-01-02 06:31:36,177.398,0.1041000000000025,74.66666666666667,1498.6666666666667,22550.33333333333,4882.333333333333,99.0,1467.6,57.2,4878.9,169.16631999999998,0.5743751400000001,-0.028705594,0.0136272048,-0.90169734,41.884,-0.032641292,0.015605786,-0.93779738,0.44926356,1.15682245,2.8372146000000003,-26.0,-23.9,160.05,-28.55,-58.25,218.6,-1057.35,-36.15,291.55,1020.7251,-1.55766805,3314.35,-0.032641292,-0.063226398,0.015605786,-0.04458878,-0.93779738,-0.044293498,41635.0,30653.0,13915.0,227.5,-371.0,254.0,0,None
2023-01-02 06:31:37,178.39211111111112,0.1044444444444441,74.0,1568.0,22498.0,4891.0,99.0,1493.3333333333333,61.22222222222222,4886.222222222223,160.96037777777778,0.6462758111111111,-0.088880608,0.0045347307999999,-0.91900134,44.528,-0.088706646,0.0080509326,-0.95692324,0.4623615666666667,1.190945777777778,3.5416116666666664,-22.0,-1.1111111111111112,177.0,-36.66666666666666,-6.111111111111111,223.11111111111111,-1054.6666666666667,12.666666666666666,304.6666666666667,1020.4284444444444,-1.854244777777778,3315.222222222222,-0.088706646,0.0002470471999999,0.0080509326,0.0144446079999999,-0.95692324,0.020851468,44280.0,30505.0,16560.0,254.0,-405.5,256.0,0,None
2023-01-02 06:31:38,179.38199999999998,0.1019999999999981,73.5,1447.0,22546.5,4883.5,99.0,1478.8,65.5,4878.4,154.28937000000002,0.7208117,-0.06859411,0.032492348,-0.90977666,47.158,-0.067607956,0.0360397619999999,-0.950227,0.42430979,1.2609711,2.9368816,-14.7,28.5,175.7,-28.9,28.5,225.7,-1071.4,-4.0,282.4,1020.1569,-2.1259843,3316.5,-0.067607956,0.0368537046,0.0360397619999999,0.0188490641999999,-0.950227,-0.0233736016,46930.0,30566.5,19210.0,298.0,-466.5,256.0,0,None
2023-01-02 06:31:39,180.3949,0.1040999999999996,72.66666666666667,1448.3333333333333,22522.666666666668,4882.666666666667,99.0,1452.9,69.6,4877.1,147.78395,0.8102607000000001,-0.02623252,0.0170635566,-0.92417308,49.766,-0.025548486,0.021101558,-0.96605464,0.4394970499999999,1.2924196,2.650051,-18.1,-21.95,158.0,-31.6,41.55,227.85,-1068.15,-20.75,309.05,1019.85265,-2.43007405,3317.9,-0.025548486,0.044983333,0.021101558,-0.0280088917599999,-0.96605464,-0.0072195145999999,49525.0,30475.0,21805.0,339.0,-488.5,262.0,0,None
2023-01-02 06:31:40,181.4069,0.0999000000000023,72.0,1531.0,22472.5,4880.5,99.0,1517.6,73.7,4879.8,142.29868,0.91431852,-0.0023736549,0.0078903102,-0.9451762,52.38199999999999,-0.0008674813999999,0.012578512,-0.9871722,0.45969129,1.0363008700000005,3.383319,-21.7,-1.0,140.2,-33.4,-2.9,223.1,-1062.0,-14.3,308.2,1019.5134999999998,-2.7693124,3319.3,-0.0008674813999999,0.0124834814,0.012578512,-0.001310568,-0.9871722,-0.018794911038,52145.0,30359.0,24425.0,336.0,-484.5,262.0,0,None
2023-01-02 06:31:41,182.4069,0.1000999999999976,71.0,1155.5,22592.5,4870.5,99.0,1325.7,77.7,4877.6,137.40704,1.04807218,0.041735362,0.0069797378,-0.96089778,54.998000000000005,0.044102614,0.0110783752,-1.0051372400000005,0.49747582,1.0547044600000002,3.7244664,-32.3,-15.3,131.7,-30.0,108.7,220.5,-979.0,-1.1,314.7,1019.2189,-3.0637499000000004,3320.3,0.044102614,0.1006960299999999,0.0110783752,-0.0231116289999999,-1.0051372400000005,-0.000477056,54785.0,30232.0,27065.0,317.5,-478.0,245.5,0,None
2023-01-02 06:31:42,183.4089,0.0999999999999999,71.0,1067.0,22578.0,4893.0,99.0,1023.2,80.9,4884.5,133.41304,1.1884836,-0.0097544622,-0.0160752168,-0.9593525799999998,56.698,-0.0070266734,-0.0129165479999999,-1.00463272,0.6683194800000001,1.01444443,5.3330246,-46.8,-0.7,141.6,-30.4,-146.9,221.0,-953.1,-31.2,325.4,1019.0046,-3.2780860000000005,3321.7,-0.0070266734,-0.122563646,-0.0129165479999999,0.02395874,-1.00463272,-0.031909716,56615.0,30260.5,28895.0,263.5,-436.0,117.0,0,None
2023-01-02 06:31:43,184.4069,0.0999000000000023,71.0,1159.5,22580.5,4891.5,99.0,1128.2,83.8,4886.6,130.20706,1.3223623999999998,-0.03527243,0.0085360556799999,-0.9844606,57.304,-0.031439668,0.0111659282,-1.0316464,0.5559247,0.99140379,7.6886391,-47.7,17.9,147.8,-29.0,21.1,226.0,-1033.7,-29.8,307.4,1018.9325,-3.3501639,3322.8,-0.031439668,0.0285490417999999,0.0111659282,0.025818552,-1.0316464,-0.019288342,57270.0,30096.0,29550.0,241.0,-449.5,43.0,0,None
2023-01-02 06:31:44,185.407,0.1000999999999976,71.0,1145.5,22580.5,4890.5,99.0,1133.6,87.0,4886.0,127.56382,1.4378088000000002,-0.038889978,0.023669926,-0.9927209,57.48,-0.03576817,0.024701288,-1.0429964000000005,0.58770125,1.0687499099999995,6.750862699999999,-36.3,4.8,146.5,-20.2,-42.0,238.8,-1067.5,-22.3,291.6,1018.9128,-3.3699999,3324.1,-0.03576817,-0.047117182,0.024701288,0.019892851,-1.0429964000000005,-0.022973639,57475.0,30036.5,29755.0,245.5,-451.0,19.5,0,None
2023-01-02 06:31:45,186.4082,0.1003000000000014,70.0,1157.5,22574.5,4889.0,99.0,1151.5,90.2,4888.6,125.34182,1.5403742,-0.067111924,-0.0098731113999999,-1.036712,57.510000000000005,-0.06442939,-0.0078259666,-1.0875526,0.57481259,1.03715988,7.282983800000001,-38.2,-16.9,141.8,-21.5,16.8,231.2,-1050.1,-36.8,307.9,1018.9038,-3.3790780000000007,3325.3,-0.06442939,0.017140218,-0.0078259666,-0.0063363719999999,-1.0875526,-0.043155412,57510.0,29783.5,29790.0,263.5,-480.0,11.5,0,None
2023-01-02 06:31:46,187.4099,0.0998999999999994,70.0,1072.5,22585.5,4890.5,99.0,1100.8,93.3,4887.3,123.44662,1.6301252000000002,-0.025409868,0.00894757388,-1.030593,57.488,-0.024991986,0.0115297346,-1.0841596,0.6798368699999999,1.0806692,8.297774,-40.3,13.9,131.0,-26.8,34.7,234.0,-1087.7,24.7,299.6,1018.9601,-3.3227265000000004,3326.6,-0.024991986,0.05761284,0.0115297346,0.00540384,-1.0841596,0.031315883,57490.0,29765.0,29770.0,262.0,-510.0,10.0,0,None
2023-01-02 06:31:47,188.41,0.1001000000000004,70.0,1166.5,22540.0,4889.0,99.0,1157.6,96.5,4884.6,121.75968000000005,1.7098300000000002,-0.01912284,0.0123516559999999,-0.99964644,57.374,-0.0193560139999999,0.014449918,-1.0552616,0.7637080700000001,1.08260229,8.7250902,-50.5,-11.9,133.0,-27.0,-13.5,233.8,-1097.2,-2.0,312.1,1018.9821000000002,-3.3006795,3327.8,-0.0193560139999999,0.017760604,0.014449918,-0.026559614,-1.0552616,-0.0048445414,57385.0,29961.5,29665.0,253.5,-501.5,8.5,0,None
2023-01-02 06:31:48,189.4098,0.0998999999999994,70.0,1020.0,22601.5,4889.0,99.0,1048.7,99.5,4886.1,120.19412000000004,1.7880768,-0.07392829,-0.0010835822199999,-1.0142078,57.34,-0.07331527,0.0016568519999999,-1.0722424,0.70329801,0.92484475,9.9954437,-39.2,3.8,147.9,-20.8,-28.2,234.9,-1076.5,2.8,310.3,1018.9731,-3.3096326,3328.8,-0.07331527,-0.057109462,0.0016568519999999,-0.00296636,-1.0722424,0.0037175427999999,57340.0,29851.5,29620.0,254.5,-514.5,16.5,0,None
2023-01-02 06:31:49,190.4098,0.0999999999999999,70.0,1069.0,22598.5,4877.0,99.0,1018.6,102.3,4883.7,118.77292,1.8623828,-0.027196114,-0.0260918526,-1.0470615999999997,57.362,-0.027410244,-0.0238648559999999,-1.1072022,0.79412257,1.19265846,9.7570288,-38.1,-167.6,133.8,-26.7,100.0,229.6,-1127.1,-127.4,311.2,1018.9726,-3.3103046,3330.3,-0.027410244,0.11863691962,-0.0238648559999999,-0.179782514,-1.1072022,-0.135395714,57365.0,29752.5,29645.0,273.0,-551.5,17.0,0,None
2023-01-02 06:31:50,191.4099,0.1001000000000004,69.0,1223.5,22569.0,4872.0,99.0,1228.3,105.5,4878.4,117.53068,1.9292629999999995,0.017417202,-0.17231538,-1.3328802,57.33799999999999,0.0162865079999999,-0.16710246,-1.3940368,0.84136992,1.2998628800000005,7.654259100000002,-47.8,16.9,41.4,-14.5,-3.4,191.7,-1053.8,-368.2,357.2,1018.9469,-3.3360078,3331.3,0.0162865079999999,-0.03138767184,-0.16710246,0.000586552,-1.3940368,-0.37884796,57335.0,28207.5,29615.0,156.5,-549.0,9.5,0,None
2023-01-02 06:31:51,192.4098,0.0998999999999994,69.0,1115.0,22551.5,4872.5,99.0,1145.0,108.8,4875.6,116.51346,1.993255,-0.0506868787999999,-0.100138298,-1.6093266,57.428,-0.0495068938,-0.098113476,-1.671741,0.91063225,1.5533746999999998,7.963763,-50.8,87.5,-14.0,2.4,84.7,209.1,-1110.9,-151.4,354.3,1018.9204000000002,-3.3624374,3332.4,-0.0495068938,0.062767942,-0.098113476,0.0840967204,-1.671741,-0.140173004,57415.0,26483.5,29695.0,6.5,-548.5,14.5,0,None
2023-01-02 06:31:52,193.4098,0.0999999999999999,69.0,1276.5,22504.5,4886.5,99.0,1087.1,111.9,4882.2,115.68336000000002,2.0528582,0.159896262,-0.025280576,-1.6519404000000002,57.49,0.1575054739999999,-0.026723646,-1.7158881999999998,0.6533408099999999,1.6890249000000002,10.308106699999998,-42.2,22.4,-99.2,-6.2,177.2,235.2,-1060.7,1.2,318.9,1018.9268,-3.3560078000000004,3333.5,0.1575054739999999,0.15500629,-0.026723646,0.030405174,-1.7158881999999998,-0.0015044974,57495.0,26173.0,29775.0,-39.0,-493.0,8.5,0,None
2023-01-02 06:31:53,194.426,0.1040999999999996,69.0,1190.5,22521.5,4873.0,99.0,1276.5,115.2,4883.4,115.08662,2.1026124000000004,0.113499316,-0.01328853764,-1.6218228,57.51400000000001,0.112567156,-0.0139404435999999,-1.6857146,0.71985738,1.2876843499999997,7.8961704,-22.6,27.3,-89.2,-23.0,-84.3,252.2,-1092.9,38.8,322.6,1018.8244,-3.4583280000000003,3334.7,0.112567156,-0.0961505104,-0.0139404435999999,0.04709072432,-1.6857146,0.0322072596,57495.0,26322.0,29775.0,-25.0,-321.5,4.0,0,None
2023-01-02 06:31:54,195.42033333333336,0.1022222222222239,69.0,1177.0,22520.0,4888.0,99.0,1165.4444444444443,118.66666666666669,4883.555555555556,114.52723333333334,2.1489743333333333,0.165890725,-0.00575158525,-1.6087939999999998,57.6425,0.1681312,-0.00665215925,-1.669506,0.6056298777777778,0.9328897111111112,5.242050777777778,-2.888888888888889,-24.88888888888889,-92.33333333333331,-4.555555555555555,126.77777777777776,-345.4916666666668,-1055.6666666666667,3.333333333333333,313.6666666666667,1018.8524444444444,-3.430381888888889,3335.777777777778,0.1681312,0.1394361725,-0.00665215925,-0.0433283,-1.669506,0.0029019809999999,57645.0,26440.0,29925.0,-9.0,-210.5,-4.0,1,27_ymag_avg_abrupt_-591.825
2023-01-02 06:31:55,196.414,0.1039999999999991,68.33333333333333,1096.0,22546.33333333333,4890.333333333333,99.0,1158.1,121.8,4881.8,113.9452,2.198151,0.20629805,-0.021092871,-1.5998251666666663,57.665,0.20813905,-0.0220949225,-1.659628833333333,0.59466034,1.06876887,5.2781416000000005,31.8,17.65,-107.25,15.8,-28.4,-355.52500000000003,-1062.55,30.6,313.4,1018.833,-3.44966405,3337.0,0.20813905,-0.03435937,-0.0220949225,0.016794425,-1.659628833333333,0.0236160015,57665.0,26482.0,29945.0,2.0,-44.0,-6.5,1,27_ymag_avg_abrupt_-591.825
2023-01-02 06:31:56,197.43400000000003,0.1039999999999991,68.0,1043.0,22556.5,4889.0,99.0,1047.3,124.9,4886.3,113.38584,2.2550326000000003,0.1203073,0.0128831307999999,-1.5848306,57.664,0.125016006,0.01036380334,-1.6432318,1.00165235,1.5372272,9.9151259,63.0,10.0,-81.7,-31.1,-127.4,-338.02500000000003,-1114.8,-3.4,310.2,1018.904,-3.3786875000000003,3338.2,0.125016006,-0.13738283,0.01036380334,0.0194111179999999,-1.6432318,-0.0116391144,57670.0,26599.0,29950.0,16.5,78.5,-8.5,1,27_ymag_avg_abrupt_-591.825
2023-01-02 06:31:57,198.42044444444443,0.1022222222222239,68.0,1104.0,22517.0,4895.0,99.0,1102.4444444444443,128.0,4880.111111111111,112.83837777777777,2.319312555555556,0.0655277175,0.0049070799999999,-1.62088025,57.555,0.0711874575,0.0014798699999999,-1.6788485,1.029484788888889,1.6315188888888887,10.892748333333335,39.55555555555556,-22.22222222222222,-67.33333333333333,-11.444444444444445,-5.666666666666667,-337.82500000000005,-1103.6666666666667,-48.11111111111112,318.55555555555554,1018.9305555555557,-3.351996333333333,3339.111111111112,0.0711874575,-0.00961718,0.0014798699999999,-0.0219953499999999,-1.6788485,-0.0539236475,57555.0,26394.0,29835.0,26.5,108.5,-1.5,1,27_ymag_avg_abrupt_-591.825
2023-01-02 06:31:58,199.418,0.1059999999999973,68.0,1029.3333333333333,22555.666666666668,4886.666666666667,99.0,1142.7,131.0,4885.2,112.23694,2.3774656000000003,0.0564282949999999,0.0180839283333333,-1.6295755000000005,57.505,0.0612913866666666,0.0139254783333333,-1.6864401666666666,0.7817200499999999,1.3162092,9.4891239,36.85,77.75,-64.1,-16.25,16.75,-338.27500000000003,-1062.7,23.55,311.4,1018.9009999999998,-3.3818477,3340.3,0.0611245866666666,0.0267429645,0.0143799749999999,0.0384041991666666,-1.6863878333333335,0.0236761505,57500.0,26335.5,29780.0,10.0,108.5,3.0,1,27_ymag_avg_abrupt_-591.825
2023-01-02 06:31:59,200.4115555555556,0.1044444444444473,68.0,969.0,22558.0,4875.0,99.0,1030.2222222222222,133.88888888888889,4885.0,111.71131111111112,2.422314777777778,0.016477803225,0.014400340625,-1.62324725,57.5325,0.0208177765,0.0099617754999999,-1.6791805000000002,1.0678210222222222,1.3055347777777777,9.71185722222222,68.77777777777777,-59.11111111111112,-52.44444444444444,-59.11111111111112,-22.666666666666668,-331.15833333333336,-1045.3333333333333,-20.77777777777778,317.8888888888889,1018.9317777777778,-3.351033,3341.4444444444443,0.0208177765,-0.02738102,0.0099617754999999,-0.0662693,-1.6791805000000002,-0.01753511,57530.0,26380.5,29810.0,31.5,83.0,3.5,1,27_ymag_avg_abrupt_-591.825
2023-01-02 06:32:00,201.402,0.1059999999999973,68.0,1187.3333333333333,22491.666666666668,4879.0,99.0,1192.7,137.0,4875.4,111.2544,2.4540136,0.035535436,0.00769826754,-1.6339876,57.468,0.0403103759999999,0.0042240088,-1.6888288,0.51019656,1.1457300199999998,6.2419033,55.35,14.95,-60.1,-21.1,5.85,-335.92500000000007,-1074.15,-5.75,313.9,1018.89365,-3.389093550000001,3342.35,0.0403103759999999,0.0188764778,0.0042240088,0.0268735398,-1.6888288,-0.0107414756,57470.0,26313.0,29750.0,22.0,53.0,7.0,1,27_ymag_avg_abrupt_-591.825
2023-01-02 06:32:01,202.446,0.0999999999999999,68.0,1172.0,22509.5,4886.5,99.0,1224.5,140.5,4877.9,110.81592,2.4792128,0.02373332,0.0061573705999999,-1.6273462000000003,57.49,0.028181748,0.0032902664,-1.6795226,0.52607524,0.99838678,5.0589719,43.0,-47.0,-53.2,-16.3,-28.4,-341.225,-1061.1,26.5,311.8,1018.9073,-3.3754217000000004,3343.5,0.028181748,-0.0045148688,0.0032902664,-0.0534010756,-1.6795226,0.0025112626,57495.0,26388.5,29775.0,28.0,12.5,7.5,1,27_ymag_avg_abrupt_-591.825
2023-01-02 06:32:02,203.4115555555556,0.1044444444444473,68.0,1211.0,22483.0,4890.0,99.0,1106.4444444444443,143.66666666666666,4880.555555555556,110.41598888888888,2.500686,0.024184334,-0.026468828,-1.6218119999999998,57.534000000000006,0.028583878,-0.02732034,-1.672701,0.5674884888888889,1.060528711111111,5.392842333333332,35.888888888888886,28.666666666666668,-46.44444444444444,-33.22222222222222,42.0,-349.93611111111113,-1026.7777777777778,10.333333333333334,328.0,1018.882,-3.400902666666666,3344.6666666666665,0.028583878,0.0470768402,-0.02732034,0.032360084,-1.672701,-0.0088896694,57540.0,26414.0,29820.0,7.0,-19.0,3.0,1,27_ymag_avg_abrupt_-591.825
2023-01-02 06:32:03,204.392,0.1039999999999991,68.0,1095.3333333333333,22507.666666666668,4892.0,99.0,1097.9,146.8,4883.5,110.07008,2.5218074,0.0393418339999999,-0.0125483738,-1.612154,57.564,0.04377513,-0.013748647,-1.6620312,0.72364483,1.24746677,7.643546900000001,32.85,-3.85,-51.1,1.8,0.45,-348.87500000000006,-1054.45,28.55,321.45,1018.8838000000002,-3.39889845,3345.5,0.04377513,0.01727492,-0.013748647,0.008419526,-1.6620312,0.025303438,57565.0,26494.5,29845.0,-3.5,-36.5,0.5,1,27_ymag_avg_abrupt_-591.825
2023-01-02 06:32:04,205.414,0.1019999999999981,67.0,1033.0,22521.0,4886.0,99.0,1077.9,149.8,4875.2,109.71041999999996,2.5448812000000003,0.066269486,-0.0139737996,-1.5774022,57.57000000000001,0.0709711059999999,-0.0132681115999999,-1.6260716000000002,1.2429277,1.7409274,12.277634,54.0,-3.9,-53.2,-19.8,72.2,-350.82500000000005,-1054.8,23.3,328.6,1018.9097000000002,-3.3730155,3346.7,0.0709711059999999,0.0737014679999999,-0.0132681115999999,0.0136782422,-1.6260716000000002,0.0192401966,57565.0,26706.0,29845.0,-7.0,-33.0,2.5,1,27_ymag_avg_abrupt_-591.825
2023-01-02 06:32:05,206.446,0.0999999999999999,67.0,1040.0,22507.0,4892.0,99.0,1003.8,152.7,4883.6,109.3754,2.5696084000000003,0.0872159159999999,-0.0120341168,-1.5893202,57.538,0.091109028,-0.0107898872,-1.637792,1.160714,1.9353369,12.5021399,26.9,0.3,-57.6,4.4,-28.6,-349.92500000000007,-1047.1,-21.5,315.4,1018.9341,-3.3487186,3347.7,0.091109028,-0.0086297819999999,-0.0107898872,0.006900736,-1.637792,-0.0313229846,57535.0,26596.5,29815.0,-17.5,14.0,5.0,1,27_ymag_avg_abrupt_-591.825
2023-01-02 06:32:06,207.45,0.102000000000001,67.0,1218.5,22477.5,4882.5,99.0,1077.3,155.6,4881.0,109.02514,2.6029694,0.076118506,-0.0060764535999999,-1.6057406,57.48,0.082126252,-0.0054921838,-1.6542256000000002,0.97643605,1.5112917,8.8905536,41.1,4.7,-60.0,-6.7,10.5,-339.52500000000003,-1071.1,5.9,319.7,1018.8987,-3.3839844,3348.5,0.082126252,0.0386634999999999,-0.0054921838,-0.005064614,-1.6542256000000002,-0.0010680698,57480.0,26524.5,29760.0,-11.5,36.5,5.0,1,27_ymag_avg_abrupt_-591.825
2023-01-02 06:32:07,208.466,0.0999999999999999,67.0,1117.5,22484.0,4891.5,99.0,1176.1,159.1,4883.9,108.59892,2.6446236,0.061304598,-0.00473923814,-1.6073894000000002,57.504,0.068004028,-0.00331073682,-1.653544,0.6831820000000001,1.18526338,6.9370314,59.8,-13.7,-59.3,11.9,-12.6,-341.225,-1053.2,3.7,317.0,1018.8368,-3.4460547,3349.8,0.068004028,-0.053308144,-0.00331073682,0.0051882544,-1.653544,0.0164407596,57515.0,26527.0,29795.0,-2.0,36.0,2.5,1,27_ymag_avg_abrupt_-591.825
2023-01-02 06:32:08,209.4182222222222,0.1022222222222239,67.0,1142.0,22448.0,4893.0,98.55555555555556,1074.111111111111,162.0,4885.111111111111,108.17379999999996,2.686275111111111,0.034190886,-0.0144302532599999,-1.6142896,57.596,0.041649616,-0.0120921796,-1.6583904,0.7395609888888889,1.1652942222222222,6.892511555555554,49.22222222222222,39.22222222222222,-49.66666666666666,-23.444444444444443,1.2222222222222223,251.11111111111111,-1023.5555555555557,-15.0,320.0,1018.8837777777776,-3.399036333333333,3350.555555555556,0.041649616,0.0349199936,-0.0120921796,0.012932472,-1.6583904,-0.028733756,57600.0,26489.0,29880.0,-7.5,15.0,-1.5,0,None
2023-01-02 06:32:09,210.402,0.1039999999999991,67.0,1102.0,22475.0,4883.0,98.0,1081.7,164.8,4877.5,107.8033,2.7243674,0.061244846,0.0016743148,-1.6209538,57.58799999999999,0.068607608,0.0028103479999999,-1.6652178,0.7576811699999999,1.2432534999999998,7.9470827,61.35,-10.7,-55.35,1.0,27.05,254.2,-1074.8,11.35,317.8,1018.8651,-3.4176757,3351.55,0.068607608,0.0268807239999999,0.0028103479999999,-0.0175634912,-1.6652178,0.0056205093999999,57590.0,26464.5,29870.0,4.5,-5.5,-3.5,0,None
2023-01-02 06:32:10,211.442,0.1039999999999991,67.0,1339.0,22407.0,4881.0,98.0,1200.6,168.1,4877.5,107.45852,2.7575876,0.078708088,-0.023934202,-1.6153336,57.582,0.085208052,-0.0213678839999999,-1.6587717999999998,0.61028452,1.1514856000000002,6.7332753,58.8,1.6,-57.6,1.3,-9.2,245.4,-1095.0,-10.3,321.6,1018.8533,-3.4293515,3352.6,0.085208052,-0.016963734,-0.0213678839999999,-0.0121223428,-1.6587717999999998,-0.0037698339999999,57585.0,26487.5,29865.0,10.0,4.0,-4.0,0,None
2023-01-02 06:32:11,212.43155555555552,0.1066666666666675,67.0,1123.5,22470.5,4876.0,98.0,1123.5555555555557,171.33333333333334,4874.666666666667,107.13746666666668,2.794011333333333,0.062347034,-0.0202734159999999,-1.6234176000000002,57.604000000000006,0.070252606,-0.017685368,-1.6662856,0.7083048333333333,1.1414444444444445,7.061901333333332,65.55555555555556,0.1666666666666666,-55.11111111111112,2.833333333333333,11.166666666666666,240.44444444444449,-1010.6111111111112,25.27777777777778,321.27777777777777,1018.8461666666668,-3.436519,3353.6666666666665,0.070252606,0.0015261048,-0.017685368,-0.012020162,-1.6662856,0.0242490702,57610.0,26455.0,29890.0,7.0,2.5,-0.5,0,None
2023-01-02 06:32:12,213.422,0.1019999999999981,67.0,1119.0,22452.5,4875.0,98.0,1093.6,174.4,4882.5,106.86601999999998,2.8339194,0.07912901,-0.032002612,-1.614116,57.608,0.087186428,-0.029478108,-1.6560960000000002,0.80336398,1.2884077,8.1269154,73.3,-7.8,-58.2,16.4,21.1,239.8,-1087.3,17.1,320.5,1018.8746,-3.4081326999999995,3354.5,0.086740962,0.0293391579999999,-0.029390486,-4.946999999999972e-05,-1.656119,0.018108498,57605.0,26511.0,29885.0,0.0,-2.5,-2.0,0,None
2023-01-02 06:32:13,214.4183333333333,0.1088888888888908,67.0,1140.5,22491.5,4889.0,98.0,1138.5555555555557,177.44444444444446,4882.444444444444,106.64813333333332,2.8773500000000003,0.096707408,-0.00661637568,-1.6189056000000002,57.574,0.10434428,-0.0045809385999999,-1.659997,0.776372511111111,1.3715006666666665,8.852439222222223,62.833333333333336,30.27777777777778,-65.55555555555556,-10.72222222222222,1.1111111111111112,247.5555555555556,-1049.611111111111,8.944444444444445,320.6111111111111,1018.8735555555556,-3.409288055555556,3355.277777777778,0.10434428,0.0025382477999999,-0.0045809385999999,0.033649706,-1.659997,0.0103901622,57570.0,26491.0,29850.0,-3.0,10.5,0.0,0,None
2023-01-02 06:32:14,215.4221,0.1019999999999981,67.0,1002.5,22531.0,4886.5,98.0,1054.9,180.6,4882.0,106.40928,2.9267234,0.079447858,-0.0119504207199999,-1.6142438,57.54,0.087140004,-0.0102764463199999,-1.6547438,0.85764368,1.4339943,8.681770000000002,72.2,-17.8,-54.8,-3.5,-19.5,250.4,-1057.5,14.4,320.0,1018.8965,-3.3860781,3356.3,0.087140004,-0.02188409,-0.0102764463199999,-0.0293672712,-1.6547438,0.013596648,57530.0,26516.0,29810.0,7.0,16.5,4.0,0,None
2023-01-02 06:32:15,216.4093333333333,0.1044444444444473,67.0,1149.0,22460.0,4871.0,98.0,1003.3333333333334,183.3333333333333,4886.333333333333,106.13956666666668,2.9751044444444443,0.083135978,-0.02073442,-1.6078844,57.496,0.0916376179999999,-0.018726816,-1.6476188,0.8998096444444444,1.4802372222222222,9.577851444444445,59.0,-6.333333333333333,-52.66666666666666,0.2222222222222222,39.888888888888886,244.88888888888889,-1016.1111111111112,-1.0,328.55555555555554,1018.8394444444444,-3.443133555555556,3357.111111111112,0.0916376179999999,0.0433610092,-0.018726816,-0.019432836,-1.6476188,0.002189986,57490.0,26576.5,29770.0,13.5,16.0,0.0,0,None
2023-01-02 06:32:16,217.4,0.1039999999999991,67.0,1072.0,22490.666666666668,4894.333333333333,98.0,1040.0,186.3,4884.9,105.86484,3.029916,0.086352,-0.0449299379999999,-1.601684,57.48599999999999,0.094437036,-0.043285522,-1.6403894,0.98861557,1.4334128000000002,9.0353406,56.8,-38.85,-54.45,46.8,-22.7,244.15,-1067.4,4.05,333.55,1018.8547,-3.4281405500000006,3358.1,0.094564388,-0.0019762114,-0.0430386059999999,-0.035956678,-1.6403198,0.0054320291999999,57480.0,26609.0,29760.0,20.0,18.0,-3.0,0,None
2023-01-02 06:32:17,218.424,0.1019999999999981,67.0,1016.5,22516.0,4873.0,98.0,1001.8,189.1,4885.7,105.6872,3.0852056,0.066464028,-0.052646092,-1.6073044,57.422,0.074848678,-0.051183648,-1.6447108,1.0862515,1.5028402,11.0170255,5.6,8.5,-46.0,45.1,-39.2,235.0,-1061.9,-5.9,339.9,1018.8851999999996,-3.3976016,3358.7,0.074848678,-0.02579170604,-0.051183648,0.016980408,-1.6447108,-0.0120891182,57415.0,26573.5,29695.0,0.0,19.0,-4.0,0,None
2023-01-02 06:32:18,219.4481,0.0999999999999999,67.0,955.5,22534.0,4893.0,98.0,915.3,191.8,4883.6,105.65608,3.140763,0.052114398,-0.0291722029999999,-1.615756,57.326,0.060461254,-0.0275081836,-1.6528988000000002,1.1490986,1.7424957999999997,14.715596999999995,57.4,25.8,-43.6,-4.5,-35.1,244.3,-1101.6,-16.7,330.5,1018.9022,-3.3806639999999994,3359.5,0.060461254,-0.03694211156,-0.0275081836,0.0177182416,-1.6528988000000002,-0.0059542438,57320.0,26524.0,29600.0,-24.0,17.5,-0.5,0,None
2023-01-02 06:32:19,220.41377777777777,0.1044444444444473,67.0,901.0,22540.0,4887.0,98.0,898.8888888888889,194.22222222222223,4885.222222222223,105.70534444444442,3.1901771111111112,0.051037202,-0.0024432278,-1.6321738,57.24,0.05944413,-0.00219202728,-1.6690666,1.1510263333333333,1.9128453333333333,13.73462,50.55555555555556,13.0,-47.333333333333336,-15.88888888888889,40.333333333333336,249.3333333333333,-1132.3333333333333,-20.666666666666668,330.44444444444446,1018.949777777778,-3.332864555555556,3360.111111111112,0.05944413,-0.0575377616,-0.00219202728,0.0024025919999999,-1.6690666,-0.0096320544,57230.0,26430.5,29510.0,-20.5,14.0,3.5,0,None
2023-01-02 06:32:20,221.38810000000004,0.1019999999999981,67.0,986.5,22525.5,4891.5,98.0,996.3,196.8,4879.6,105.70156,3.2345460000000004,0.056254662,0.01132723174,-1.6358732,57.172,0.06419227,0.012264239,-1.6724712,1.02794467,1.6757410999999998,11.8823467,82.9,42.4,-53.4,-34.8,-15.7,251.0,-1046.5,-2.3,322.0,1018.9404000000002,-3.3424453,3361.0,0.06419227,0.042411504,0.012264239,-0.007528009,-1.6724712,-0.0126127056,57170.0,26416.5,29450.0,-9.0,4.5,10.0,0,None
2023-01-02 06:32:21,222.38810000000004,0.0999999999999999,67.0,1017.0,22508.0,4885.5,98.0,988.0,199.6,4877.7,105.60706,3.2690668,0.0719540799999999,0.0066198524,-1.6324592,57.176,0.07911746,0.0082785996,-1.6691264,1.06315659,1.51964,11.4106608,79.1,-17.8,-52.6,-33.8,36.8,259.5,-1031.1,13.6,312.9,1018.9126,-3.3702969,3361.8,0.07911746,-0.0167299146,0.0082785996,-0.0310828287999999,-1.6691264,0.0058634884,57180.0,26445.0,29460.0,9.5,0.5,10.0,0,None
2023-01-02 06:32:22,223.388,0.0999999999999999,67.0,945.0,22518.5,4883.5,98.0,1061.8,202.4,4876.8,105.43594,3.3006352,0.077406588,-0.017560546,-1.6291412,57.228,0.085309764,-0.0158174696,-1.6650734,0.8962362300000001,1.3519297,9.6144796,65.1,-14.1,-54.9,-22.4,-9.3,246.5,-1027.8,-13.9,322.7,1018.8927,-3.3900546999999994,3362.5,0.085309764,0.0232890572,-0.0158174696,0.0056560328,-1.6650734,-0.0025660338,57235.0,26456.0,29515.0,8.0,0.5,5.5,0,None
2023-01-02 06:32:23,224.388,0.0999999999999999,67.0,966.0,22508.0,4880.0,98.0,1082.3,205.4,4885.0,105.23424,3.3331398,0.073277254,0.0031261036,-1.6331462,57.24000000000001,0.081704996,0.004959788516,-1.6690496,0.80194673,1.3786689,8.5146044,57.8,9.3,-53.0,-14.3,3.9,259.5,-1055.0,-3.0,322.5,1018.9385,-3.3442341,3363.2,0.081704996,-0.0355773958,0.004959788516,0.01685271,-1.6690496,-0.0206777369999999,57235.0,26440.5,29515.0,-0.5,5.5,5.0,0,None
2023-01-02 06:32:24,225.38810000000004,0.0999999999999999,67.0,1015.0,22490.5,4889.0,98.0,1087.1,208.5,4884.3,105.01732,3.3655764,0.0745459179999999,0.0178662552,-1.6446492,57.226,0.0823013079999999,0.019666996,-1.6797908,0.71935538,1.1063429,5.6287229,53.9,23.9,-60.1,-32.3,-12.7,248.6,-1073.7,-19.5,313.9,1018.9026,-3.3803124,3363.9,0.0823013079999999,-0.0080219642,0.019666996,-0.005648222,-1.6797908,-0.00813846734,57230.0,26378.0,29510.0,4.5,12.0,5.5,0,None
2023-01-02 06:32:25,226.416,0.1039999999999991,67.0,1056.0,22471.33333333333,4884.666666666667,98.0,974.8,211.3,4884.8,104.75285999999998,3.3972358,0.049600522,0.018654774,-1.650456,57.25600000000001,0.0573239,0.019765772,-1.6856870000000002,0.8210201699999999,1.335932,9.5550069,45.05,-5.75,-50.65,-11.55,10.4,258.75,-1052.25,-4.75,318.1,1018.9447,-3.33810535,3364.65,0.0573239,0.0159230959999999,0.019765772,-0.016737538,-1.6856870000000002,-0.0057538625999999,57255.0,26342.0,29535.0,18.0,4.0,4.5,0,None
2023-01-02 06:32:26,227.4182222222222,0.1044444444444473,66.0,1047.0,22484.0,4895.0,98.0,1102.5555555555557,214.3333333333333,4892.777777777777,104.4593777777778,3.425272777777778,0.0641707924999999,-0.0207790755,-1.644587,57.18,0.072297875,-0.01908645675,-1.67879275,0.813247788888889,1.2125248888888889,9.258489888888889,54.333333333333336,-38.44444444444444,-52.888888888888886,-20.22222222222222,9.0,244.88888888888889,-1058.888888888889,-10.0,328.8888888888889,1018.9282222222224,-3.354635555555556,3365.333333333333,0.0719457875,0.0158774825,-0.01927100175,-0.0282589325,-1.678452,-0.0017084184999999,57175.0,26351.5,29455.0,10.5,4.0,10.0,0,None
2023-01-02 06:32:27,228.4261,0.1039999999999991,66.0,1010.3333333333334,22504.666666666668,4882.333333333333,98.0,1025.3,217.1,4883.8,104.17164,3.4512294,0.05079642,0.0123890701666666,-1.6771876666666663,57.20666666666667,0.05819045,0.0138559125,-1.7111571666666665,0.6775139800000001,1.14780603,8.0554518,38.6,41.4,-59.4,-16.8,-13.15,260.8,-1045.3,-22.3,319.6,1018.92095,-3.3618748000000003,3366.1,0.05819045,-0.0191740495,0.0138559125,0.0274689254999999,-1.7111571666666665,-0.0261940145,57215.0,26159.5,29495.0,-11.0,13.5,8.0,0,None
2023-01-02 06:32:28,229.44,0.1039999999999991,66.0,1072.0,22469.5,4891.5,98.0,1076.7,220.0,4884.3,103.90946,3.473586,0.068903282,0.0264150179999999,-1.6830052000000002,57.218,0.0765590499999999,0.027029232,-1.715982,0.5726106699999999,1.15400931,7.8919765,49.8,-10.3,-68.2,-43.5,18.2,261.7,-1069.9,29.3,307.6,1018.8917,-3.3911483,3366.8,0.0765590499999999,0.0128907722,0.027029232,0.0057345245999999,-1.715982,0.0369943408,57220.0,26184.0,29500.0,-4.0,14.5,5.0,0,None
2023-01-02 06:32:29,230.416,0.1000000000000006,66.0,987.0,22508.0,4895.0,98.0,1042.2222222222222,223.11111111111111,4886.777777777777,103.62082222222222,3.491651333333334,0.04550104,0.040917595,-1.6662354999999998,57.2775,0.0528598425,0.0432849624999999,-1.69842625,0.6634724777777776,1.1766202222222222,7.473201333333334,44.55555555555556,33.44444444444444,-57.888888888888886,-43.0,-22.88888888888889,267.77777777777777,-1046.888888888889,6.888888888888889,312.3333333333333,1018.8725555555554,-3.410173666666667,3367.8888888888887,0.0528598425,-0.0433565894999999,0.0432849624999999,0.01622209025,-1.69842625,-0.00355487425,57295.0,26264.0,29575.0,-3.0,17.0,1.0,0,None
2023-01-02 06:32:30,231.386,0.102000000000001,66.0,1039.0,22477.5,4889.0,98.0,1025.9,225.9,4883.5,103.24635999999998,3.5081018,0.0237174168,0.050308902,-1.6738326,57.31,0.0308552785999999,0.051692142,-1.7055867999999996,0.6327904599999999,1.2523617799999998,8.4594911,27.0,1.4,-49.2,-38.3,-27.5,263.3,-1053.9,-12.8,307.3,1018.9104,-3.3722733,3368.4,0.0308552785999999,-0.0320425512,0.051692142,0.0102563086,-1.7055867999999996,-0.0070270496,57300.0,26202.0,29580.0,24.5,0.0,-2.0,0,None
2023-01-02 06:32:31,232.386,0.0999999999999999,66.0,979.0,22459.5,4887.0,98.0,1093.9,228.8,4878.9,102.86414000000002,3.5160238,0.0383281336,0.0170323522,-1.6709716,57.238,0.044830944,0.0182920735999999,-1.7034714000000002,0.7461821500000001,1.22016034,7.623543500000001,43.2,-80.2,-48.1,-18.3,96.5,261.5,-1050.1,43.0,317.2,1018.9447,-3.3381718,3368.9,0.044830944,0.0563689696,0.0182920735999999,-0.080897084,-1.7034714000000002,0.010380728,57220.0,26286.5,29500.0,41.0,-21.5,5.0,0,None
2023-01-02 06:32:32,233.38810000000004,0.1019999999999981,66.0,987.5,22496.5,4866.5,98.0,970.2,231.7,4878.8,102.52042,3.5163618,0.05917994,-0.017071368,-1.6566858,57.208000000000006,0.065125828,-0.013792134,-1.6890564,0.9779758500000002,1.4038532,10.0235267,55.55555555555556,28.444444444444443,-52.888888888888886,-39.66666666666666,-49.77777777777778,253.5555555555556,-1093.4444444444443,17.77777777777778,329.3333333333333,1018.9625,-3.3202812,3369.9,0.065125828,-0.015403206,-0.013792134,0.02533035,-1.6890564,0.008425299782,57205.0,26356.5,29485.0,17.5,-9.0,12.0,0,None
2023-01-02 06:32:33,234.386,0.0980000000000018,66.0,1038.5,22468.5,4889.0,98.0,1182.4,234.7,4886.7,102.18042,3.5170936,0.111277888,-0.0130791897999999,-1.6259971999999998,57.17,0.116944314,-0.0111574082,-1.6573854,0.7653378900000001,1.3576167,7.1179161,71.4,-48.1,-60.5,4.9,29.2,244.0,-1115.8,34.6,312.8,1018.8931,-3.3896016,3370.6,0.116944314,0.0264922358,-0.0111574082,-0.028888344,-1.6573854,0.01779137,57170.0,26553.0,29450.0,17.0,14.5,5.5,0,None
2023-01-02 06:32:34,235.386,0.0999999999999999,66.0,1203.5,22414.5,4890.5,98.0,1150.1,237.8,4879.3,101.84208,3.5246606,0.0789750039999999,-0.033852486,-1.6106275999999995,57.262,0.086337516,-0.032146318,-1.6407244000000003,0.6917093900000001,1.2836681,7.759205600000001,77.1,8.5,-48.2,-17.2,-28.6,245.3,-1045.5,5.2,328.6,1018.8286999999998,-3.453953,3371.2,0.086337516,-0.047421376,-0.032146318,0.0045103642,-1.6407244000000003,0.0086076484,57305.0,26609.5,29585.0,-11.5,14.5,1.5,0,None
2023-01-02 06:32:35,236.386,0.0999999999999999,66.0,1056.5,22464.5,4888.0,98.0,1048.0,241.1,4890.2,101.55246,3.5392546,0.077124184,-0.00033250254,-1.6183216000000002,57.364,0.085769908,0.00122513668,-1.6491944,0.7937477,1.2645690000000005,8.6022462,70.9,60.3,-44.7,-13.0,6.8,254.9,-1077.5,-25.8,313.7,1018.8468,-3.4361328,3372.1,0.085769908,0.057745938,0.00122513668,0.0484090394,-1.6491944,-0.024203166,57370.0,26512.0,29650.0,-26.5,3.5,-7.0,0,None
2023-01-02 06:32:36,237.406,0.1039999999999991,66.0,1009.0,22484.0,4896.0,98.0,1064.9,243.9,4885.8,101.278,3.557372000000001,0.0804042379999999,0.0237932456,-1.6307534,57.34000000000001,0.0869691139999999,0.02452562,-1.661364,0.99266398,1.40830002,8.6544108,49.35,-16.8,-54.9,-19.1,18.25,259.55,-1054.6,14.15,488.9,1018.8885,-3.3943394499999995,3372.95,0.0869691139999999,0.0403605279999999,0.02452562,-0.039955666,-1.661364,-0.0119354238,57315.0,26493.5,29595.0,-7.5,8.0,0.5,1,27_zmag_avg_abrupt_175.5
2023-01-02 06:32:37,238.4084,0.0980999999999994,66.0,956.5,22497.5,4880.0,98.0,991.0,246.9,4892.9,100.95728,3.5765514000000005,0.0871713819999999,0.0174721168,-1.6329217999999996,57.312,0.09333726,0.0201824239999999,-1.6621048000000005,0.926489,1.1897856,7.360160899999999,67.6,11.0,-52.5,-18.7,5.0,262.4,-1056.9,-3.0,494.0,1018.8785,-3.4042654,3373.5,0.09333726,0.0283755899999999,0.0201824239999999,0.015038512,-1.6621048000000005,-0.0179694424,57310.0,26461.5,29590.0,-5.5,15.5,-6.0,1,27_zmag_avg_abrupt_175.5
2023-01-02 06:32:38,239.407,0.0999999999999999,66.0,1246.5,22361.5,4890.5,98.0,1109.7,249.8,4893.6,100.60442,3.5984298000000003,0.077461638,0.0216861199999999,-1.6463184000000002,57.314,0.084533306,0.024330504,-1.67447,0.7522185222222223,1.1119579,7.769172333333334,62.6,18.6,-57.8,-61.2,11.0,257.4,-1037.0,-10.0,492.3,1018.8293,-3.453375,3374.2,0.084533306,0.0388510670599999,0.024330504,0.010827254,-1.67447,-0.01173405564,57330.0,26386.0,29610.0,-8.5,18.0,-2.0,1,27_zmag_avg_abrupt_175.5
2023-01-02 06:32:39,240.407,0.0999999999999999,66.0,942.0,22466.0,4888.5,98.0,921.6,252.5,4891.7,100.21942,3.6210156,0.050736042,0.048318486,-1.667134,57.362,0.057940374,0.05056758,-1.6954654000000002,0.8194645333333335,1.2503645555555556,9.327035,45.6,15.7,-52.4,-29.6,-17.8,262.8,-1068.3,-19.1,473.2,1018.895,-3.3877109999999995,3375.0,0.057940374,-0.045729702,0.05056758,0.031799262,-1.6954654000000002,-0.007314612,57350.0,26261.5,29630.0,7.0,17.0,-5.5,1,27_zmag_avg_abrupt_175.5
2023-01-02 06:32:40,241.417,0.102000000000001,66.0,881.0,22500.5,4890.5,98.0,889.1,255.0,4891.2,99.791736,3.6404518,0.0378351699999999,0.032100782,-1.6638108000000005,57.286,0.044833436,0.034020006,-1.692436,0.8647938400000001,1.3740244,9.641298399999998,42.1,-27.8,-48.5,-15.2,-3.8,262.8,-1097.0,-6.6,496.2,1018.9256,-3.3572187,3375.8,0.044833436,0.0076611473999999,0.034020006,-0.0572642679999999,-1.692436,0.0190986792,57260.0,26309.5,29540.0,36.0,6.5,5.0,1,27_zmag_avg_abrupt_175.5
2023-01-02 06:32:41,242.449,0.1019999999999981,66.0,1015.6666666666666,22441.33333333333,4886.666666666667,98.0,1004.9,257.6,4889.5,99.36500599999997,3.652925400000001,0.026798548,-0.0108489393999999,-1.6541296,57.208000000000006,0.034055034,-0.0078646228,-1.6825848,1.0849826,1.4377027,9.7500697,43.5,-13.4,-40.8,-33.4,33.7,253.9,-1057.5,41.8,492.9,1018.9482999999998,-3.3345157000000007,3376.4,0.034055034,0.002932086,-0.0078646228,-0.0065055703999999,-1.6825848,0.02857401,57190.0,26417.0,29470.0,30.5,-16.0,5.0,1,27_zmag_avg_abrupt_175.5
2023-01-02 06:32:42,243.467,0.102000000000001,66.0,1038.5,22436.0,4889.5,98.0,1094.7,260.8,4890.4,99.008482,3.6577075999999993,0.093764792,-0.0246164294,-1.61441,57.164,0.100298942,-0.0214409452,-1.6435023999999998,0.75058827,1.4054603,9.1225493,57.9,-47.2,-47.5,-6.3,6.2,249.9,-1082.3,32.1,499.3,1018.9204,-3.3623436999999994,3377.2,0.100298942,0.0428809557199999,-0.0214409452,-0.0429536096,-1.6435023999999998,0.043940922,57170.0,26618.0,29450.0,14.0,4.5,12.0,1,27_zmag_avg_abrupt_175.5
2023-01-02 06:32:43,244.4392222222222,0.1022222222222208,66.0,1031.0,22448.0,4895.0,98.0,1013.2222222222222,263.6666666666667,4888.0,98.67556555555556,3.662773777777778,0.043142472,-0.0078721829819999,-1.61479,57.222,0.0503907779999999,-0.0047577574,-1.6432832000000002,0.7301536888888889,1.3480230000000002,8.555581,19.0,52.0,-32.77777777777778,-14.11111111111111,-68.66666666666667,253.22222222222223,-991.0,-4.444444444444445,497.5,1018.8954444444444,-3.387178777777778,3378.0,0.0503907779999999,-0.027499764,-0.0047577574,0.05247278,-1.6432832000000002,0.0010034972,57230.0,26535.0,29510.0,-4.0,18.0,11.0,1,27_zmag_avg_abrupt_175.5
2023-01-02 06:32:44,245.389,0.0999999999999999,66.0,1025.5,22442.0,4883.5,98.0,1060.888888888889,266.3333333333333,4887.2,98.41175,3.6674994,0.032590162,-0.0260629576,-1.5774078,57.27,0.039620356,-0.02385576842,-1.6049966000000002,1.04514189,1.7331123000000002,11.6703787,50.1,-54.7,-19.1,3.9,29.1,259.6,-1063.2,28.9,508.3,1018.8753,-3.4075704,3378.6,0.039620356,0.0390816259999999,-0.02385576842,-0.047413037,-1.6049966000000002,0.0283250199999999,57265.0,26764.5,29545.0,7.5,3.5,-1.5,1,27_zmag_avg_abrupt_175.5
2023-01-02 06:32:45,246.389,0.0999999999999999,66.0,985.5,22460.0,4891.5,98.0,945.4,269.2,4891.3,98.193696,3.6687164,0.041407940928,-0.0206146703599999,-1.6098514000000002,57.294,0.048128208,-0.0181788332,-1.6391854,1.1785161999999998,1.8265290000000003,12.176355444444445,25.7,34.5,-20.8,7.2,60.0,248.0,-1048.8,-60.9,507.8,1018.9023,-3.3805312,3379.2,0.048128208,0.097309274,-0.0181788332,0.0427912974,-1.6391854,-0.062583448,57295.0,26688.5,29575.0,-12.5,-10.0,6.0,1,27_zmag_avg_abrupt_175.5
2023-01-02 06:32:46,247.3889,0.0999999999999999,66.0,978.0,22463.0,4887.5,98.0,852.0,271.8,4891.9,98.009866,3.6679364000000008,0.1002159719999999,0.00601175942,-1.6233540000000002,57.3,0.10453462,0.0074274256,-1.6532931999999998,1.14019489,1.8181565,13.285069000000002,42.8,-10.4,-54.6,-3.9,-23.9,260.2,-1006.1,7.9,496.1,1018.8793000000002,-3.4035389,3379.9,0.10453462,-0.056894068,0.0074274256,0.0015989859999999,-1.6532931999999998,-0.0003460732,57290.0,26533.0,29570.0,-17.0,0.0,1.5,1,27_zmag_avg_abrupt_175.5
2023-01-02 06:32:47,248.419,0.104000000000002,66.0,1027.5,22449.0,4891.5,98.0,1064.1,274.3,4894.3,97.811428,3.6696756,0.060316682,0.002060755,-1.6240207999999998,57.292,0.0664758199999999,0.0036417846,-1.6531006,1.06370069,1.5417629000000002,12.823777800000002,74.9,26.9,-42.3,-18.7,-9.45,253.1,-1120.85,-20.5,484.45,1018.8643499999998,-3.4184530000000004,3380.7,0.0664758199999999,0.0031325,0.0036417846,0.042062174,-1.6531006,-0.011866827,57296.66666666666,26519.666666666668,29576.666666666668,-14.666666666666666,10.0,-5.0,1,27_zmag_avg_abrupt_175.5
2023-01-02 06:32:48,249.43033333333327,0.1066666666666643,66.0,1130.5,22441.5,4893.5,98.0,931.0,277.1111111111111,4891.555555555556,97.60424444444445,3.673733666666666,0.076799768,0.0225098759999999,-1.6300152,57.3,0.08297465,0.0227558659999999,-1.6598358000000002,1.1508269222222225,1.490001666666667,13.125926666666668,74.55555555555556,-15.555555555555555,-50.333333333333336,-30.22222222222222,40.0,263.44444444444446,-954.8888888888888,2.555555555555556,487.5,1018.877222222222,-3.4054686666666663,3381.111111111112,0.08298497,0.054966114,0.0227238159999999,-0.0080046533999999,-1.6597342000000002,-0.00685930068,57310.0,26487.0,29590.0,0.0,-8.0,1.0,1,27_zmag_avg_abrupt_175.5
2023-01-02 06:32:49,250.409,0.102000000000001,66.0,991.0,22453.0,4890.5,98.0,1058.5,279.7,4895.1,97.388604,3.6799824,0.084123794,-0.0091573984,-1.631595,57.286,0.089583054,-0.0071913662,-1.6614148,1.00198668,1.39164135,9.1504402,52.15,-3.1,-48.5,-29.7,23.95,252.65,-1063.0,-1.7,496.4,1018.8925000000002,-3.39029285,3381.9,0.0849188675,-0.0351862025,-0.00562159525,0.0057553527499999,-1.6614385,-0.021284723725,57305.0,26478.0,29585.0,8.0,-1.0,1.5,1,27_zmag_avg_abrupt_175.5
2023-01-02 06:32:50,251.455,0.1060000000000002,66.0,1191.3333333333333,22409.33333333333,4887.666666666667,98.0,1064.0,282.8,4884.2,97.167158,3.689831399999999,0.0815918019999999,0.018611012,-1.6384076,57.27,0.087499818,0.020830592,-1.6681607999999997,0.72921241,1.13947053,11.2560271,72.4,17.2,-53.8,-38.6,-6.4,262.0,-1008.4,3.8,318.2,1018.8702,-3.4124217000000003,3382.3,0.087499818,0.000918818,0.020830592,-0.0056511725999999,-1.6681607999999997,-0.0083957939999999,57250.0,26450.0,29530.0,-2.0,12.0,1.0,0,None
2023-01-02 06:32:51,252.437,0.1022222222222208,65.0,1338.0,22340.0,4900.0,98.0,993.5555555555557,285.77777777777777,4885.555555555556,96.92277,3.7034115555555553,0.083651904,0.017555972,-1.6448314,57.322,0.0902100259999999,0.018705328,-1.6744472,0.7162277222222222,1.3006680000000002,11.621961,71.55555555555556,16.0,-54.0,-43.77777777777778,3.333333333333333,259.55555555555554,-1085.4444444444443,-26.33333333333333,313.44444444444446,1018.8453333333332,-3.437274222222223,3383.111111111112,0.0902100259999999,0.077186008,0.018705328,0.005412882,-1.6744472,-0.0219961144,57305.0,26429.0,29585.0,1.5,4.0,1.5,0,None
2023-01-02 06:32:52,253.437,0.1080000000000012,65.0,1018.6666666666666,22447.33333333333,4884.666666666667,98.0,1006.2,288.3,4886.5,96.680064,3.7173523999999993,0.078582216,0.01971178718,-1.648319,57.346,0.085165252,0.0202396763999999,-1.678184,0.89525012,1.2011136800000002,9.0672872,60.45,-24.2,-53.8,-23.75,11.4,261.2,-1036.0,4.15,312.5,1018.8831,-3.3995586,3383.7,0.085165252,-0.0119843324,0.0202396763999999,0.01014241,-1.678184,-0.0072000056,57360.0,26370.0,29640.0,7.0,4.0,-7.0,0,None
2023-01-02 06:32:53,254.4258888888889,0.1022222222222208,65.0,1045.0,22415.0,4896.0,98.0,971.0,291.22222222222223,4889.666666666667,96.39853999999998,3.732806444444445,0.0674539425,0.0061923835,-1.64638225,57.3,0.0738616775,0.0086949325,-1.67614675,0.8413777555555556,1.3366581111111109,9.809433555555554,55.888888888888886,32.111111111111114,-54.333333333333336,-27.0,-11.666666666666666,252.88888888888889,-1047.5555555555557,1.4444444444444444,320.44444444444446,1018.8953333333334,-3.387456555555555,3384.111111111112,0.0738616775,-0.07297107525,0.0086949325,0.0109082175,-1.67614675,-0.008156769,57300.0,26407.5,29580.0,6.5,11.0,0.5,0,None
2023-01-02 06:32:54,255.445,0.1080000000000012,65.0,1186.0,22392.0,4888.333333333333,98.0,1154.9,294.3,4887.6,96.108476,3.7479028,0.0722917216666666,0.001582678,-1.6365643333333333,57.23333333333333,0.0788546583333333,0.0022759933333333,-1.6663629999999998,0.76009886,1.30820198,9.9855882,55.25,-43.5,-49.75,-9.0,31.75,249.2,-1117.2,9.35,312.1,1018.903,-3.37969115,3385.0,0.0791581383333333,0.026714476,0.0025786016666666,-0.0397537633333333,-1.6666035,0.0299080263333333,57245.0,26430.5,29525.0,13.0,9.5,2.5,0,None
2023-01-02 06:32:55,256.4347777777777,0.1022222222222208,65.0,1051.0,22420.0,4901.0,98.0,1020.5555555555557,297.44444444444446,4893.444444444444,95.80809111111112,3.762413333333333,0.0610926425,0.00967506875,-1.62884925,57.27,0.0689264124999999,0.01017707725,-1.65905,0.6543375666666666,1.254711666666667,7.589708777777777,56.0,45.0,-49.44444444444444,-54.333333333333336,-49.11111111111112,256.6666666666667,-1055.7777777777778,-25.55555555555556,319.8888888888889,1018.8405555555556,-3.4423696666666666,3385.6666666666665,0.0689264124999999,-0.0119558789999999,0.01017707725,0.05121224325,-1.65905,-0.01017159975,57245.0,26510.5,29525.0,-3.0,21.5,6.5,0,None
2023-01-02 06:32:56,257.435,0.1079999999999984,65.0,1088.6666666666667,22398.666666666668,4890.666666666667,98.0,1046.3,300.1,4892.4,95.54375000000002,3.775666,0.0655244859999999,0.026477826,-1.6394132,57.31600000000001,0.072756322,0.025974918,-1.6703326,0.81274704,1.19355058,9.8725864,70.2,-6.9,-49.5,-19.45,-1.45,263.25,-1056.7,6.95,310.1,1018.8703999999998,-3.412273400000001,3386.0,0.072756322,0.02994254768,0.025974918,-0.009678298,-1.6703326,0.0028415659999999,57320.0,26429.0,29600.0,-3.5,7.0,1.5,0,None
2023-01-02 06:32:57,258.457,0.1088888888888909,65.0,1146.0,22385.0,4895.0,98.0,910.7777777777778,302.8888888888889,4890.666666666667,95.25661111111113,3.788230333333333,0.072080258,0.021386546,-1.6437794,57.338,0.078851038,0.021943156,-1.6754247999999996,0.9218081666666668,1.2527201444444445,9.480764555555556,72.33333333333333,15.61111111111111,-53.5,-37.27777777777778,2.4444444444444446,259.94444444444446,-1046.5555555555557,-18.27777777777778,316.8888888888889,1018.8567222222222,-3.426024111111111,3386.777777777778,0.078851038,-0.011402234,0.021943156,7.951940000000268e-05,-1.6754247999999996,-0.0171218256,57335.0,26413.5,29615.0,-4.5,-0.5,2.0,0,None
2023-01-02 06:32:58,259.4236666666667,0.1044444444444441,65.0,913.5,22482.5,4873.5,98.0,982.6666666666666,305.55555555555554,4891.555555555556,94.96411444444443,3.799874222222222,0.06972724,0.031048252,-1.6447162,57.33200000000001,0.0776118,0.030459084,-1.6772309999999997,0.9622677555555555,1.3505694444444445,11.043590000000002,66.22222222222223,-22.22222222222222,-51.77777777777778,-23.77777777777778,27.22222222222222,269.44444444444446,-1059.111111111111,22.0,314.77777777777777,1018.9042222222224,-3.378472,3387.222222222222,0.077483914,-0.010213826,0.030646496,-0.00770046,-1.6772616,0.0224592186,57340.0,26380.0,29620.0,11.0,-2.5,-1.5,0,None
2023-01-02 06:32:59,260.41299999999995,0.104000000000002,65.0,939.5,22463.5,4889.0,98.0,957.1,308.0,4890.1,94.63589200000004,3.8118776,0.093388802,-0.0054088814,-1.6339697999999998,57.28,0.100347442,-0.0039999625999999,-1.6664228,0.9282995,1.328275,8.9049887,72.25,-2.35,-56.75,-28.2,18.25,252.65,-1050.9,-6.25,319.7,1018.8757999999998,-3.4069412,3388.1,0.100270982,-0.003990852,-0.0038913854,0.018494146,-1.6664196,-0.0315566759999999,57280.0,26461.0,29560.0,11.0,4.5,-1.0,0,None
2023-01-02 06:33:00,261.4414444444444,0.1088888888888908,65.0,985.5,22432.5,4886.5,98.0,1032.0,311.0,4885.888888888889,94.30927333333334,3.8260478888888887,0.0770188199999999,0.0274228962,-1.6403472,57.302,0.08524423,0.0277505381999999,-1.6726579999999998,0.7929362,1.0933985666666666,8.532211333333333,65.5,32.611111111111114,-58.16666666666666,-33.833333333333336,-19.0,257.94444444444446,-1064.2777777777778,18.944444444444443,308.72222222222223,1018.8652777777778,-3.417434833333333,3388.777777777778,0.08524423,-0.069140576,0.0277505381999999,0.039551194,-1.6726579999999998,0.0286345042,57300.0,26409.5,29580.0,-5.0,16.5,-2.0,0,None
2023-01-02 06:33:01,262.40144444444445,0.1066666666666643,65.0,791.0,22499.0,4892.0,98.0,1035.111111111111,313.77777777777777,4884.444444444444,94.01388111111112,3.8404145555555553,0.07228984,0.016579351,-1.62238425,57.330000000000005,0.0804817175,0.016331566,-1.65546175,0.9221267111111112,1.220744311111111,11.336035333333337,70.44444444444444,-57.55555555555556,-48.44444444444444,-11.555555555555555,28.55555555555556,267.6666666666667,-1051.111111111111,7.333333333333333,320.6666666666667,1018.8721111111112,-3.4106683333333336,3389.0,0.0810543525,0.0545336799999999,0.016331041,-0.0612866025,-1.655433,0.00855326525,57330.0,26519.0,29610.0,18.0,2.0,-7.0,0,None
2023-01-02 06:33:02,263.391,0.104000000000002,65.0,939.5,22477.0,4889.5,98.0,886.4,316.3,4890.1,93.67262700000002,3.855736399999999,0.069217034,-0.0144166566,-1.6227823999999995,57.324,0.0771337339999999,-0.013241046,-1.6562823999999998,1.2805187800000002,1.6318092,13.6752555,73.65,-12.85,-46.8,-26.25,-8.45,253.15,-1094.0,-7.8,337.65,1018.9125,-3.37030855,3389.9,0.0771337339999999,-0.01902653,-0.013241046,-0.0094153351999999,-1.6562823999999998,0.0011235599999999,57320.0,26501.0,29600.0,18.5,4.5,-2.5,0,None
2023-01-02 06:33:03,264.3992222222222,0.1088888888888845,65.0,1050.5,22404.0,4886.5,98.0,928.1111111111112,319.0,4883.111111111111,93.38320222222222,3.869827666666666,0.074689118,-0.026827424,-1.614782,57.24400000000001,0.083388452,-0.024988812,-1.6479323999999995,1.1600844666666663,1.5113302222222222,13.171596666666666,49.66666666666666,11.77777777777778,-49.22222222222222,0.1111111111111111,-5.777777777777778,244.77777777777777,-1091.4444444444443,19.88888888888889,332.0,1018.9077777777778,-3.375034666666666,3390.4444444444443,0.083388452,0.0029574759999999,-0.024988812,-0.005746248,-1.6479323999999995,0.0140845665999999,57230.0,26579.0,29510.0,1.0,18.5,0.0,0,None
2023-01-02 06:33:04,265.41700000000003,0.1111111111111111,65.0,936.0,22447.5,4885.5,98.0,951.5555555555557,321.44444444444446,4886.666666666667,93.13418222222222,3.884775666666666,0.0627983479999999,-0.0151094691,-1.6119226000000002,57.24000000000001,0.070516682,-0.01527716496,-1.6452996,1.0599239777777778,1.7247123333333336,14.214396888888889,70.05555555555556,-30.38888888888889,-41.27777777777778,4.777777777777778,-19.5,247.44444444444449,-1046.7222222222222,-2.5,329.1111111111111,1018.9160555555555,-3.3668097777777777,3391.0,0.070516682,-0.0900206207999999,-0.01527716496,-0.0241394728,-1.6452996,0.0008690206,57240.0,26571.5,29520.0,-6.0,21.0,5.5,0,None
2023-01-02 06:33:05,266.419,0.1060000000000002,65.0,609.5,22567.5,4884.0,97.7,964.5,324.0,4891.6,92.932042,3.8981202,0.06359411,-0.0069564618,-1.6211684000000002,57.23,0.07162994,-0.0072012466,-1.654822,1.27734393,1.743221,14.434072,74.65,31.55,-41.65,-38.15,65.3,255.25,-951.0,-2.6,329.8,1018.9249999999998,-3.3577850500000004,3391.75,0.07162994,0.036405492,-0.0072012466,-0.007761572,-1.654822,-0.0008970886,57235.0,26510.0,29515.0,-22.0,-3.5,8.5,0,None
2023-01-02 06:33:06,267.4058888888889,0.1022222222222239,65.0,1119.5,22377.0,4885.5,97.0,960.4444444444443,326.8888888888889,4892.777777777777,92.76199444444444,3.9088745555555553,0.075555545,0.010283723,-1.63200575,57.1975,0.08256477,0.0106279325,-1.665833,1.0356273,1.3734056666666667,10.742793666666667,55.44444444444444,32.666666666666664,-55.55555555555556,-6.222222222222222,-0.1111111111111111,259.8888888888889,-1030.0,-0.3333333333333333,327.0,1018.9464444444444,-3.336310888888889,3392.0,0.08256477,-0.0593001699999999,0.0106279325,0.0542652425,-1.665833,-0.019649565,57200.0,26456.0,29480.0,-26.0,0.0,1.0,0,None
2023-01-02 06:33:07,268.379,0.1019999999999981,65.0,891.0,22458.5,4898.5,97.0,1068.4,329.8,4891.6,92.594268,3.9203707,0.091785874,0.02986465,-1.6370292,57.194,0.098513862,0.029783008,-1.6710166000000002,0.8128111199999999,1.2769745999999995,9.2007916,83.6,4.2,-60.8,-39.7,24.2,261.1,-984.7,2.1,301.6,1018.8923,-3.3904686,3392.8,0.098513862,-0.054877753,0.029783008,-0.034478978,-1.6710166000000002,0.013533118,57190.0,26418.5,29470.0,-12.0,4.5,6.5,0,None
2023-01-02 06:33:08,269.425,0.104000000000002,65.0,1386.5,22289.5,4897.5,97.0,1088.5555555555557,332.6666666666667,4895.4,92.404054,3.9342246,0.089123098,0.0025537313999999,-1.6245874,57.262,0.096359316,0.0033920252,-1.6582724,0.78826948,1.3667524,9.6809772,94.6,-9.95,-56.2,-6.4,14.85,255.0,-1084.55,16.4,317.95,1018.85335,-3.42950375,3393.4,0.096359316,-0.031686382,0.0033920252,-0.033210458,-1.6582724,0.0214342664,57245.0,26490.5,29525.0,9.0,-1.5,2.0,0,None
2023-01-02 06:33:09,270.4147777777778,0.1066666666666643,65.0,1057.0,22402.5,4898.5,97.0,1058.888888888889,335.6666666666667,4890.0,92.21800666666668,3.948759444444444,0.094391642,0.00536412262,-1.6215188,57.338,0.101173476,0.0062409512,-1.6549940000000003,0.8642911555555556,1.3747362222222224,9.748026222222224,98.66666666666669,8.555555555555555,-58.333333333333336,-14.88888888888889,-21.0,251.77777777777777,-1095.888888888889,2.555555555555556,320.3333333333333,1018.8494444444444,-3.4332985555555555,3393.777777777778,0.101173476,0.0131944139999999,0.0062409512,-0.008535704,-1.6549940000000003,-0.00494502672,57325.0,26526.0,29605.0,8.5,-4.5,2.0,0,None
2023-01-02 06:33:10,271.415,0.104000000000002,65.0,819.0,22476.5,4889.5,97.0,872.3,338.4,4891.6,92.026234,3.9659016,0.096021168,-0.002021618,-1.6249838,57.374,0.1029119479999999,-0.0010689885999999,-1.6590238,1.1097707600000002,1.5988151,12.6514341,89.2,-15.15,-54.35,9.55,42.7,258.9,-1016.0,3.4,319.4,1018.86195,-3.42074985,3394.2,0.1029119479999999,0.052437356,-0.0010689885999999,-0.006932073,-1.6590238,0.0021696639999999,57370.0,26490.5,29650.0,13.5,-3.5,1.5,0,None
2023-01-02 06:33:11,272.41922222222223,0.1088888888888908,65.0,970.0,22441.0,4889.0,97.0,957.0,341.0,4887.555555555556,91.84524333333336,3.9841946666666654,0.103042975,-0.00173490225,-1.629159,57.335,0.1103054,-0.0004102099999999,-1.6627185,1.1152143777777777,1.263885666666667,10.377916333333337,89.22222222222223,24.5,-59.44444444444444,-30.72222222222222,7.055555555555555,258.3888888888889,-1066.388888888889,-8.722222222222221,325.27777777777777,1018.8765555555556,-3.4062411111111115,3394.8888888888887,0.1103054,0.0827408875,-0.0004102099999999,0.03342982,-1.6627185,-0.01495811425,57340.0,26483.5,29620.0,3.0,3.0,-4.5,0,None
2023-01-02 06:33:12,273.40366666666665,0.1088888888888845,65.0,1249.0,22336.0,4880.5,97.0,992.7777777777778,343.55555555555554,4884.888888888889,91.68609777777776,4.003623555555556,0.11422278,0.0113720574,-1.6256668,57.284000000000006,0.12188378,0.01236505974,-1.6586802000000005,0.9536675555555556,1.3459265555555555,10.95944,79.44444444444444,-2.4444444444444446,-64.22222222222223,-42.0,-19.0,261.0,-1105.6666666666667,0.0,315.0,1018.8456666666668,-3.437256777777778,3395.555555555556,0.12188378,0.018705318,0.01236505974,0.0072478334,-1.6586802000000005,-0.004500553308,57280.0,26492.0,29560.0,1.5,14.5,0.5,0,None
2023-01-02 06:33:13,274.405,0.104000000000002,65.0,1136.0,22401.0,4883.0,97.0,1049.6,346.6,4887.0,91.510144,4.026098599999999,0.088838486,0.0260623779999999,-1.6355082,57.25599999999999,0.096747376,0.027845006,-1.6678086,0.8006628100000001,1.1508367,7.020145100000001,86.55,29.15,-58.6,-45.3,-33.75,256.55,-1072.25,-7.3,307.65,1018.84635,-3.4366288,3395.9,0.096747376,-0.0636156879999999,0.027845006,0.034954678,-1.6678086,-0.0159475424,57255.0,26445.5,29535.0,-10.5,28.0,-2.0,0,None
2023-01-02 06:33:14,275.447,0.1019999999999981,65.0,1033.0,22397.0,4877.5,97.0,971.7,349.4,4887.8,91.31622,4.0483344,0.0629740519999999,0.050968228,-1.6510842,57.21,0.070833324,0.0519299219999999,-1.684491,0.75051705,1.16826163,9.6959662,62.0,-15.4,-50.7,-30.1,-23.9,279.4,-1097.9,-9.5,308.9,1018.887,-3.3957186,3396.5,0.070833324,-0.0147333641999999,0.0519299219999999,-0.021338402,-1.684491,-0.009184488,57215.0,26351.5,29495.0,7.5,18.0,-3.5,0,None
2023-01-02 06:33:15,276.469,0.1019999999999981,65.0,931.0,22437.0,4875.5,97.0,1076.5555555555557,352.3333333333333,4888.5,91.089802,4.066732400000001,0.0655962879999999,0.0177698296,-1.6459882,57.144000000000005,0.071850836,0.0195523182,-1.6789789999999996,0.6471169299999999,1.1050139600000002,8.7843173,57.6,-39.3,-56.2,-30.5,36.6,268.2,-1017.6,7.6,313.9,1018.9169,-3.3660233,3396.9,0.071850836,0.001176116,0.0195523182,-0.0121609272,-1.6789789999999996,0.0232222,57145.0,26382.0,29425.0,28.5,8.0,0.5,0,None
