00000_Time_epoch,00000_Time_boot_sec,00000_Span_Time_boot_sec,1_battery_remaining_avg,1_current_battery_avg,1_voltage_battery_avg,125_Vcc_avg,147_battery_remaining_avg,147_current_battery_avg,147_current_consumed_avg,165_Vcc_avg,168_direction_avg,168_speed_avg,178_pitch_avg,178_roll_avg,178_yaw_avg,182_altitude_avg,182_pitch_avg,182_roll_avg,182_yaw_avg,241_vibration_x_avg,241_vibration_y_avg,241_vibration_z_avg,27_xacc_avg,27_xgyro_avg,27_xmag_avg,27_yacc_avg,27_ygyro_avg,27_ymag_avg,27_zacc_avg,27_zgyro_avg,27_zmag_avg,29_press_abs_avg,29_press_diff_avg,29_temperature_avg,30_pitch_avg,30_pitchspeed_avg,30_roll_avg,30_rollspeed_avg,30_yaw_avg,30_yawspeed_avg,33_alt_avg,33_hdg_avg,33_relative_alt_avg,33_vx_avg,33_vy_avg,33_vz_avg,label,diagnosis
2023-01-01 12:34:32,293.048,-0.1700000000000017,100.0,54.0,24952.0,4887.0,99.0,58.0,57.0,4872.75,-162.4832,0.3330376,0.0017724705,-0.023892525,-1.1128235000000002,37.515,0.006777257,-0.023781715,-1.1450645000000002,0.0239824166666666,0.02484906,0.03910007,-9.25,0.0,102.25,9.0,4.75,240.5,-1058.5,-1.25,336.0,1020.20325,-0.226679675,3230.0,0.006777257,0.005129,-0.023781715,0.0002760294,-1.1450645000000002,-0.0018497345,37500.0,29440.0,80.0,-2.0,4.0,24.0,0,None
2023-01-01 12:34:33,293.72522222222227,0.1044444444444441,100.0,54.5,24916.5,4879.5,99.0,58.11111111111112,57.0,4876.666666666667,-161.8404,0.3016930777777777,0.001876479,-0.02341436,-1.113167,37.58,0.00699430375,-0.023800335,-1.14507625,0.0246176866666666,0.0261929577777777,0.03722821,-9.22222222222222,0.2222222222222222,102.55555555555556,8.333333333333334,5.0,240.44444444444449,-1058.5555555555557,-1.3333333333333333,337.22222222222223,1020.2044444444444,-0.2255295222222222,3230.777777777778,0.00699430375,0.0057069055,-0.023800335,0.00057428647,-1.14507625,-0.00219638325,37590.0,29440.0,170.0,-2.0,5.0,25.0,0,None
2023-01-01 12:34:34,294.719,0.104000000000002,100.0,102.5,24898.5,4884.0,99.0,109.4,57.8,4878.3,-160.79091999999997,0.34266226,0.0019696018333333,-0.0238531,-1.1143383333333334,37.675,0.00754582,-0.02401311,-1.1451840000000002,0.139635145,0.229087014,1.045803226,-9.4,-0.45,99.15,10.7,5.65,243.25,-1054.65,-2.7,335.6,1020.22825,-0.2017265649999999,3232.6,0.0076217235,0.0076577856666666,-0.0239860583333333,0.0015100208333333,-1.1450950000000002,-0.0081911085,37680.0,29440.0,260.0,-3.5,6.0,25.0,0,None
2023-01-01 12:34:35,295.757,0.104000000000002,100.0,95.5,24947.0,4885.0,99.0,98.2,58.0,4876.2,-160.14796,0.42079114,0.0019582984,-0.023378228,-1.1168399999999998,37.728,0.0078802137999999,-0.02377271,-1.1455449999999998,0.1421518,0.2371450999999999,1.4204183499999998,-12.0,0.5,97.5,9.9,7.3,242.9,-1068.5,-2.5,335.7,1020.2480999999998,-0.18191404,3234.4,0.0078847216,0.0041337524,-0.023774746,0.00311222238,-1.1455407999999998,-0.0080790622,37730.0,29438.5,310.0,-3.0,6.5,25.5,0,None
2023-01-01 12:34:36,296.7518888888889,0.1066666666666643,100.0,97.0,24909.5,4881.5,99.0,99.77777777777776,58.0,4876.111111111111,-159.77688888888892,0.5121654888888889,0.0022560149999999,-0.023842214,-1.1190108,37.734,0.0080026326,-0.023716682,-1.1458554,0.1603267333333333,0.3046311555555555,1.7920085555555554,-8.055555555555555,1.1111111111111112,97.94444444444444,8.277777777777779,2.5,243.66666666666663,-1066.4444444444443,-3.6666666666666665,335.72222222222223,1020.2436666666669,-0.1862369722222222,3236.222222222222,0.0080026326,0.0049318828,-0.023716682,0.0012542006,-1.1458554,0.0005315909999999,37740.0,29435.5,320.0,-3.0,8.0,25.0,0,None
2023-01-01 12:34:37,297.735,0.0999999999999999,100.0,96.0,24903.0,4883.0,99.0,96.0,58.6,4874.1,-159.57782,0.5959056,0.0020885074,-0.0235542839999999,-1.121209,37.734,0.0082649578,-0.023640466,-1.1462882,0.16641318,0.30141531,1.8358896,-10.2,0.2,97.6,9.0,6.4,244.0,-1059.5,-0.1,336.6,1020.2392000000002,-0.1908593799999999,3238.1,0.0082649578,0.0034558021799999,-0.023640466,0.0014417839799999,-1.1462882,-0.00209482594,37735.0,29432.0,315.0,-2.5,10.0,24.5,0,None
2023-01-01 12:34:38,298.741,0.1019999999999981,100.0,95.0,24905.0,4886.5,99.0,108.9,59.0,4873.9,-159.51692000000003,0.6815746999999999,0.002367836,-0.024245664,-1.122934,37.75599999999999,0.0084450204,-0.023717452,-1.1467326000000002,0.20557451,0.32999031,2.1467566,-13.2,0.5,98.3,9.3,5.3,242.7,-1074.5,-5.4,333.6,1020.2305,-0.19935938,3240.2,0.0084450204,0.0074818498399999,-0.023717452,-0.0016984637999999,-1.1467326000000002,-0.0051631983999999,37755.0,29429.0,335.0,-2.0,11.5,24.5,0,None
2023-01-01 12:34:39,299.732,0.1066666666666707,100.0,1695.5,24320.5,4889.5,99.0,1628.2222222222222,61.22222222222222,4879.0,-159.58664444444446,0.7620270111111112,0.01170618625,-0.0035217332499999,-1.11912825,37.965,0.017991082,-0.0029737814999999,-1.1408429999999998,0.4557006333333332,1.1026668222222222,4.381118,-10.166666666666666,38.66666666666666,79.88888888888889,-10.5,18.38888888888889,241.0,-1252.5555555555557,14.11111111111111,290.27777777777777,1020.4215555555556,-0.0083767294444444,3241.9444444444443,0.017991082,0.01106317045,-0.0029737814999999,0.0291254124999999,-1.1408429999999998,0.0228212925,38020.0,29462.0,600.0,-8.0,16.5,116.0,0,None
2023-01-01 12:34:40,300.7432,0.1060000000000002,100.0,1835.5,24228.5,4888.0,99.0,1714.0,66.1,4878.3,-160.34564,0.83620252,-0.0134505752,-0.0170956869,-1.106826,39.606,-0.0068911612,-0.017623658,-1.1250014,0.3629055899999999,1.3066915,2.9031735000000003,-10.1,-48.7,88.3,-8.4,-25.3,236.3,-1177.0,7.0,293.2,1019.9693,-0.46060156,3243.7,-0.0068911612,0.009001763,-0.017623658,-0.035431394,-1.1250014,0.0056413178,40000.0,29562.5,2580.0,-1.5,14.5,304.5,0,None
2023-01-01 12:34:41,301.7502222222222,0.1067777777777791,100.0,1595.0,24274.5,4885.0,99.0,1765.7777777777778,70.88888888888889,4877.111111111111,-160.76436666666666,0.8960814666666668,0.0007908587999999,-0.0153509816,-1.099391,42.65,0.0075599008,-0.0141120974,-1.1873762,0.4442122111111111,1.2851954666666665,3.3214011111111112,-13.5,14.72222222222222,84.22222222222223,-27.33333333333333,72.27777777777777,227.66666666666663,-1044.3333333333333,31.55555555555556,296.1666666666667,1019.5725,-0.8574044277777778,3245.6666666666665,0.0075599008,0.0706202899999999,-0.0141120974,0.1234015648,-1.1873762,0.038335564,43110.0,29231.0,5690.0,-23.0,-12.5,315.0,0,None
2023-01-01 12:34:42,302.76059999999995,0.1040999999999996,100.0,990.0,24457.0,4873.0,99.0,1116.2,75.0,4869.1,-160.88914000000003,0.92966592,-0.0178420161999999,-0.0846008356,-1.1277145999999998,45.414,-0.0119234986,-0.0826047052,-1.2106218,0.49002595,1.14165644,3.7464193,2.0,-142.5,101.5,-29.6,-26.8,222.1,-924.9,-178.9,319.9,1019.2699000000002,-1.1600079,3247.5,-0.0119234986,-0.0485350119999999,-0.0826047052,-0.104983548,-1.2106218,-0.179050764,45730.0,28885.0,8310.0,-73.5,-38.5,199.0,0,None
2023-01-01 12:34:43,303.7272222222222,0.1022222222222176,100.0,1283.0,24347.5,4879.5,99.0,1224.2222222222222,78.0,4878.222222222223,-161.7612888888889,0.9169902444444444,0.020135566,-0.136850732,-1.4406528,46.808,0.02640702528,-0.135688392,-1.5198522,0.4566358666666666,1.1525753444444444,5.501560555555555,18.22222222222222,73.11111111111111,15.333333333333334,-34.22222222222222,91.44444444444444,208.22222222222223,-1032.888888888889,-344.1111111111111,342.44444444444446,1019.1433333333332,-1.2866145555555557,3249.333333333333,0.02640702528,0.0841575939999999,-0.135688392,0.0776190859999999,-1.5198522,-0.33387034,46955.0,26989.5,9535.0,-196.5,-92.0,129.0,0,None
2023-01-01 12:34:44,304.712,0.1040999999999996,100.0,1041.0,24431.5,4880.5,99.0,1082.9,81.2,4870.1,-164.01652,0.8956712199999999,0.057266718,-0.029391406,-1.8077012,47.742,0.06148984,-0.032832101,-1.8811474,0.5462440299999999,1.01620487,4.6141613,27.0,117.6,-95.35,18.35,101.85,231.4,-1013.15,-279.2,331.45,1019.0034000000002,-1.4264608000000003,3251.4,0.06148984,0.160622306,-0.032832101,0.0747015759999999,-1.8811474,-0.28142382,47880.0,24986.0,10460.0,-237.0,-100.0,109.0,0,None
2023-01-01 12:34:45,305.754,0.1020000000000038,100.0,860.5,24510.0,4877.0,99.0,985.8,84.3,4865.5,-167.60758,0.87564192,0.15017866,0.0613350399999999,-1.8930168,48.478,0.15084122,0.059011932,-1.9591316,0.5860715599999999,1.1283984800000002,7.305073500000001,25.3,32.5,-167.0,8.3,54.4,244.7,-1047.0,31.0,291.0,1018.9092,-1.5207811999999998,3253.4,0.15084122,0.025711446,0.059011932,0.0198662631999999,-1.9591316,0.0358095759999999,48550.0,24794.5,11130.0,-138.5,-55.0,65.0,0,None
2023-01-01 12:34:46,306.72444444444443,0.1023333333333324,100.0,1162.0,24402.0,4865.0,99.0,994.6666666666666,86.88888888888889,4872.333333333333,-172.20447777777778,0.8527491666666669,0.142968775,0.0455168225,-1.88073475,48.705,0.143695125,0.0456730675,-1.94042075,0.6762765777777778,1.1448252666666665,7.863617222222222,31.33333333333333,-37.22222222222222,-165.0,-3.111111111111111,-63.888888888888886,250.66666666666663,-1048.6666666666667,26.33333333333333,290.6666666666667,1018.925222222222,-1.5045921111111111,3255.333333333333,0.143695125,-0.142849075,0.0456730675,-0.02748080425,-1.94042075,0.0288544374999999,48700.0,24844.0,11280.0,-43.0,8.0,48.0,0,None
2023-01-01 12:34:47,307.69780000000003,0.1021000000000014,100.0,1214.0,24385.0,4879.5,99.0,1145.9,89.8,4879.7,-35.11209999999999,0.8220466400000002,0.062054486,-0.01491390268,-1.8532924,48.768,0.067946352,-0.011444356,-1.9043422,0.6021534299999999,1.2476535,8.4207778,47.5,-32.2,-130.7,-1.3,-5.0,234.0,-1028.7,3.8,318.0,1018.9266,-1.5032656000000002,3257.1,0.067946352,-0.0310975763999999,-0.011444356,-0.0010241679999999,-1.9043422,0.012048705,48760.0,25073.5,11340.0,-3.0,35.0,34.5,0,None
2023-01-01 12:34:48,308.7265,0.1040999999999996,100.0,1095.0,24396.5,4885.5,99.0,1032.2,93.0,4882.3,172.40142,0.7969536799999999,-0.0352203983333333,0.02027549435,-1.882938666666667,48.836666666666666,-0.0266808931666666,0.0212477218333333,-1.9260351666666664,0.6708127700000001,1.2199921000000002,7.907314799999999,50.75,4.3,-107.05,0.0,-171.0,252.65,-1067.05,5.65,315.65,1018.86285,-1.5670625,3259.35,-0.0266808931666666,-0.1633103783333333,0.0212477218333333,0.0567686583333333,-1.9260351666666664,-0.0101896601666666,48843.333333333336,24979.33333333333,11423.333333333334,-7.666666666666667,-18.33333333333333,38.66666666666666,0,None
2023-01-01 12:34:49,309.7429,0.1019999999999981,100.0,1089.0,24398.5,4880.5,99.0,1018.9,96.0,4877.6,162.05362,0.7962115799999998,-0.071850194,-0.033813195,-1.87939,48.93000000000001,-0.063388636,-0.0351034446,-1.917275,0.79171757,1.21489351,9.7971206,51.7,-72.1,-83.3,18.2,98.4,234.7,-1054.5,30.7,335.0,1018.8301,-1.5997968000000002,3261.0,-0.063388636,0.02425584,-0.0351034446,-0.0715031408,-1.917275,0.030687082,48940.0,25040.0,11520.0,-43.0,-194.0,25.5,0,None
2023-01-01 12:34:50,310.7512222222222,0.1066666666666643,100.0,1274.0,24327.5,4879.5,99.0,1090.5555555555557,98.77777777777776,4879.333333333333,150.99102222222223,0.8400596333333333,0.046799992,-0.0673627275,-1.87047075,48.97,0.05296381475,-0.068264145,-1.9041075,0.7345002444444444,1.3808557777777777,9.015847666666666,50.333333333333336,28.05555555555556,-117.22222222222224,21.666666666666668,254.83333333333331,224.16666666666663,-1048.2777777777778,26.166666666666668,331.94444444444446,1018.8062222222223,-1.6236023333333334,3262.777777777778,0.05296381475,0.2824409125,-0.068264145,0.0048332899999999,-1.9041075,0.0328862425,48970.0,25077.0,11550.0,-85.0,-263.0,22.0,0,None
2023-01-01 12:34:51,311.71899999999994,0.0999999999999999,100.0,1687.5,24173.5,4879.5,99.0,1599.7,102.4,4882.5,141.66457999999997,0.92158518,0.26091936,-0.04481405,-1.8884792,48.934000000000005,0.26230122,-0.0436238299999999,-1.9180472,0.43702937,1.411875,8.3426759,67.7,6.4,-196.1,18.3,-30.9,223.0,-1107.4,-19.8,280.4,1018.7784,-1.6515388999999998,3264.9,0.26230122,0.0478768979999999,-0.0436238299999999,0.055398098,-1.9180472,-0.01850446226,48935.0,25040.5,11515.0,-73.5,-182.5,8.5,0,None
2023-01-01 12:34:52,312.7319,0.1021000000000014,100.0,1558.0,24205.0,4881.0,99.0,1238.1,106.6,4879.4,133.39262,1.03637502,0.152110524,0.009908254,-1.9167168,49.06399999999999,0.160825506,0.0126989685999999,-1.9420208,0.4981378499999999,1.12922585,8.4922511,74.8,188.4,-172.7,44.2,-125.3,232.8,-1020.3,-19.1,291.9,1018.7194,-1.7106249999999998,3266.7,0.160825506,-0.14294433,0.0126989685999999,0.180443444,-1.9420208,-0.02857673282,49030.0,24902.0,11610.0,-12.0,-28.0,21.5,0,None
2023-01-01 12:34:53,313.74,0.0999999999999999,100.0,1060.5,24384.0,4877.0,99.0,1138.3,109.8,4875.4,126.15345999999997,1.1811624000000005,0.04015531,0.123149896,-1.915554,49.184000000000005,0.050734324,0.123021416,-1.9357362,0.80873457,1.2960301,9.7043519,45.7,-128.1,-131.3,7.3,32.4,269.6,-1076.0,33.3,279.4,1018.8354,-1.5945858999999998,3268.5,0.050734324,-0.035453528,0.123021416,-0.06503443,-1.9357362,0.0466516,49195.0,24866.5,11775.0,99.5,-39.0,6.5,0,None
2023-01-01 12:34:54,314.7418,0.1002000000000009,100.0,1237.5,24309.0,4868.0,99.0,1227.6,113.4,4878.4,121.065,1.3341438,0.076602154,-0.1175168760599999,-1.92694,48.996,0.086025796,-0.1130523986,-1.940886,0.5597608000000001,1.21915211,6.940292600000001,62.9,-191.4,-138.3,-10.8,28.7,205.5,-1073.0,-34.3,333.0,1018.8452,-1.5845625,3270.4,0.086025796,-0.02302811346,-0.1130523986,-0.244683544,-1.940886,-0.03546986,49020.0,24933.5,11600.0,150.5,-67.5,8.5,0,None
2023-01-01 12:34:55,315.742,0.0999999999999999,100.0,1086.0,24344.5,4882.0,99.0,908.3,116.1,4879.1,117.22084,1.4819762,0.09010934,-0.0876945124,-1.9234364,49.026,0.102440686,-0.0839610387999999,-1.9347034,0.92213858,1.4888818,12.112643299999998,108.5,209.3,-134.7,-11.0,61.5,216.0,-1035.9,5.2,339.7,1018.8095,-1.6203907000000002,3272.1,0.102440686,0.141459398,-0.0839610387999999,0.219509506,-1.9347034,0.0113941689999999,49010.0,24894.0,11590.0,16.5,-14.5,30.0,0,None
2023-01-01 12:34:56,316.742,0.0999999999999999,100.0,910.0,24421.5,4883.0,99.0,1085.5,119.1,4878.0,113.91894,1.638522,0.15365994,0.031231832,-1.9354156,49.00599999999999,0.1643073599999999,0.029301588,-1.9424318,0.8885530300000001,1.3698105,10.7508305,99.3,-48.4,-157.9,5.5,-8.4,251.4,-1075.9,-10.6,289.9,1018.8506,-1.5795077000000002,3273.8,0.1643073599999999,0.061762526,0.029301588,-0.055849046,-1.9424318,-0.008930906,49020.0,24880.5,11600.0,-8.0,-8.0,10.5,0,None
2023-01-01 12:34:57,317.742,0.0999999999999999,100.0,1274.5,24287.5,4870.5,99.0,1119.7,122.2,4873.6,110.84204,1.7978518,0.12566539,-0.0380510939999999,-1.9301584000000005,48.944,0.13553378,-0.037033152,-1.931376,0.75549681,1.3324165,10.1556538,91.0,-27.3,-151.8,12.7,-21.0,230.4,-1069.2,-0.5,316.0,1018.837,-1.5932578000000004,3275.6,0.13553378,0.04277077078,-0.037033152,-0.0887312239999999,-1.931376,0.0234143479999999,48955.0,24911.5,11535.0,39.0,13.0,14.5,0,None
2023-01-01 12:34:58,318.742,0.0999999999999999,100.0,1191.5,24328.0,4882.5,99.0,1000.3,125.0,4877.5,108.1697,1.9613332,0.101374764,-0.0497860579999999,-1.932799,48.968,0.1114299,-0.047228232,-1.9301246,0.86147554,1.3495712000000002,9.073734500000002,80.2,26.1,-146.3,-3.2,-28.9,226.0,-1051.1,-9.3,323.9,1018.8803,-1.5497499,3277.5,0.1114299,-0.0760338556,-0.047228232,0.0048075572,-1.9301246,-0.0040929248,48970.0,24924.0,11550.0,20.5,31.5,23.0,0,None
2023-01-01 12:34:59,319.742,0.0999999999999999,100.0,1256.0,24286.5,4880.0,99.0,1063.2,127.9,4880.0,106.06226,2.1230952000000003,0.092845712,-0.0149351614,-1.9311184,48.94,0.103571372,-0.01387875,-1.9244394,0.94465155,1.2583799,10.0227726,113.4,25.7,-137.6,-11.2,-1.2,241.6,-1059.4,-3.8,309.7,1018.8214,-1.6084295999999998,3278.9,0.103571372,0.055814762,-0.01387875,-0.0267226752,-1.9244394,0.02431010132,48940.0,24962.0,11520.0,2.5,40.5,28.0,0,None
2023-01-01 12:35:00,320.742,0.0999999999999999,100.0,1427.0,24200.0,4885.0,99.0,1308.1,131.4,4880.2,104.2036,2.2722712,0.13144958,-0.007251682,-1.9444584,48.986,0.14027292,-0.007265006,-1.9337518,0.7176971400000001,1.4819277999999998,11.373637,160.6,-46.2,-155.0,-6.5,43.2,242.3,-1044.0,-18.5,297.3,1018.6911,-1.7389219,3280.8,0.14027292,0.046072694,-0.007265006,0.0468867399999999,-1.9337518,-0.029746036,48955.0,24955.5,11535.0,0.5,5.0,22.5,0,None
2023-01-01 12:35:01,321.742,0.0999999999999999,100.0,656.0,24473.0,4881.0,99.0,1276.1,134.8,4879.0,102.41655999999998,2.4160628,0.16501338,-0.054792448,-1.9554778,49.144000000000005,0.17288122,-0.052286456,-1.9403744,0.75369216,1.1974139,10.1213242,134.7,57.3,-170.2,-37.4,14.9,217.2,-1093.0,-10.0,298.5,1018.7357999999998,-1.6942421000000003,3282.4,0.17288122,-0.0170362497999999,-0.052286456,0.067249134,-1.9403744,-0.017445194,49120.0,24896.0,11700.0,-6.0,-2.5,8.0,0,None
2023-01-01 12:35:02,322.742,0.0999999999999999,100.0,1171.0,24289.0,4878.5,99.0,1323.5,138.6,4882.4,100.522642,2.5666051999999997,0.13298208,0.0683430818,-1.958591,49.148,0.14403668,0.0699496313999999,-1.9416386,0.8007403400000002,1.28443762,10.7403589,114.6,54.8,-165.3,-42.6,-45.5,260.1,-1074.2,14.8,277.8,1018.7414,-1.6887110000000003,3284.1,0.14403668,-0.07702423,0.0699496313999999,0.14477888,-1.9416386,0.0171864584,49145.0,24858.0,11725.0,-38.5,41.0,7.5,0,None
2023-01-01 12:35:03,323.742,0.0999999999999999,100.0,670.5,24461.5,4880.0,99.0,929.7,141.4,4882.3,98.636852,2.7141278,0.104166184,0.032271494,-1.9749472,49.166,0.114101782,0.032564512,-1.9543528,1.2359789400000003,1.4229671000000002,11.5911014,119.3,-19.8,-154.5,-9.2,-32.1,245.4,-1051.4,8.8,310.6,1018.8402,-1.5896405999999998,3285.7,0.114101782,-0.039512204,0.032564512,-0.059988334,-1.9543528,-0.0085330217999999,49190.0,24803.5,11770.0,18.5,30.5,8.5,0,None
2023-01-01 12:35:04,324.7599,0.1019999999999981,100.0,923.5,24351.5,4888.0,99.0,1076.8,144.3,4884.0,97.00390199999998,2.8455134,0.0987565339999999,-0.01116780138,-1.9614714,48.984,0.10952869,-0.0087759208,-1.9365378,0.91141926,1.4529809,10.8143113,139.0,-44.0,-143.9,8.6,50.3,234.9,-1077.0,14.1,300.1,1018.8427,-1.5872736,3287.2,0.10952869,0.12445255,-0.0087759208,-0.091381116,-1.9365378,0.0257486374,49000.0,24893.0,11580.0,37.0,2.0,14.0,0,None
2023-01-01 12:35:05,325.7297777777778,0.1022222222222239,100.0,1400.5,24173.5,4891.5,99.0,1194.0,147.33333333333334,4885.888888888889,95.56586777777778,2.9736185555555554,0.13491312,-0.030758186,-1.9606886,48.956,0.14629236,-0.027809752,-1.9324468000000004,0.8215190777777778,1.398796,9.231984444444445,131.44444444444446,27.11111111111111,-163.66666666666666,-10.77777777777778,39.0,226.55555555555557,-1033.2222222222222,14.0,305.6666666666667,1018.8084444444444,-1.6215103333333336,3288.555555555556,0.14629236,0.01650743,-0.027809752,-0.026187154,-1.9324468000000004,0.0204197756,48950.0,24908.0,11530.0,13.5,-13.0,17.0,0,None
2023-01-01 12:35:06,326.7257,0.1060000000000001,100.0,1317.5,24210.5,4872.0,99.0,1197.6,150.5,4881.3,94.400516,3.0910655999999994,0.14977458,0.00109533908,-1.9582402,48.956,0.16188438,0.0029126925999999,-1.927209,0.7702244200000001,1.3707059,10.506237900000002,144.75,-3.55,-159.8,16.5,10.85,238.75,-1067.75,-1.65,304.7,1018.7911,-1.6389686,3290.0,0.1609801,0.0775506698,0.0033604069599999,-0.043138042,-1.9272952,0.001737598,48960.0,24952.5,11540.0,6.0,1.5,22.0,0,None
2023-01-01 12:35:07,327.7599,0.1019999999999981,100.0,766.0,24376.5,4887.5,99.0,1137.1,154.3,4877.8,93.28943199999998,3.2177964,0.12645404,-0.054105404,-1.9592972,49.094,0.1392767,-0.051410862,-1.9243294,0.82412473,1.3325177,10.522554,109.9,-43.7,-154.4,20.4,-25.6,220.4,-1099.5,7.2,300.1,1018.74,-1.6898984,3291.7,0.1392767,-0.2408027719999999,-0.051410862,0.151940902,-1.9243294,-0.0072903061999999,49055.0,24969.0,11635.0,36.5,-5.0,21.5,0,None
2023-01-01 12:35:08,328.7364444444445,0.1044444444444441,100.0,1002.5,24306.5,4888.0,99.0,960.8888888888888,156.88888888888889,4884.777777777777,92.37605111111112,3.3470191111111114,0.0844119949999999,-0.0973395874999999,-1.94933975,49.1075,0.097757175,-0.09243655,-1.912915,1.0109085444444446,1.4064731111111113,10.655820888888888,83.125,-35.875,-134.25,10.125,-16.375,209.625,-1016.0,-4.875,332.875,1018.8325555555556,-1.5973004444444443,3292.8888888888887,0.097757175,-0.0883692,-0.09243655,-0.007340497,-1.912915,-0.006319975,49120.0,25032.5,11700.0,24.5,36.0,11.0,0,None
2023-01-01 12:35:09,329.7242,0.104000000000002,100.0,1000.5,24308.0,4887.5,99.0,1016.1,159.6,4885.2,91.801442,3.4596814,0.0379982838,-0.053113196,-1.9580772,49.018,0.053284336,-0.05110072,-1.9202032,0.92285273,1.3988736,11.4848659,86.7,62.75,-121.1,9.25,-63.2,226.1,-1088.75,12.1,329.65,1018.8753,-1.5545977,3294.5,0.053284336,-0.04614793,-0.05110072,0.084090032,-1.9202032,0.0042454996,49010.0,24998.5,11590.0,-33.0,15.5,25.0,0,None
2023-01-01 12:35:10,330.721,0.1066666666666643,100.0,1768.0,24028.5,4876.0,98.11111111111111,1844.2222222222224,163.77777777777777,4886.888888888889,91.45901,3.551499333333333,-0.0160379579999999,-0.035769226,-1.9575822,49.504000000000005,-0.00139656218,-0.0348049141999999,-1.9173924,0.5230619222222223,1.2969746666666664,8.523033666666667,89.0,59.888888888888886,-105.88888888888889,-14.555555555555555,26.33333333333333,221.88888888888889,-1198.111111111111,-32.888888888888886,309.6666666666667,1018.771222222222,-1.6586718888888887,3295.8888888888887,-0.00139656218,0.0086359059999999,-0.0348049141999999,0.0461189748,-1.9173924,-0.0245247439999999,49485.0,25017.5,12065.0,-81.5,-57.0,135.5,0,None
2023-01-01 12:35:11,331.7344,0.1040999999999996,100.0,1525.0,24101.5,4886.5,98.0,1507.3,168.4,4887.3,91.29002199999998,3.608459200000001,0.0268022812,0.0556093339999999,-1.977269,51.258,0.03940167,0.0534534559999999,-1.9343518000000004,0.4103677599999999,1.3881324000000002,9.9093928,70.05,18.45,-122.1,-8.9,40.05,249.4,-1084.1,-24.55,291.75,1018.58395,-1.8461289,3297.6,0.03940167,0.1158490539999999,0.0534534559999999,-0.0011635039999999,-1.9343518000000004,-0.021141834,51285.0,24910.0,13865.0,-105.5,-152.0,203.5,0,None
2023-01-01 12:35:12,332.7231111111112,0.1043333333333356,100.0,1232.0,24176.5,4889.0,98.0,1220.3333333333333,172.11111111111111,4892.444444444444,91.1533977777778,3.648289444444444,-0.0098196806,0.002233224,-2.0070642000000003,53.086,-0.0003941559999999,0.0021249394,-1.9600016,0.4495538666666667,1.1457529777777775,7.711304,53.888888888888886,-17.22222222222222,-122.22222222222224,-14.88888888888889,-72.66666666666667,236.11111111111111,-1055.4444444444443,-12.0,316.44444444444446,1018.4704444444444,-1.9596615555555557,3299.0,-0.0003941559999999,-0.091401734,0.0021249394,-0.031219992,-1.9600016,-0.0220580979999999,53110.0,24756.0,15690.0,-87.0,-209.0,203.5,0,None
2023-01-01 12:35:13,333.7181,0.1060000000000002,100.0,1120.0,24239.0,4888.0,98.0,1090.3,175.3,4884.1,90.978622,3.684827,-0.0112567106,0.0097473528,-1.9895496,54.894000000000005,-0.0008875819999999,0.0095704074,-1.9401798,0.55310765,1.1314921100000002,5.9402783,43.1,-38.7,-108.1,-7.1,70.6,239.0,-1034.45,28.15,318.6,1018.25495,-2.1750077,3300.6,-0.0008875819999999,0.0305907885999999,0.0095704074,-0.0424161576,-1.9401798,0.040892038,54885.0,24887.0,17465.0,-97.0,-284.0,219.0,0,None
2023-01-01 12:35:14,334.7342222222222,0.1088888888888908,100.0,1454.0,24124.5,4873.0,98.0,1355.2222222222222,178.88888888888889,4888.444444444444,90.7748822222222,3.719757,0.008557198,-0.00353855475,-1.9922515,56.635,0.017741095,-0.0036959519999999,-1.941219,0.4785541777777778,1.1261425444444444,7.126700333333334,56.888888888888886,-23.33333333333333,-113.16666666666669,11.88888888888889,-8.777777777777779,231.94444444444449,-1077.0555555555557,-2.6666666666666665,310.3888888888889,1017.9907222222224,-2.4392836666666664,3301.833333333333,0.017741095,-0.10061797125,-0.0036959519999999,0.01094179275,-1.941219,-0.0118713689999999,56755.0,24877.5,19335.0,-101.5,-332.0,219.0,0,None
2023-01-01 12:35:15,335.6984444444445,0.1066666666666643,100.0,1283.5,24168.0,4877.0,98.0,1299.0,182.55555555555557,4888.555555555556,90.55686333333334,3.756825,0.031510604,-0.053775412,-1.9939032,58.436,0.041912062,-0.0538043,-1.9405646,0.5240150555555556,1.1843085333333332,7.30386911111111,57.55555555555556,1.5555555555555556,-119.55555555555556,22.444444444444443,44.22222222222222,218.44444444444449,-1027.888888888889,-9.444444444444445,324.44444444444446,1017.7578888888888,-2.672022444444445,3303.555555555556,0.041912062,0.0466089964,-0.0538043,-0.059973378,-1.9405646,0.013039843,58710.0,24878.0,21290.0,-118.0,-371.5,197.5,0,None
2023-01-01 12:35:16,336.7093,0.1058999999999968,100.0,1194.0,24204.5,4890.0,98.0,1057.7,185.6,4890.9,90.338296,3.8051632,0.135512852,-0.050659872,-1.9995836,59.818000000000005,0.146531388,-0.050995916,-1.9454986,0.66421722,1.0791206,6.8529083,65.1,14.9,-148.25,21.75,169.6,224.8,-924.5,0.85,323.4,1017.53885,-2.8912421000000004,3305.1,0.146531388,0.16544368,-0.050995916,0.0398567211999999,-1.9454986,0.0042772508,59925.0,24849.0,22505.0,-133.0,-354.5,70.0,0,None
2023-01-01 12:35:17,337.72889999999995,0.1020000000000038,100.0,889.0,24311.5,4890.5,98.0,964.2,188.5,4887.8,90.118752,3.8639320000000006,0.24206292,-0.037183666,-1.977458,60.146,0.25181104,-0.0345996464,-1.9194182,0.9393981,1.4064304999999997,10.0157791,64.3,9.1,-179.2,-5.8,-3.8,228.3,-1032.9,36.5,293.6,1017.5088,-2.9210623,3306.4,0.25181104,-0.0424719092,-0.0345996464,0.023706128,-1.9194182,0.0413666468,60160.0,25063.0,22740.0,-86.0,-205.0,22.5,0,None
2023-01-01 12:35:18,338.742,0.1068888888888876,100.0,830.0,24363.0,4888.0,98.0,833.3333333333334,190.88888888888889,4887.0,89.84258777777778,3.928279888888889,0.20947106,0.0031789253999999,-1.9983834000000005,60.11,0.22234366,0.0090443192,-1.93297,0.9351776222222222,1.538323,12.075223555555556,71.72222222222223,36.0,-176.22222222222223,-33.77777777777778,-56.888888888888886,243.22222222222223,-1016.8888888888888,-41.72222222222222,303.55555555555554,1017.5969444444444,-2.833073,3307.8888888888887,0.22234366,-0.0240873208,0.0090443192,0.029450744,-1.93297,-0.028404956,60085.0,24886.0,22665.0,-36.5,-29.5,9.5,0,None
2023-01-01 12:35:19,339.7567,0.104000000000002,100.0,1162.0,24223.0,4876.0,98.0,1092.6,194.0,4884.0,89.44491400000001,3.993417200000001,0.13237116,0.047289826,-2.0143120000000003,60.014,0.1485789,0.052231906,-1.940608,0.91032703,1.4485481,10.1946896,122.5,55.7,-156.4,-5.1,-54.2,246.8,-1088.8,-10.8,293.4,1017.5151,-2.914875,3309.4,0.1485789,-0.00106915,0.052231906,0.0846604068,-1.940608,-0.0174585698,60020.0,24869.0,22600.0,-5.5,20.5,24.5,0,None
2023-01-01 12:35:20,340.7592222222222,0.108777777777776,100.0,1160.0,24233.5,4889.5,98.0,870.6666666666666,196.77777777777777,4891.888888888889,88.92619666666666,4.059448222222223,0.12534328,0.046723994,-2.0288722,60.114,0.13905394,0.047549692,-1.9526564,1.1144496555555554,1.4744505555555554,13.440734666666666,107.77777777777776,-53.888888888888886,-155.33333333333334,-8.5,56.22222222222222,255.94444444444449,-987.0555555555557,-20.61111111111111,292.77777777777777,1017.4669444444444,-2.9632680555555555,3310.777777777778,0.13905394,-0.0497002446,0.047549692,0.015816828,-1.9526564,-0.0213012852,60135.0,24805.0,22715.0,30.5,-8.0,17.0,0,None
2023-01-01 12:35:21,341.71333333333337,0.1045555555555526,100.0,724.5,24377.0,4894.5,98.0,1056.2222222222222,199.44444444444449,4891.888888888889,88.4062511111111,4.120087444444445,0.151385525,0.0058290667499999,-2.033858,60.1475,0.162513075,0.0059769765,-1.957149,1.0865738555555555,1.329338,12.013225333333336,115.55555555555556,-32.333333333333336,-169.88888888888889,-36.0,15.666666666666666,243.11111111111111,-1000.5555555555557,5.0,298.22222222222223,1017.5156666666668,-2.9141836666666663,3312.1111111111118,0.162513075,0.072059705,0.0059769765,-0.0602740549999999,-1.957149,0.0138680515,60160.0,24773.0,22740.0,48.0,-3.0,11.0,0,None
2023-01-01 12:35:22,342.7293,0.1061000000000035,100.0,1069.5,24261.5,4890.5,98.0,961.2,202.3,4891.1,87.824242,4.188892,0.12807638,-0.0118482198,-2.0241738,60.11,0.14003158,-0.0109149646,-1.94784,1.01412726,1.3397685999999998,12.1888262,116.85,-6.1,-158.3,-13.2,9.65,235.95,-1021.25,16.4,306.5,1017.50425,-2.9256719499999995,3313.7,0.14003158,-0.0033772799999999,-0.0109149646,0.014044835,-1.94784,-0.0041320114,60110.0,24831.5,22690.0,45.5,12.0,14.0,0,None
2023-01-01 12:35:23,343.7221111111111,0.1065555555555558,100.0,950.0,24295.0,4881.0,98.0,1014.3333333333334,205.0,4888.0,87.27759555555556,4.252349888888888,0.13427598,0.00280231438,-2.0221108,60.20799999999999,0.1461704999999999,0.0014089859999999,-1.9457608,0.9160285333333332,1.401031222222222,12.82642522222222,126.66666666666669,21.444444444444443,-159.44444444444446,-37.77777777777778,23.11111111111111,236.55555555555557,-1039.5555555555557,-13.666666666666666,298.8888888888889,1017.4633333333334,-2.966588555555556,3315.1111111111118,0.1461704999999999,0.048535694,0.0014089859999999,-0.018300146,-1.9457608,-0.005915708,60180.0,24851.5,22760.0,20.5,12.5,16.5,0,None
2023-01-01 12:35:24,344.7311,0.1060000000000001,100.0,1185.0,24216.5,4876.5,98.0,967.7,207.9,4887.5,86.689282,4.317661,0.1315409,0.0152185091999999,-2.0283671999999995,60.62800000000001,0.14281982,0.013573276,-1.9510008,0.9162855400000002,1.18284512,8.5204769,118.0,-2.2,-161.85,-33.8,-31.1,235.75,-1061.75,5.55,295.35,1017.50395,-2.9260741,3316.7,0.14281982,-0.0331079308,0.013573276,0.0176431076,-1.9510008,-0.0086640662,60540.0,24827.5,23120.0,6.5,18.5,9.0,0,None
2023-01-01 12:35:25,345.76810000000006,0.1001999999999952,100.0,783.5,24345.0,4893.5,98.0,872.2,210.5,4880.8,86.09359200000002,4.3801614,0.1101597599999999,0.015067276,-2.0269553999999994,60.854,0.1217366,0.013415398,-1.9500648,0.8343794900000001,1.3022902000000005,9.755457000000002,110.2,-1.0,-152.5,-19.3,10.6,244.6,-1056.8,2.3,305.1,1017.4944000000002,-2.9355547,3318.2,0.1217366,0.009276534,0.013415398,0.0764275048,-1.9500648,-0.0017773919999999,60825.0,24823.5,23405.0,8.0,17.0,18.0,0,None
2023-01-01 12:35:26,346.77000000000004,0.111111111111111,100.0,1003.5,24272.0,4886.5,98.0,953.1111111111112,213.0,4885.333333333333,85.46730333333332,4.4387824444444455,0.11775736,0.014036883,-2.0188492,60.95,0.12973546,0.0139720934,-1.9406536,1.0310241444444446,1.361737111111111,13.226716444444444,121.16666666666669,9.11111111111111,-152.44444444444446,-19.61111111111111,19.72222222222222,235.11111111111111,-1051.611111111111,-1.3888888888888888,309.1666666666667,1017.5123333333332,-2.9176691111111115,3319.6666666666665,0.12841132,0.0004891359999999,0.0143551494,-0.01770894692,-1.9408572,-0.0124393603999999,60940.0,24874.5,23520.0,6.0,7.5,10.0,0,None
2023-01-01 12:35:27,347.7408888888889,0.1043333333333356,100.0,1039.0,24287.5,4874.5,98.0,1013.8888888888888,215.55555555555557,4880.333333333333,84.88195999999999,4.489088555555556,0.122,-0.0007045811749999,-2.0226490000000004,60.9825,0.13265995,-0.0009728634749999,-1.943246,0.9837645333333332,1.4197655555555555,11.671012777777776,110.33333333333331,-15.88888888888889,-157.0,-32.77777777777778,13.77777777777778,232.44444444444449,-1023.8888888888888,-11.555555555555555,294.8888888888889,1017.5143333333332,-2.9158421111111115,3321.1111111111118,0.13265995,0.01570132,-0.0009728634749999,-0.0109009949999999,-1.943246,0.0121712005,60980.0,24869.5,23560.0,12.5,7.5,15.5,0,None
2023-01-01 12:35:28,348.7164,0.1019999999999981,100.0,1057.5,24256.0,4882.0,98.0,1009.8,218.3,4883.5,84.26692,4.5408212,0.11220236,-0.0101976373999999,-2.020569,61.034000000000006,0.1235629199999999,-0.009493442,-1.9403536000000003,0.95670876,1.3733996000000002,11.8235443,111.95,6.6,-151.85,-29.65,-8.2,239.1,-1043.85,4.1,306.9,1017.5041,-2.9258864999999994,3322.45,0.1235629199999999,-0.009604118,-0.009493442,-0.0028177526,-1.9403536000000003,-0.0033764928,61035.0,24885.0,23615.0,3.0,11.0,15.5,0,None
2023-01-01 12:35:29,349.71866666666665,0.1088888888888908,100.0,1225.0,24206.5,4879.5,98.0,1088.7777777777778,221.33333333333331,4881.555555555556,83.70462222222221,4.588417777777778,0.1151694,-0.0008938242399999,-2.0129554,61.032,0.1271011999999999,-0.002031367286,-1.9329266,0.8618176222222221,1.333143222222222,10.007702666666669,127.33333333333331,4.777777777777778,-157.33333333333334,-28.77777777777778,51.11111111111112,239.22222222222223,-983.8888888888888,7.555555555555555,317.8888888888889,1017.5073333333332,-2.9227428888888887,3324.0,0.1271011999999999,0.046975906,-0.002031367286,-0.0129060405999999,-1.9329266,0.0066802009999999,61035.0,24925.5,23615.0,-5.5,7.0,16.5,0,None
2023-01-01 12:35:30,350.7343,0.104000000000002,100.0,1148.0,24226.0,4883.5,98.0,1127.7,224.5,4886.2,83.154116,4.6359734,0.12795212,0.0152354845999999,-2.0160992,61.072,0.13912238,0.0143882632,-1.9347396,0.81126849,1.330695,7.7811622,117.75,13.05,-160.5,-16.05,-30.2,238.05,-1095.4,-16.35,310.6,1017.46305,-2.9669649,3325.6,0.13912238,0.0210580649999999,0.0143882632,0.08926953976,-1.9347396,-0.0045634982,61070.0,24927.5,23650.0,-12.0,1.5,12.5,0,None
2023-01-01 12:35:31,351.7586,0.1039999999999963,100.0,1172.5,24207.5,4883.5,98.0,1173.3,227.7,4886.7,82.625832,4.6817858,0.1282197,0.0149180732,-2.0252396,61.092,0.13954218,0.0143754018,-1.9441664,0.7715438700000001,1.3460771,9.905784100000002,133.5,8.8,-158.7,-22.1,-1.9,239.3,-1053.4,-0.6,293.7,1017.4758999999998,-2.9539999000000003,3327.1,0.13954218,0.051474674,0.0143754018,0.0316477564,-1.9441664,-0.012093313592,61095.0,24864.0,23675.0,-6.0,6.5,9.0,0,None
2023-01-01 12:35:32,352.77888888888884,0.1067777777777791,100.0,1345.0,24150.0,4885.0,98.0,1166.2222222222222,231.22222222222223,4887.222222222223,82.07009666666666,4.728376555555555,0.1412360399999999,0.00903485504,-2.0120528,61.104,0.1525061,0.00897128154,-1.9300518,0.7688255222222222,1.4187676666666666,8.654294444444446,136.33333333333334,-21.38888888888889,-160.11111111111111,-25.5,47.94444444444444,238.44444444444449,-1031.7777777777778,-0.3333333333333333,309.5,1017.4444444444443,-2.985659833333333,3328.333333333333,0.1525061,0.0791038406,0.00897128154,-0.0306064946,-1.9300518,0.0018975512,61105.0,24943.0,23685.0,-2.5,-0.5,8.0,0,None
2023-01-01 12:35:33,353.7035555555556,0.1043333333333356,100.0,809.5,24312.5,4879.5,98.0,929.2222222222222,234.22222222222223,4883.666666666667,81.56168666666666,4.771479555555556,0.1437164,0.02664797,-2.014397,61.1575,0.15582775,0.0271963625,-1.93164,0.8840435444444444,1.551935,9.959410555555555,109.11111111111111,44.11111111111112,-160.88888888888889,-36.333333333333336,-12.88888888888889,244.77777777777777,-1079.5555555555557,-18.77777777777778,290.0,1017.456777777778,-2.973098888888889,3329.6666666666665,0.15582775,0.038744985,0.0271963625,0.03184354775,-1.93164,-0.0095776471,61170.0,24917.5,23750.0,-8.0,12.5,12.5,0,None
2023-01-01 12:35:34,354.72788888888886,0.1133333333333312,100.0,796.5,24332.5,4878.0,98.0,876.7777777777778,236.33333333333331,4874.666666666667,80.98667888888889,4.821156444444444,0.101946118,0.039476468,-2.0366356,61.09599999999999,0.113839918,0.040215546,-1.9530016,1.2145017777777778,1.3205232222222223,12.222039000000002,70.33333333333333,-0.5555555555555556,-154.61111111111111,-16.11111111111111,-52.11111111111112,249.38888888888889,-962.0,-13.22222222222222,292.22222222222223,1017.5563888888888,-2.873662944444445,3330.9444444444443,0.113839918,-0.07992392,0.040215546,0.0020076135999999,-1.9530016,-0.0202065566,61075.0,24796.5,23655.0,15.5,31.0,9.5,0,None
2023-01-01 12:35:35,355.7207777777778,0.1112222222222195,100.0,902.0,24297.5,4875.0,98.0,864.3333333333334,238.88888888888889,4881.111111111111,80.4539688888889,4.858460555555556,0.074311686,0.027891676,-2.0421526000000005,60.89200000000001,0.086496166,0.029127458,-1.958668,0.9523786666666668,1.3433799999999998,9.803775777777778,89.16666666666667,-4.444444444444445,-139.0,-45.16666666666666,14.666666666666666,246.66666666666663,-1049.2777777777778,-17.22222222222222,305.3333333333333,1017.5528333333334,-2.877156888888889,3332.222222222222,0.086496166,0.016943048,0.029127458,-0.0094326453999999,-1.958668,-0.0006689213999999,60880.0,24779.0,23460.0,23.5,23.5,19.0,0,None
2023-01-01 12:35:36,356.7524,0.1079000000000007,100.0,1035.0,24242.5,4879.5,98.0,1003.8,241.6,4882.0,79.866911,4.8884799,0.077907476,0.0201495128,-2.044735,60.858,0.090146246,0.0208806998,-1.96138,0.88848536,1.17720543,8.9807003,108.8,-30.95,-144.75,-55.0,12.1,245.05,-1052.85,-4.3,303.35,1017.52695,-2.90295305,3333.7,0.090146246,0.02210808,0.0208806998,-0.03099909,-1.96138,-0.0061231118,60855.0,24759.5,23435.0,13.5,4.0,28.5,0,None
2023-01-01 12:35:37,357.7856666666667,0.1067777777777791,100.0,1093.5,24235.0,4870.0,98.0,963.4444444444443,244.44444444444449,4881.0,79.29737222222224,4.910475111111111,0.0733112425,0.0283919974999999,-2.0460320000000003,60.8825,0.085348015,0.0290911599999999,-1.962696,0.8690190222222222,1.2961487777777778,9.56712777777778,57.44444444444444,31.33333333333333,-147.44444444444446,-4.777777777777778,-46.55555555555556,238.72222222222223,-1112.7777777777778,8.333333333333334,303.3888888888889,1017.5673888888888,-2.862408722222222,3335.1111111111118,0.085348015,0.0351212749999999,0.0290911599999999,0.0181755575,-1.962696,0.01330985275,60875.0,24762.5,23455.0,14.0,-2.5,20.5,0,None
2023-01-01 12:35:38,358.7698888888889,0.1132222222222228,100.0,929.5,24295.0,4878.5,98.0,956.8888888888888,247.0,4881.888888888889,78.77751888888889,4.925711222222223,0.0661251519999999,0.0122613878,-2.0375654,60.830000000000005,0.0773637819999999,0.0142215366,-1.9536978,0.8661832111111111,1.167538211111111,7.824255,63.77777777777778,-25.5,-142.94444444444446,-14.27777777777778,17.88888888888889,235.66666666666663,-1053.7222222222222,18.5,305.0,1017.5848888888888,-2.8449868888888883,3336.555555555556,0.076779242,-0.032713942,0.0143603272,0.0204340599999999,-1.9539276,0.008204684,60810.0,24835.0,23390.0,23.5,3.0,23.0,0,None
2023-01-01 12:35:39,359.7453333333334,0.1089999999999993,100.0,1342.5,24125.0,4885.0,98.0,1007.3333333333334,249.77777777777777,4884.666666666667,78.31260222222221,4.936218666666667,0.061850282,-0.00080125164,-2.0220164,60.80800000000001,0.073176506,0.00168265614,-1.9383096,0.7929632999999999,1.2011136666666666,8.738362888888888,63.333333333333336,-13.0,-137.22222222222223,-4.722222222222222,-3.9444444444444446,238.5,-1059.611111111111,-0.1111111111111111,314.1666666666667,1017.5514444444448,-2.878532888888889,3337.777777777778,0.073176506,-0.0360620747999999,0.00168265614,-0.0440516106,-1.9383096,0.006473566,60810.0,24873.0,23390.0,23.0,0.0,29.0,0,None
2023-01-01 12:35:40,360.7387777777778,0.1110000000000026,100.0,2271.0,23734.0,4886.5,98.0,1183.111111111111,253.22222222222223,4886.0,77.89571999999998,4.944282555555556,0.067855264,-0.0177450446,-2.0085832,60.876,0.078950394,-0.0169146728,-1.9259822,0.8506680777777778,1.3139514444444444,9.86395577777778,63.27777777777778,-41.11111111111112,-134.72222222222223,4.611111111111111,33.77777777777778,234.33333333333331,-1007.0555555555557,17.61111111111111,310.1111111111111,1017.4606666666668,-2.9691709444444445,3338.833333333333,0.078950394,-0.0183730031999999,-0.0169146728,0.0077780331999999,-1.9259822,-0.0089985196,60840.0,24953.0,23420.0,17.0,-10.5,33.0,0,None
2023-01-01 12:35:41,361.72988888888887,0.1088888888888845,100.0,675.0,24354.0,4889.0,98.0,870.3333333333334,255.66666666666663,4889.777777777777,77.56718555555555,4.95211877777778,0.078480085,-0.02708142925,-2.01220925,61.0125,0.0897187025,-0.0262295395,-1.9314575,0.9998150555555556,1.4379827777777776,11.135938666666668,75.27777777777777,14.833333333333334,-135.33333333333334,-29.55555555555556,40.44444444444444,232.27777777777777,-1040.0,2.2222222222222223,320.3333333333333,1017.533,-2.8969964999999998,3340.4444444444443,0.0899666074999999,-0.0609244325,-0.026084987,0.00141373,-1.9316315,-0.0091252185,61010.0,24950.0,23590.0,-3.0,-8.5,14.5,0,None
2023-01-01 12:35:42,362.72544444444446,0.1133333333333375,100.0,1022.0,24261.0,4890.5,98.0,991.5555555555557,258.3333333333333,4887.444444444444,77.26234111111113,4.961357777777778,0.09053831,-0.0002785268,-2.015866,60.946000000000005,0.1020431719999999,0.0003452122,-1.936822,0.8470737666666666,1.1570940888888888,6.433257777777779,68.27777777777777,74.33333333333333,-143.33333333333334,-17.27777777777778,-26.5,241.38888888888889,-1092.888888888889,-3.333333333333333,321.6111111111111,1017.5195,-2.9103126111111117,3341.4444444444443,0.1020431719999999,-0.03932106,0.0003452122,0.0675273845999999,-1.936822,-0.0210621728,60950.0,24903.5,23530.0,-30.5,17.0,14.0,0,None
2023-01-01 12:35:43,363.7625000000001,0.1040999999999996,100.0,895.5,24297.0,4891.0,98.0,892.0,261.1,4886.5,76.93530200000001,4.9715146,0.072210914,0.0234232522,-1.9992666,60.93399999999999,0.083245948,0.022539446,-1.9208204,1.0203778,1.4647456,11.6970827,66.6,-67.7,-132.6,-3.5,-8.7,246.7,-1066.8,28.7,307.5,1017.4989999999998,-2.9309141000000003,3342.8,0.082668728,-0.0074108723,0.022575798,-0.0766998483,-1.9210712,0.028611294,60935.0,24999.5,23515.0,1.5,12.5,21.5,0,None
2023-01-01 12:35:44,364.7676666666667,0.1066666666666643,100.0,1123.0,24216.5,4888.5,98.0,995.1111111111112,263.6666666666667,4886.555555555556,76.61449111111112,4.979976555555555,0.088916522,-0.0120372114,-2.0072994,60.974,0.099166282,-0.0114523708,-1.9291114,0.9843247444444444,1.4136270000000002,10.451710333333333,79.72222222222223,-6.777777777777778,-136.88888888888889,-6.388888888888889,-18.77777777777778,228.38888888888889,-1106.1666666666667,-25.83333333333333,312.94444444444446,1017.4932777777778,-2.936722833333333,3344.222222222222,0.099166282,-0.0151079602,-0.0114523708,-0.0030017315999999,-1.9291114,-0.0382724282,60975.0,24959.0,23555.0,5.0,2.0,11.5,0,None
2023-01-01 12:35:45,365.761,0.1154444444444429,100.0,1043.0,24249.5,4872.0,98.0,986.0,266.3333333333333,4887.777777777777,76.32284444444444,4.988457,0.081139584,-0.0026909264199999,-2.020839,60.96,0.0920213459999999,-0.00282341106,-1.9433068,0.9638360666666664,1.2552967777777777,10.074452444444445,68.05555555555556,20.944444444444443,-144.66666666666666,-21.72222222222222,2.1666666666666665,233.83333333333331,-1011.0,1.7222222222222223,308.77777777777777,1017.5094444444444,-2.920616388888889,3345.3888888888887,0.0917084119999999,0.010618848,-0.0027727174979999,0.0068040028,-1.9433202,0.0010287308,60960.0,24860.5,23540.0,-2.5,11.5,12.5,0,None
2023-01-01 12:35:46,366.726625,0.1101250000000035,100.0,1013.5,24235.5,4885.0,98.0,861.5,268.75,4890.0,76.0610475,4.9972080000000005,0.07390889,0.010152179025,-2.01224825,60.965,0.0839834724999999,0.0089568599999999,-1.93466975,1.095653975,1.512082375,12.977100000000002,68.0625,-19.125,-141.5,-34.75,54.6875,237.75,-1005.5,-4.375,302.5,1017.518375,-2.911601625,3346.625,0.0839834724999999,-0.071034945,0.0089568599999999,-0.00192138075,-1.93466975,-0.005032343,60965.0,24908.0,23545.0,4.0,13.0,22.5,0,None
2023-01-01 12:35:47,367.69200000000006,0.1154444444444429,100.0,849.0,24287.0,4885.0,98.0,851.4444444444445,271.1111111111111,4889.111111111111,75.80463,5.00558188888889,0.064466442,0.0073695616,-2.0134928000000003,60.962,0.074843954,0.0069137056,-1.936985,1.1402272111111111,1.5794965555555556,12.918081333333337,58.388888888888886,24.666666666666668,-132.33333333333334,-11.77777777777778,26.38888888888889,244.66666666666663,-1052.8333333333333,3.111111111111111,319.5,1017.5137222222224,-2.916380166666667,3347.8888888888887,0.074843954,0.029913622,0.0069137056,0.095991086,-1.936985,0.0030473805799999,60970.0,24904.0,23550.0,2.0,13.0,10.0,0,None
2023-01-01 12:35:48,368.7118888888889,0.1133333333333312,100.0,1075.0,24210.0,4864.5,98.0,1114.3333333333333,274.0,4882.0,75.55293999999998,5.012914888888889,0.099988964,0.0179977942,-2.0059104,60.93399999999999,0.10984052,0.01667169752,-1.929809,0.7276058666666667,1.309408111111111,8.738002555555553,98.88888888888889,22.72222222222222,-149.88888888888889,-21.22222222222222,-35.111111111111114,243.88888888888889,-1108.111111111111,-25.72222222222222,298.55555555555554,1017.4456111111112,-2.9845963888888893,3349.0,0.10984052,-0.044894808,0.01667169752,0.0546636918,-1.929809,-0.02142932842,60935.0,24941.5,23515.0,-1.5,12.5,12.0,0,None
2023-01-01 12:35:49,369.7384,0.1060000000000001,100.0,794.5,24313.0,4887.5,98.0,986.1,277.1,4884.5,75.281714,5.0217462,0.079018214,0.01762897922,-2.021001,60.952,0.088531004,0.01649148648,-1.9454652,0.7715414199999999,1.16252181,6.9501031000000015,81.5,-26.1,-143.8,-18.1,-34.95,246.45,-1063.75,-4.4,304.05,1017.4848500000002,-2.94505075,3350.0,0.088225358,-0.1319819179999999,0.01675924248,-0.028461112,-1.9454842,-0.013662812,60955.0,24850.0,23535.0,12.5,11.0,15.5,0,None
2023-01-01 12:35:50,370.79,0.1112222222222258,100.0,906.5,24265.0,4888.0,98.0,931.4444444444443,279.77777777777777,4887.0,74.98894666666666,5.031133555555555,0.0773115375,0.0134666857499999,-2.02863825,60.8975,0.08769677,0.0131271585,-1.95368325,0.9266895555555557,1.1731929,9.050103222222225,95.11111111111111,23.55555555555556,-140.77777777777777,-38.27777777777778,22.5,240.83333333333331,-1075.7222222222222,-2.333333333333333,316.6111111111111,1017.4815,-2.9484635,3351.6111111111118,0.08769677,0.026690215,0.0131271585,0.020503705,-1.95368325,-0.0037985599999999,60880.0,24813.0,23460.0,-1.0,5.5,9.0,0,None
2023-01-01 12:35:51,371.7991111111112,0.111111111111111,100.0,1015.5,24225.5,4892.0,98.0,1035.7777777777778,282.44444444444446,4888.111111111111,74.70623888888889,5.039197,0.1069367819999999,0.035061742,-2.0203718000000004,60.85,0.1175016799999999,0.0334008519999999,-1.9457366,0.8366295777777777,1.1437501111111112,8.238165555555556,100.44444444444444,2.6666666666666665,-150.88888888888889,-53.888888888888886,70.16666666666667,244.38888888888889,-999.5,2.4444444444444446,291.72222222222223,1017.4465555555556,-2.9833852222222226,3352.6666666666665,0.1175016799999999,-0.0173955586,0.0334008519999999,-0.00095568808,-1.9457366,-0.0094037616,60845.0,24863.5,23425.0,-4.5,-7.5,5.0,0,None
2023-01-01 12:35:52,372.75675,0.1148749999999978,100.0,992.0,24249.0,4896.0,98.0,985.25,285.125,4891.0,74.40513999999999,5.048403,0.12578838,0.036386644,-2.0187212000000003,60.838,0.13577004,0.0355525,-1.9435916,0.7833757,1.222689925,9.5189135,112.9375,25.8125,-160.0,-25.0,2.25,246.3125,-1070.5625,1.125,300.625,1017.4498125,-2.9799853125,3353.75,0.13577004,0.0225725886,0.0355525,0.02066179,-1.9435916,-0.0035960566,60850.0,24874.0,23430.0,0.0,-5.0,12.0,0,None
2023-01-01 12:35:53,373.7076666666667,0.1088888888888908,100.0,991.5,24255.0,4889.0,98.0,1090.7777777777778,287.8888888888889,4894.222222222223,74.07169111111111,5.061474111111111,0.12230575,0.029317335,-2.02495875,60.7875,0.13283205,0.0291535425,-1.94923725,0.717028388888889,1.2394171555555555,8.834070666666667,102.94444444444444,-27.77777777777778,-162.5,-36.66666666666666,-13.0,245.0,-1030.611111111111,18.33333333333333,303.77777777777777,1017.4737222222224,-2.956388888888889,3354.8888888888887,0.133932725,-0.0145790024999999,0.029100865,0.00438521,-1.94911375,0.012714451,60805.0,24830.0,23385.0,14.5,4.0,2.0,0,None
2023-01-01 12:35:54,374.7344999999999,0.1079999999999983,100.0,1108.3333333333333,24201.666666666668,4894.333333333333,98.0,1030.6,290.8,4883.3,73.68370999999999,5.079728800000001,0.1090835999999999,0.0238379079999999,-2.0172328,60.720000000000006,0.1202698599999999,0.024110958,-1.9417442,0.8030434499999999,1.3050869100000002,8.751675600000002,108.6,-2.15,-146.95,-33.5,9.25,241.95,-1074.8,13.8,294.35,1017.4731,-2.9568202500000003,3356.1,0.1202698599999999,0.0107931504,0.024110958,-0.017860938,-1.9417442,-0.0022350301999999,60720.0,24876.0,23300.0,14.5,10.0,8.5,0,None
2023-01-01 12:35:55,375.741,0.1044444444444441,100.0,941.0,24259.0,4890.0,98.0,923.8888888888888,293.6666666666667,4890.888888888889,73.31357777777778,5.098885222222222,0.098992382,0.017678644,-2.0192778,60.684000000000005,0.11074668,0.0170612239999999,-1.9443064,0.8619515555555556,1.1143817888888892,7.817986,86.77777777777777,-11.88888888888889,-150.22222222222223,-43.333333333333336,-6.666666666666667,241.66666666666663,-1086.0,-13.11111111111111,305.1111111111111,1017.4784444444444,-2.9515450000000003,3357.4444444444443,0.11074668,0.0186257978,0.0170612239999999,-0.0412292628,-1.9443064,0.00172323748,60680.0,24864.0,23260.0,14.0,13.5,9.0,0,None
2023-01-01 12:35:56,376.6788888888889,0.1066666666666643,100.0,850.5,24287.0,4890.5,98.0,913.6666666666666,296.0,4886.777777777777,72.96852,5.117133888888889,0.089938694,0.031437634,-2.023807,60.584,0.101940328,0.030380026,-1.9496576,0.878283122222222,1.1924877777777778,11.034272111111113,84.11111111111111,20.77777777777778,-145.83333333333334,-34.166666666666664,14.055555555555555,241.16666666666663,-1029.7222222222222,-0.7777777777777778,313.0,1017.5065555555556,-2.9234763888888886,3358.3888888888887,0.10247149,0.06506119,0.03040736,0.0064623579999999,-1.949547,0.0010420145399999,60590.0,24832.0,23170.0,10.5,16.0,10.0,0,None
2023-01-01 12:35:57,377.72850000000005,0.1081000000000016,100.0,1132.0,24165.0,4882.5,98.0,1121.5,299.2,4890.0,72.59574599999999,5.135397,0.0968048079999999,0.0161246644,-2.0143452,60.478,0.10805326,0.014912993496,-1.9406936,0.73691072,1.3464069000000003,10.08478,91.0,-27.4,-151.25,-44.25,5.2,242.1,-1051.25,-0.6,301.8,1017.4932,-2.9366639000000005,3359.6,0.10805326,-0.0329377846,0.014912993496,-0.0237372012,-1.9406936,0.0155286926,60480.0,24879.5,23060.0,21.0,5.0,14.5,0,None
2023-01-01 12:35:58,378.7188888888889,0.1044444444444441,100.0,1283.5,24156.5,4881.5,98.0,947.7777777777778,302.0,4887.888888888889,72.27379,5.150262666666666,0.0892712125,-0.00400343325,-2.0084150000000003,60.44,0.1001293249999999,-0.0050171925,-1.93604925,0.9029812333333334,1.2155775555555557,9.19665588888889,65.88888888888889,-1.3333333333333333,-140.11111111111111,-23.0,13.88888888888889,238.33333333333331,-1008.1111111111112,-11.333333333333334,327.22222222222223,1017.5556666666666,-2.8743055555555554,3360.8888888888887,0.1001293249999999,-0.0091413325,-0.0050171925,-0.0226653949999999,-1.93604925,-0.009339545,60440.0,24910.0,23020.0,14.5,8.5,21.5,0,None
2023-01-01 12:35:59,379.7387777777777,0.1198888888888897,100.0,1166.5,24194.5,4877.0,98.0,996.5555555555557,304.6666666666667,4881.666666666667,71.99413777777778,5.165242888888889,0.077945712,0.0033898468,-2.012157,60.348,0.089106774,0.0018639523999999,-1.9408696,0.7525685666666666,1.2984374444444446,10.243841444444444,74.27777777777777,9.72222222222222,-139.0,-18.0,-7.055555555555555,239.27777777777777,-1041.0555555555557,-0.7777777777777778,313.3888888888889,1017.552,-2.877808,3362.222222222222,0.089582368,-0.046698295,0.0014123154,0.0178882234,-1.9406188,-0.0117383024,60340.0,24880.0,22920.0,5.5,14.5,25.5,0,None
2023-01-01 12:36:00,380.71866666666665,0.1001111111111122,100.0,1039.5,24212.5,4887.0,98.0,958.7777777777778,307.44444444444446,4878.666666666667,71.76804,5.178232888888889,0.07223079,-0.0053786312,-2.0086416,60.33,0.083348644,-0.0066455778,-1.9376438,0.9012375444444446,1.2578613333333335,10.655963000000002,69.11111111111111,-7.888888888888889,-139.88888888888889,-16.666666666666668,31.0,232.11111111111111,-1019.0,15.666666666666666,311.3333333333333,1017.5718888888888,-2.8581510000000003,3363.222222222222,0.083348644,-0.015754866,-0.0066455778,-0.0026592211999999,-1.9376438,0.0083684012,60325.0,24896.5,22905.0,3.5,11.5,21.5,0,None
2023-01-01 12:36:01,381.7244999999999,0.1079999999999983,100.0,897.5,24276.0,4886.0,98.0,1075.3,310.2,4886.3,71.559674,5.189136800000001,0.0756047399999999,-0.00145212124,-2.0083812,60.302,0.08623338,-0.0026611765799999,-1.938228,0.8183548399999999,1.13887401,9.0758017,72.1,4.9,-140.35,-13.3,-22.6,238.65,-1104.05,-5.95,311.5,1017.54165,-2.8882226,3364.4,0.08623338,-0.0049755813999999,-0.0026611765799999,0.00071225156,-1.938228,-0.0011248286,60300.0,24894.5,22880.0,-3.0,13.0,23.0,0,None
2023-01-01 12:36:02,382.73422222222223,0.108777777777776,100.0,949.5,24248.5,4885.5,98.0,964.8888888888888,313.1111111111111,4885.111111111111,71.39461555555556,5.196825666666666,0.0729536099999999,0.007566983475,-2.0069875,60.36,0.08343391,0.0062752820749999,-1.937605,0.8671556333333333,1.182258777777778,8.58198788888889,67.44444444444444,19.11111111111111,-139.22222222222223,-18.33333333333333,-12.22222222222222,239.22222222222223,-1091.7777777777778,-14.11111111111111,310.3333333333333,1017.5093333333334,-2.920651111111111,3365.6666666666665,0.08343391,0.003831915,0.0062752820749999,0.01284783025,-1.937605,-0.018249082275,60375.0,24891.0,22955.0,-13.0,15.0,18.5,0,None
2023-01-01 12:36:03,383.7526,0.1060000000000001,100.0,1029.0,24222.0,4891.5,98.0,945.0,315.8,4888.2,71.23988600000001,5.202856,0.0664080079999999,0.024595862,-2.0120078,60.39,0.077705912,0.022961204,-1.9430202,0.6557851100000001,1.17376583,8.2624709,70.05,2.4,-139.5,-24.7,14.7,239.65,-1058.7,-8.05,301.05,1017.50815,-2.92172665,3366.9,0.077705912,-0.0192392814,0.022961204,0.0105188703999999,-1.9430202,-0.0003506202,60390.0,24844.0,22970.0,-6.0,9.0,14.0,0,None
2023-01-01 12:36:04,384.7923333333333,0.1067777777777791,100.0,1049.5,24189.0,4885.0,98.0,988.6666666666666,318.6666666666667,4884.222222222223,71.06975777777778,5.2071464444444455,0.0751226419999999,0.031633894,-2.0201874,60.416,0.085434564,0.0301636339999999,-1.9511698,0.7089835,1.0796809555555555,7.950918555555556,67.27777777777777,-5.944444444444445,-145.44444444444446,-20.05555555555556,-22.27777777777778,239.5,-1109.8333333333333,2.555555555555556,310.77777777777777,1017.5007222222222,-2.929270777777778,3368.333333333333,0.085434564,0.0147707116,0.0301636339999999,-0.024478686,-1.9511698,-0.0019336641999999,60420.0,24804.0,23000.0,0.0,2.0,12.0,0,None
2023-01-01 12:36:05,385.7364444444444,0.1066666666666643,100.0,870.0,24270.5,4890.5,98.0,910.2222222222222,321.1111111111111,4885.777777777777,70.89486555555555,5.210215333333333,0.07739896,0.0164684775,-2.0153237500000003,60.43,0.0870445874999999,0.0145147,-1.9462445,0.7738642333333334,1.1243366666666663,9.28985722222222,65.33333333333333,3.888888888888889,-143.22222222222223,-37.11111111111112,17.11111111111111,239.77777777777777,-1069.7777777777778,-11.22222222222222,312.55555555555554,1017.4842222222222,-2.946006666666667,3369.4444444444443,0.0870445874999999,0.0036552015,0.0145147,-0.03046814425,-1.9462445,-0.01700499075,60430.0,24852.0,23010.0,5.0,-1.0,12.0,0,None
2023-01-01 12:36:06,386.72533333333337,0.1110000000000026,100.0,822.0,24292.5,4889.0,97.88888888888889,946.4444444444443,323.55555555555554,4885.111111111111,70.68955777777776,5.213215,0.074813146,0.021133082,-2.0180022,60.388,0.0850138179999999,0.0195974779999999,-1.9495434,0.8410393125,1.111933625,9.560840375000002,64.94444444444444,-17.11111111111111,-144.44444444444446,-26.5,-6.111111111111111,242.38888888888889,-1041.4444444444443,3.6666666666666665,306.5,1017.4978888888888,-2.932269944444444,3370.277777777778,0.0850138179999999,0.0398972948,0.0195974779999999,-0.011939528,-1.9495434,-0.0004488041999999,60390.0,24828.0,22970.0,12.5,2.0,12.0,0,None
2023-01-01 12:36:07,387.7361,0.1060000000000002,100.0,934.0,24246.0,4886.5,97.0,931.3,326.1,4882.7,70.48433800000001,5.215770400000001,0.0420195264,-0.06778857,-2.0376028,60.314,0.0530034819999999,-0.06854958,-1.9692334,0.93701948,1.3834106,11.7678781,63.15,-133.05,-135.95,-36.25,-28.5,226.45,-1038.8,-124.85,327.85,1017.51225,-2.9178359,3371.55,0.0530034819999999,-0.101489384,-0.06854958,-0.1667631082,-1.9692334,-0.1345601188,60315.0,24786.0,22895.0,-9.0,6.5,10.5,0,None
2023-01-01 12:36:08,388.7811111111112,0.111111111111111,100.0,983.5,24230.0,4888.0,97.0,1012.3333333333334,329.1111111111111,4881.111111111111,70.26836666666668,5.215682111111112,0.0003759305999999,-0.130490204,-2.313467,60.328,0.0135765538,-0.13514814,-2.244847,0.9179343555555556,1.4195565555555556,9.654702444444446,38.0,45.22222222222222,-174.88888888888889,20.666666666666668,83.0,156.22222222222223,-1060.611111111111,-324.55555555555554,353.27777777777777,1017.4475,-2.982330555555556,3372.5,0.0135765538,0.100050906,-0.13514814,0.04532253,-2.244847,-0.32184616,60320.0,23223.0,22900.0,-145.0,24.5,30.0,0,None
2023-01-01 12:36:09,389.7043749999999,0.1126250000000012,100.0,1092.0,24182.5,4885.5,97.0,1117.5,331.875,4879.375,70.11036,5.210009875,0.03553884,-0.0675737075,-2.644742,60.57,0.045542275,-0.0790581725,-2.575819,0.8337391000000001,1.23088505,7.682835875,47.1875,47.5,-249.5625,37.25,58.25,102.6875,-1031.25,-365.75,332.625,1017.3579375,-3.0721971250000006,3373.875,0.04622898,0.066307275,-0.0787463824999999,0.0521284775,-2.5738295,-0.3927878999999999,60590.0,21131.0,23170.0,-222.5,32.5,28.0,0,None
2023-01-01 12:36:10,390.7034444444445,0.115444444444443,100.0,1112.0,24179.5,4875.0,97.0,1106.888888888889,335.0,4882.888888888889,69.96150555555556,5.203755444444444,0.0272548624,-0.0563056819999999,-1.755088,60.86600000000001,0.0326332506,-0.068311804,-2.9411936,0.6550143555555555,1.0250260777777778,9.578470777777778,-1.8333333333333333,7.722222222222222,-293.6111111111111,47.388888888888886,-37.94444444444444,20.61111111111111,-1054.9444444444443,-379.05555555555554,324.1666666666667,1017.3778333333332,-3.0521264444444443,3374.777777777778,0.0324314606,-0.046908118,-0.068420182,0.033715356,-2.9397454,-0.39117018,60900.0,18851.0,23480.0,-204.0,35.5,28.0,0,None
2023-01-01 12:36:11,391.7521111111112,0.1156666666666662,100.0,781.0,24281.5,4888.5,97.0,964.4444444444443,338.0,4886.666666666667,69.81126222222221,5.1989616666666665,-0.0369627723999999,-0.060854278,2.897514,61.106,-0.0322360342,-0.072370326,2.9718722,0.7351576111111111,1.3909317555555556,10.606060555555556,-31.944444444444443,14.833333333333334,-274.94444444444446,27.55555555555556,-40.55555555555556,-81.05555555555556,-1088.5,-256.3888888888889,331.22222222222223,1017.338722222222,-3.091193555555556,3376.222222222222,-0.0322360342,0.01514024514,-0.072370326,-0.0026869302,2.9718722,-0.2457617539999999,61120.0,16905.0,23700.0,-197.5,32.0,23.5,0,None
2023-01-01 12:36:12,392.7387777777778,0.111111111111111,100.0,936.0,24226.5,4886.5,97.0,976.7777777777778,340.44444444444446,4882.555555555556,69.67043666666667,5.195423444444444,-0.098761276,-0.03771771,2.8211728000000003,61.25600000000001,-0.0917076679999999,-0.049181064,2.9003466,0.6244375444444443,1.3701933333333334,11.89513888888889,-47.27777777777778,38.55555555555556,-245.38888888888889,43.55555555555556,-22.33333333333333,-113.27777777777776,-1100.6666666666667,46.94444444444444,344.8333333333333,1017.3607777777776,-3.069032,3377.1666666666665,-0.09189218,-0.043231246,-0.04908585,0.028286066,2.8998208,0.0423761968999999,61260.0,16645.5,23840.0,-255.0,46.5,32.0,0,None
2023-01-01 12:36:13,393.7384444444445,0.1065555555555558,100.0,1144.0,24173.0,4887.0,97.0,1137.888888888889,343.3333333333333,4892.555555555556,69.5347711111111,5.192160111111111,-0.0521580075,-0.07318919,2.8866005,61.395,-0.046418615,-0.0858513824999999,2.9675375,0.7408240444444444,1.1708411777777776,10.40419211111111,-48.44444444444444,-68.66666666666667,-262.8888888888889,57.66666666666666,111.66666666666669,-101.77777777777776,-1058.5555555555557,9.444444444444445,338.77777777777777,1017.3083333333336,-3.1217186666666663,3378.4444444444443,-0.046418615,0.0920307575,-0.0858513824999999,-0.07635193,2.9675375,0.0141039975,61430.0,16976.5,24010.0,-328.0,34.5,36.0,0,None
2023-01-01 12:36:14,394.7212222222222,0.1112222222222195,100.0,1162.5,24161.5,4900.0,97.0,1145.2222222222222,346.6666666666667,4883.333333333333,69.41695777777778,5.19018,0.0128386096,-0.0952492619999999,2.8519546,61.61600000000001,0.016393636,-0.104533058,2.9330092,0.7251469777777777,1.3613985555555557,10.793659222222225,-40.61111111111112,14.77777777777778,-286.8333333333333,69.05555555555556,24.166666666666668,-115.11111111111111,-1053.7777777777778,-19.944444444444443,313.6666666666667,1017.2806666666668,-3.1493704444444446,3379.6666666666665,0.016857936,0.02763119,-0.10461279,0.0092565659999999,2.9329914,-0.022429312,61630.0,16757.0,24210.0,-314.0,45.0,42.0,0,None
2023-01-01 12:36:15,395.721,0.1132222222222228,100.0,1165.0,24146.5,4895.5,97.0,1104.7777777777778,349.55555555555554,4887.0,69.30236555555555,5.190423777777777,0.0121451368,-0.07319566,2.8923482,61.85799999999999,0.016619948,-0.080840032,2.9742602,0.7293017555555557,1.1866325555555557,9.056748222222222,-42.44444444444444,15.72222222222222,-289.22222222222223,71.94444444444444,-5.777777777777778,-107.27777777777776,-1048.1666666666667,65.72222222222223,312.6111111111111,1017.2580555555554,-3.1717621111111107,3380.833333333333,0.016619948,-0.0079716506,-0.080840032,0.01679786348,2.9742602,0.067201312,61795.0,16927.5,24375.0,-287.5,43.5,42.0,0,None
