00000_Time_epoch,00000_Time_boot_sec,00000_Span_Time_boot_sec,1_battery_remaining_avg,1_current_battery_avg,1_voltage_battery_avg,125_Vcc_avg,147_battery_remaining_avg,147_current_battery_avg,147_current_consumed_avg,165_Vcc_avg,168_direction_avg,168_speed_avg,178_pitch_avg,178_roll_avg,178_yaw_avg,182_altitude_avg,182_pitch_avg,182_roll_avg,182_yaw_avg,241_vibration_x_avg,241_vibration_y_avg,241_vibration_z_avg,27_xacc_avg,27_xgyro_avg,27_xmag_avg,27_yacc_avg,27_ygyro_avg,27_ymag_avg,27_zacc_avg,27_zgyro_avg,27_zmag_avg,29_press_abs_avg,29_press_diff_avg,29_temperature_avg,30_pitch_avg,30_pitchspeed_avg,30_roll_avg,30_rollspeed_avg,30_yaw_avg,30_yawspeed_avg,33_alt_avg,33_hdg_avg,33_relative_alt_avg,33_vx_avg,33_vy_avg,33_vz_avg,label,diagnosis
2023-01-03 08:40:48,256.118,-0.0374999999999978,100.0,53.0,24980.0,4886.5,99.0,56.0,38.0,4883.125,-176.071375,0.3149842499999999,0.00901075175,-0.0246212624999999,-1.141933,29.6125,0.01819706,-0.0254226975,-1.18019225,0.0255328785714285,0.02476794,0.0391672242857142,-7.428571428571429,-0.2857142857142857,90.57142857142856,8.571428571428571,6.285714285714286,237.7142857142857,-1062.571428571429,-1.0,335.85714285714283,1020.8142857142858,-0.2308928428571428,3196.1428571428573,0.01819706,0.0068904074999999,-0.0254226975,-0.0003362468249999,-1.18019225,-0.00154376875,29590.0,29238.0,100.0,-10.0,22.0,38.0,0,None
2023-01-03 08:40:49,257.03,0.1019999999999981,100.0,53.0,24985.0,4886.5,99.0,51.9,38.0,4881.9,-176.22006000000002,0.2941238499999999,0.009245457,-0.0246687739999999,-1.1414364,29.782,0.018317264,-0.0252189019999999,-1.180013,0.025672008,0.025305575,0.04290154,-7.3,0.3,90.35,7.95,7.4,239.65,-1056.25,4.6,333.95,1020.8054499999998,-0.23953905,3198.8,0.018317264,0.0070304504,-0.0252189019999999,3.349064000000001e-05,-1.180013,-0.001718658,29735.0,29239.5,245.0,-9.5,23.0,39.5,0,None
2023-01-03 08:40:50,258.0562,0.1040999999999996,100.0,97.0,24935.5,4888.0,99.0,132.3,38.0,4878.6,-176.26698,0.3619167399999999,0.0097340089999999,-0.02439263,-1.140993,29.934,0.018624134,-0.02507556,-1.1798784000000002,0.2942003333333333,0.3464021111111111,2.699844666666667,-3.7,-4.3,92.1,13.0,10.8,240.4,-1055.0,-2.7,330.3,1020.8397,-0.2055390499999999,3201.9,0.018624134,0.0098056418,-0.02507556,-0.0038780393999999,-1.1798784000000002,-0.0023740328399999,29900.0,29236.0,410.0,-9.0,23.0,43.0,0,None
2023-01-03 08:40:51,259.05588888888894,0.1067777777777791,100.0,1939.5,24283.0,4888.0,99.0,1302.5555555555557,39.55555555555556,4883.222222222223,-176.46715555555554,0.4585242444444445,0.014041748,-0.020165,-1.141323,30.085,0.023683065,-0.0203244375,-1.17872675,0.4464215777777778,0.8398809111111112,3.231905555555556,5.888888888888889,1.8888888888888888,74.16666666666667,-7.444444444444445,23.61111111111111,236.72222222222223,-1176.7222222222222,4.166666666666667,306.3888888888889,1020.9999444444444,-0.0453385516666666,3204.6666666666665,0.0235318025,0.00762472565,-0.0202386375,0.019663816375,-1.17880275,-0.00811377225,30030.0,29247.0,540.0,-9.0,21.0,66.5,0,None
2023-01-03 08:40:52,260.0613,0.1038999999999986,100.0,1679.5,24304.5,4889.0,99.0,1817.4,45.0,4878.3,-177.92688000000004,0.5676175599999999,-0.0003550832,-0.0067391946,-1.1414046,31.33,0.0100414077999999,-0.00704071648,-1.1769798000000002,0.41980644,0.9171922800000004,3.2288229,11.7,1.1,78.4,-16.6,10.6,234.6,-1239.0,-20.9,280.2,1020.666,-0.37917187,3207.6,0.0100414077999999,0.024433468,-0.00704071648,0.0208406732,-1.1769798000000002,-0.012327046,31195.0,29259.5,1705.0,-18.5,-0.5,255.5,0,None
2023-01-03 08:40:53,261.0492222222222,0.1045555555555589,100.0,1354.0,24416.5,4885.5,99.0,1477.6666666666667,49.22222222222222,4877.0,177.22063333333332,0.6312841333333333,0.050636758,0.0373649059999999,-1.1537419999999998,33.982,0.059934316,0.0376232939999999,-1.156704,0.3684768222222223,1.0999704,4.917772888888888,-2.4444444444444446,89.77777777777777,59.77777777777778,-6.333333333333333,11.666666666666666,244.77777777777777,-1052.0,44.77777777777778,287.6666666666667,1020.3127777777778,-0.7322742999999999,3210.333333333333,0.059934316,0.0493224799999999,0.0376232939999999,-0.024156716,-1.156704,0.0317381699999999,33835.0,29408.0,4345.0,-16.5,-2.5,340.5,0,None
2023-01-03 08:40:54,262.05010000000004,0.1059999999999945,100.0,1080.0,24513.0,4875.0,99.0,1246.6,53.1,4879.8,170.71803999999997,0.6674563599999999,-0.0095934648,-0.0680429104,-1.130176,36.746,0.002645232,-0.0672963358,-1.123632,0.55382383,1.11071067,4.7197413,17.8,-252.4,94.95,-44.0,36.0,218.6,-934.35,8.8,304.45,1019.95925,-1.085976505,3213.5,0.002645232,0.070902252,-0.0672963358,-0.262097672,-1.123632,0.00838424,36635.0,29560.0,7145.0,9.5,13.5,275.0,0,None
2023-01-03 08:40:55,263.0411111111111,0.1066666666666706,100.0,1422.5,24367.5,4883.5,99.0,1309.7777777777778,56.333333333333336,4878.444444444444,163.24801111111114,0.696328611111111,0.08418665,-0.21492844,-1.1974584,38.346,0.098068666,-0.20972356,-1.1910234,0.4593485,1.2587258,7.379673333333334,28.77777777777778,69.0,51.61111111111112,-4.333333333333333,101.11111111111111,170.0,-1059.0,-181.27777777777777,366.55555555555554,1019.7957222222224,-1.2494399444444444,3216.4444444444443,0.0985709459999999,0.1087060958,-0.20986048,0.086288466,-1.1895502,-0.1834839902,38275.0,29255.5,8785.0,-138.5,-77.5,163.5,0,None
2023-01-03 08:40:56,264.0551,0.1040999999999996,100.0,1467.5,24340.5,4879.5,99.0,1496.5,60.6,4875.6,154.92372,0.76668856,0.0126313541999999,-0.18398762,-1.537362,39.53,0.025422556,-0.1889522,-1.529643,0.39311359,1.18870365,7.441735600000001,29.5,-13.8,-29.2,19.1,-72.2,192.0,-1126.2,-386.3,366.3,1019.6094,-1.4357265,3219.6,0.025422556,-0.0875679339999999,-0.1889522,-0.03964171,-1.529643,-0.38576218,39450.0,27350.5,9960.0,-339.0,-98.5,171.5,0,None
2023-01-03 08:40:57,265.0402222222222,0.1045555555555526,100.0,1398.5,24337.5,4883.0,99.0,1464.5555555555557,64.44444444444444,4880.0,147.68544444444444,0.8600030888888889,-0.040842058,-0.17825934,-1.8848654,41.274,-0.0290175199999999,-0.19021238,-1.8696382,0.4684963111111111,1.2032364333333334,9.737136777777778,17.333333333333332,-3.888888888888889,-104.22222222222224,61.44444444444444,89.88888888888889,166.0,-1074.2222222222222,-335.55555555555554,349.22222222222223,1019.4098888888888,-1.6352775555555557,3222.555555555556,-0.0290175199999999,0.07278713,-0.19021238,0.028690001,-1.8696382,-0.33099296,41150.0,25404.5,11660.0,-480.5,-165.0,224.5,0,None
2023-01-03 08:40:58,266.06,0.108000000000004,100.0,1507.5,24306.5,4881.0,99.0,1518.0,68.7,4881.0,140.43252,0.9930028399999996,-0.07214168,-0.15138194,-2.2642058,43.466,-0.065783674,-0.1651021399999999,-2.242701,0.51471397,1.37689282,9.1644171,-30.2,18.2,-179.1,62.55,3.0,124.9,-1063.5,-381.85,350.65,1019.11725,-1.9278593500000003,3225.4,-0.065783674,0.0181288836,-0.1651021399999999,-0.0051814046,-2.242701,-0.37646276,43315.0,23290.0,13825.0,-589.0,-184.0,245.5,0,None
2023-01-03 08:40:59,267.0675555555556,0.1044444444444441,100.0,1496.0,24301.0,4887.5,99.0,1481.7777777777778,72.88888888888889,4885.333333333333,134.14978888888885,1.147123111111111,-0.12869245,-0.105810565,-2.616932,45.6125,-0.123847075,-0.120280775,-2.59141975,0.5028726666666667,1.117012922222222,9.539616,-60.27777777777778,-5.888888888888889,-218.83333333333331,74.27777777777777,-9.944444444444445,57.61111111111112,-1070.6666666666667,-347.3333333333333,353.1111111111111,1018.8676111111112,-2.1774693888888894,3228.3888888888887,-0.123847075,-0.01978721775,-0.120280775,-0.002779209,-2.59141975,-0.3587509749999999,45680.0,21093.5,16190.0,-664.5,-205.5,251.5,0,None
2023-01-03 08:41:00,268.08400000000006,0.1060000000000002,100.0,1478.0,24299.0,4891.5,99.0,1445.2,77.0,4878.5,128.82340000000002,1.3085934,-0.13733734,-0.070204616,-2.8563574000000003,47.766,-0.1332279599999999,-0.083267438,-2.8322696,0.54595676,1.1832143,10.0610935,-84.9,-12.5,-236.7,60.7,44.1,7.0,-1045.0,-65.7,367.3,1018.4794,-2.5657343,3231.6,-0.1332279599999999,0.081154144,-0.083267438,0.00090748808,-2.8322696,-0.083831208,48070.0,19700.0,18580.0,-733.0,-247.5,244.5,0,None
2023-01-03 08:41:01,269.072,0.1044444444444441,100.0,1439.5,24311.5,4890.5,99.0,1407.4444444444443,80.88888888888889,4886.0,123.50717777777776,1.4906157777777782,-0.11255732,-0.087759574,-2.8612432,50.128,-0.106643242,-0.0983460459999999,-2.8376014,0.5266086333333333,1.098410611111111,11.20826111111111,-93.61111111111111,-14.333333333333334,-243.94444444444449,66.05555555555556,20.05555555555556,2.833333333333333,-1073.8333333333333,30.61111111111111,359.3888888888889,1018.240611111111,-2.8044314444444445,3234.777777777778,-0.106643242,0.0038136862,-0.0983460459999999,-0.016111175,-2.8376014,0.02129795664,50395.0,19755.0,20905.0,-772.5,-275.0,228.0,0,None
2023-01-03 08:41:02,270.0185555555556,0.1087777777777761,100.0,1375.5,24312.5,4885.5,99.0,1368.6666666666667,84.66666666666667,4886.0,118.88664444444444,1.6660167777777777,-0.09498099,-0.09725122,-2.8513188,52.338,-0.087854614,-0.1056338999999999,-2.8282564,0.5756545000000002,1.1049169,11.319466444444444,-100.88888888888889,-7.666666666666667,-249.0,73.22222222222223,25.666666666666668,7.888888888888889,-1054.0,13.333333333333334,349.44444444444446,1018.0123333333336,-3.032847111111112,3237.222222222222,-0.087854614,0.0235257666,-0.1056338999999999,0.016998961,-2.8282564,0.0137398483999999,52625.0,19800.0,23135.0,-794.5,-279.5,232.0,0,None
2023-01-03 08:41:03,271.0219,0.104000000000002,100.0,1409.5,24293.5,4866.0,99.0,1374.3,88.4,4882.9,114.18418,1.8658341,-0.081486678,-0.095848882,-2.8455044000000003,54.548,-0.073248024,-0.1023190179999999,-2.8211426,0.62171046,1.06041655,11.469649,-102.85,5.65,-253.4,68.6,22.95,13.2,-1044.05,18.75,343.4,1017.82075,-3.2244648500000004,3240.2,-0.073248024,0.0104008123999999,-0.1023190179999999,-0.013420972,-2.8211426,0.0078739088,54860.0,19846.0,25370.0,-799.0,-275.0,241.5,0,None
2023-01-03 08:41:04,272.044,0.0980999999999994,100.0,1079.5,24373.5,4880.0,99.0,1148.0,92.4,4876.0,110.01486,2.0658123999999995,-0.0067294165999999,-0.095706832,-2.8397566,56.68000000000001,0.000556642,-0.100629212,-2.8134212,0.6403795000000001,1.07746835,11.0355782,-109.6,11.2,-275.0,54.9,87.1,16.8,-1054.9,4.7,329.1,1017.6237,-3.4214061,3243.4,0.000556642,0.084565902,-0.100629212,0.0108451232,-2.8134212,0.0091542387999999,56930.0,19894.5,27440.0,-767.0,-259.5,222.5,0,None
2023-01-03 08:41:05,273.0503,0.1039999999999963,100.0,942.0,24445.0,4882.0,99.0,947.5,95.0,4880.2,106.26109999999998,2.259818,-0.0631413099999999,-0.0450723119999999,-2.8141588,57.924,-0.0546421179999999,-0.049673574,-2.783378,0.8860777444444445,1.3543137777777778,9.347654444444444,-107.1,55.9,-259.4,42.0,-101.9,38.9,-1000.4,29.0,343.1,1017.5644999999998,-3.4806016,3246.6,-0.0546421179999999,-0.105478404,-0.049673574,0.05898438,-2.783378,0.033919532,58010.0,20092.5,28520.0,-718.0,-251.0,130.0,0,None
2023-01-03 08:41:06,274.0822,0.1001000000000032,100.0,858.0,24483.0,4885.5,99.0,892.8,97.6,4878.7,102.62586000000002,2.4378116000000003,-0.0777469599999999,-0.026691684,-2.7571402,58.29,-0.06773873,-0.031985626,-2.7237914,1.0080786599999998,1.5066709999999996,10.2848421,-89.7,13.6,-244.3,53.7,23.2,60.3,-1054.9,60.3,349.1,1017.5352,-3.5098984,3249.1,-0.06773873,0.0221857786,-0.031985626,0.0281549946,-2.7237914,0.0668216299999999,58320.0,20435.5,28830.0,-715.5,-287.5,95.0,0,None
2023-01-03 08:41:07,275.083,0.0999999999999999,100.0,960.5,24441.5,4890.0,99.0,934.0,100.1,4882.1,99.624536,2.582156,-0.07325488,-0.042341252,-2.7295282,58.444,-0.065371718,-0.046848852,-2.6933014,0.95418386,1.4400908,9.915241599999998,-96.4,-19.8,-236.1,60.5,10.7,70.0,-1027.8,-0.4,364.3,1017.4367000000002,-3.6086092,3252.2,-0.065371718,0.0138428358,-0.046848852,-0.0022421843999999,-2.6933014,0.00204885774,58465.0,20568.5,28975.0,-709.0,-320.5,78.0,0,None
2023-01-03 08:41:08,276.083,0.0999999999999999,100.0,880.5,24474.0,4887.0,99.0,930.0,102.9,4882.1,97.23775,2.702784200000001,0.007224536,0.0864858138,-2.662075,58.63,0.0138313639999999,0.0811930216,-2.6230664,0.73129782,1.3442523000000002,12.8499782,-78.3,272.3,-258.9,68.6,201.0,109.8,-973.0,191.0,321.4,1017.3953,-3.6498906,3255.3,0.0138313639999999,0.208764094,0.0811930216,0.29102916,-2.6230664,0.200527284,58655.0,21134.5,29165.0,-654.5,-369.0,63.0,0,None
2023-01-03 08:41:09,277.097,0.1019999999999981,100.0,981.0,24426.5,4892.5,99.0,976.9,105.3,4882.9,95.31364,2.8102514,0.0197350602,0.27296836,-2.3416004,58.720000000000006,0.0236732231199999,0.26839228,-2.3007072,0.60863611,1.4541552,14.245521,-34.8,-0.5,-227.4,19.6,15.3,242.1,-1063.3,356.4,251.8,1017.3816,-3.6635937000000007,3258.1,0.0236732231199999,0.008594155,0.26839228,-0.021705366,-2.3007072,0.3680839999999999,58725.0,23070.0,29235.0,-415.0,-526.0,48.0,0,None
2023-01-03 08:41:10,278.0621111111111,0.1022222222222239,100.0,1157.0,24361.0,4892.0,99.0,1166.111111111111,108.33333333333331,4884.444444444444,93.68284666666666,2.901776777777778,-0.08724267,0.1430229525,-2.03610725,58.81,-0.0850444725,0.1446019674999999,-1.99139175,0.6224447222222224,1.2256573555555557,10.440072333333337,-29.0,-142.33333333333334,-119.11111111111111,3.888888888888889,-27.444444444444443,262.1111111111111,-1055.0,315.1111111111111,273.6666666666667,1017.2498888888888,-3.7952168888888886,3260.6666666666665,-0.0850444725,-0.0313161249999999,0.1446019674999999,-0.1507742749999999,-1.99139175,0.324106225,58865.0,24956.0,29375.0,-237.5,-670.0,43.5,0,None
2023-01-03 08:41:11,279.0612,0.1043000000000005,100.0,1152.0,24368.0,4882.5,99.0,1143.0,111.5,4884.5,92.358648,2.9840302000000003,-0.0809117283333333,0.07758004,-1.8395233333333327,59.035,-0.0807944233333333,0.0802163433333333,-1.7902063333333331,0.46178808,0.98401113,8.296066499999998,-35.25,61.95,-57.1,2.55,67.2,267.9,-1065.3,135.65,303.5,1017.25365,-3.7915117,3263.65,-0.0807944233333333,0.0686703683333333,0.0802163433333333,0.0368493316666666,-1.7902063333333331,0.1435371966666666,59075.0,25936.0,29585.0,-172.0,-755.0,33.5,0,None
2023-01-03 08:41:12,280.0676,0.0998999999999966,100.0,1166.0,24341.5,4890.5,99.0,1156.0,114.8,4886.5,91.44126,3.056465,-0.029333766,0.104342562,-1.6914778,59.158,-0.0289780582,0.1031503479999999,-1.6386173999999998,0.45771536,0.98211163,6.782073200000001,-37.4,-38.2,-24.0,-5.7,143.6,281.3,-1064.1,67.2,283.5,1017.2381,-3.8070233,3266.6,-0.0289780582,0.1543282066,0.1031503479999999,-0.02766312944,-1.6386173999999998,0.043794,59170.0,26665.5,29680.0,-71.5,-783.0,27.0,0,None
2023-01-03 08:41:13,281.0695999999999,0.1001000000000032,100.0,1179.5,24327.0,4892.5,99.0,1158.6,117.9,4883.1,90.72012,3.117971,0.12683746,0.0108875652,-1.6878832,59.18000000000001,0.1260607,0.0124596219799999,-1.631597,0.480656,1.1090727,4.057316699999999,-28.6,-64.5,-74.4,-18.0,45.7,259.8,-1064.9,-15.7,307.3,1017.2575,-3.7875702,3269.5,0.1260607,0.019161906,0.0124596219799999,-0.0568962015999999,-1.631597,-0.00708677046,59180.0,26649.0,29690.0,-28.5,-668.5,25.0,0,None
2023-01-03 08:41:14,282.0812,0.1038999999999986,100.0,1183.5,24347.0,4883.5,99.0,1182.5,121.2,4876.8,90.028508,3.1714146000000003,0.11390244,0.00596102844,-1.6879672,59.176,0.12037856,0.0084639101999999,-1.6293681999999996,0.41702885,0.94980944,4.0035244,-20.8,13.2,-73.9,-19.2,24.8,259.7,-1068.6,-9.8,320.8,1017.2563,-3.788828,3272.1,0.12037856,0.0273996159999999,0.0084639101999999,0.0082885384,-1.6293681999999996,-0.0045142164,59175.0,26665.0,29685.0,-33.0,-530.0,25.5,0,None
2023-01-03 08:41:15,283.0377777777778,0.0999999999999974,100.0,1202.5,24311.5,4889.5,99.0,1199.3333333333333,124.33333333333331,4881.333333333333,89.36693111111111,3.219736222222222,0.150242275,0.00665639825,-1.698048,59.175,0.1590655,0.009357717,-1.63674675,0.366348075,1.099378625,2.509872125,-0.125,-1.125,-89.375,-18.375,41.25,247.375,-1071.625,-12.25,297.625,1017.246125,-3.79915025,3275.0,0.1590655,0.04654124,0.009357717,0.0078192852499999,-1.63674675,-0.0224469896249999,59170.0,26631.0,29680.0,-31.0,-425.0,27.0,0,None
2023-01-03 08:41:16,284.0574545454546,0.1000909090909089,100.0,1199.0,24324.0,4883.5,99.0,1194.7272727272727,127.63636363636364,4879.181818181818,88.67032818181816,3.2694555454545453,0.1745469166666666,0.0049172985,-1.712093833333333,59.19666666666666,0.1859440833333333,0.008321142,-1.647436,0.2852272090909091,1.1570454272727273,3.605604363636364,6.636363636363637,3.4545454545454546,-99.0909090909091,-17.636363636363637,27.363636363636363,255.8181818181818,-1075.4545454545455,-14.181818181818182,303.90909090909093,1017.2313636363637,-3.813835181818182,3277.818181818182,0.1859440833333333,0.0339470383333333,0.008321142,0.0003878591666666,-1.647436,-0.0008831129999999,59190.0,26567.666666666668,29700.0,-23.33333333333333,-268.0,24.33333333333333,0,None
2023-01-03 08:41:17,285.0577777777778,0.1021111111111154,100.0,1187.5,24296.0,4889.0,99.0,1193.111111111111,131.0,4882.888888888889,88.00830444444445,3.320672333333333,0.1970683,0.00624570375,-1.702812,59.23,0.209608525,0.01166448,-1.635942,0.4098732,1.0153825,5.070358333333333,33.333333333333336,3.6666666666666665,-101.11111111111111,-18.55555555555556,31.33333333333333,248.55555555555557,-1055.0,5.888888888888889,298.1111111111111,1017.1972222222222,-3.8479686666666657,3280.4444444444443,0.209608525,0.0278502799999999,0.01166448,0.01182037725,-1.635942,0.01139546,59230.0,26622.0,29740.0,-11.0,-115.0,23.0,0,None
2023-01-03 08:41:18,286.0255,0.0999999999999999,100.0,1114.0,24327.0,4889.0,99.0,1163.4,134.2,4886.2,87.337074,3.380874,0.1831425599999999,-0.0016582386799999,-1.7004872,59.278,0.19710606,0.005920962,-1.6307356,0.50478882,1.09668762,6.730647599999999,52.9,-6.4,-102.9,-22.9,-54.0,253.3,-1050.1,-0.9,294.6,1017.2085,-3.836617200000001,3283.3,0.19710606,-0.057777478,0.005920962,-0.00368784058,-1.6307356,-0.00345502688,59275.0,26654.5,29785.0,-3.0,-4.0,19.5,0,None
2023-01-03 08:41:19,287.0313,0.0999999999999999,100.0,1092.5,24315.0,4878.5,99.0,1085.0,137.4,4888.5,86.753342,3.4503994,0.098574264,0.00396874052,-1.7034565999999998,59.3,0.11452586,0.011990483,-1.6320204,0.4968135222222222,1.139401033333333,5.457170777777777,63.1,5.9,-77.2,-9.9,-32.0,253.8,-1061.2,0.3,303.5,1017.1972999999998,-3.8478592,3285.9,0.11452586,-0.03538822258,0.011990483,0.0135392045999999,-1.6320204,0.0008820206,59300.0,26650.0,29810.0,-3.0,71.5,19.0,0,None
2023-01-03 08:41:20,288.0535,0.1060000000000001,100.0,1052.0,24349.5,4888.5,99.0,1091.9,140.5,4887.4,86.234046,3.5302008000000007,0.086375516,0.0026559172,-1.7039852,59.292,0.099802224,0.0093839974,-1.6312601999999998,0.54498336,1.13358994,6.0292335,56.95,-6.7,-64.0,-28.75,-7.05,253.55,-1048.8,-4.35,302.5,1017.1901,-3.8551367,3288.7,0.099802224,-0.00740519024,0.0093839974,-0.0043111639999999,-1.6312601999999998,0.0003318984,59295.0,26653.5,29805.0,0.0,79.0,15.5,0,None
2023-01-03 08:41:21,289.0994,0.1020999999999957,100.0,996.0,24357.0,4894.0,99.0,1003.6,143.5,4884.7,85.761888,3.611284799999999,0.06960825,0.00245136984,-1.7082718,59.292,0.081296914,0.008848515,-1.6362831999999998,0.6059959100000001,1.07560221,6.0154458,65.6,10.6,-61.8,-13.0,16.3,253.0,-1044.9,-14.2,313.6,1017.2147,-3.8302421,3291.5,0.081296914,0.0156368,0.008848515,0.0155646888,-1.6362831999999998,-0.015285677,59295.0,26634.5,29805.0,-1.0,72.5,18.0,0,None
2023-01-03 08:41:22,290.106,0.0999999999999999,100.0,1016.0,24329.5,4881.0,99.0,998.0,146.3,4885.0,85.34837000000002,3.685194000000001,0.070359676,0.003232761294,-1.7103508,59.246,0.0805933,0.009124073,-1.6387266,0.51970046,1.03727681,4.696479399999999,66.3,-7.2,-64.0,-9.7,4.0,255.6,-1080.3,-4.5,314.5,1017.2248,-3.820195200000001,3294.4,0.0805933,-0.0103990866,0.009124073,-0.0035286589999999,-1.6387266,-0.011822579,59260.0,26613.0,29770.0,1.5,57.0,17.5,0,None
2023-01-03 08:41:23,291.106,0.0999999999999999,100.0,977.0,24345.0,4887.0,99.0,993.1,149.0,4881.4,84.977776,3.749649,0.0682650339999999,0.004260606128,-1.7096662000000002,59.21,0.07822924,0.0101263886,-1.638605,0.57985261,1.00772515,4.059188600000001,68.6,4.1,-64.3,-2.6,4.2,255.2,-1064.4,7.1,309.4,1017.2217,-3.8232656,3296.8,0.07822924,0.0048487219999999,0.0101263886,0.00175862968,-1.638605,-0.023170742,59215.0,26614.5,29725.0,0.5,45.5,21.0,0,None
2023-01-03 08:41:24,292.106,0.0999999999999999,100.0,1002.0,24354.0,4895.5,99.0,1036.5,151.9,4883.1,84.645722,3.8057692,0.066513132,0.0011912414,-1.705827,59.20400000000001,0.07681396,0.0061626684,-1.6358415999999998,0.60348846,1.1066519,6.1123419000000005,54.7,-9.4,-63.4,-22.8,15.5,258.7,-1050.2,16.9,320.4,1017.2051,-3.839914,3299.5,0.07681396,0.0109702279999999,0.0061626684,-0.0172620922,-1.6358415999999998,-0.00543223638,59200.0,26622.5,29710.0,3.0,35.0,22.0,0,None
2023-01-03 08:41:25,293.106,0.0999999999999999,100.0,1070.0,24315.0,4884.0,99.0,1055.5,154.7,4881.0,84.34763999999998,3.8537568,0.062283112,0.0015832794,-1.7040464,59.228,0.072713212,0.0061905491999999,-1.6344407999999997,0.5863277200000001,1.03908244,5.7315247,54.3,-1.5,-64.5,-10.9,-9.1,254.8,-1076.7,-6.8,309.8,1017.1902,-3.8548905000000007,3301.9,0.072713212,0.0047747031999999,0.0061905491999999,0.0002984775999999,-1.6344407999999997,-0.0062813858,59225.0,26635.5,29735.0,0.5,26.5,20.5,0,None
2023-01-03 08:41:26,294.106,0.0999999999999999,100.0,1088.5,24314.0,4888.0,99.0,1059.8,157.7,4883.7,84.08575999999998,3.8952614,0.062546578,-0.0002966146796,-1.7037175999999998,59.234,0.074216756,0.0044706864,-1.6346772,0.58372676,1.17045674,5.666271500000001,53.6,6.3,-61.1,-35.0,25.1,254.3,-1030.8,0.1,315.7,1017.1888,-3.8561482000000007,3304.9,0.074216756,0.027723458,0.0044706864,-0.0002740662,-1.6346772,0.0045092586,59235.0,26635.5,29745.0,-1.0,16.5,19.0,0,None
2023-01-03 08:41:27,295.106,0.0999999999999999,100.0,1151.5,24287.0,4878.0,98.9,1115.8,160.7,4882.8,83.844004,3.9322678,0.0724324459999999,0.0099960222,-1.7021372,59.236,0.084922492,0.0144728621999999,-1.6339382,0.6108067,1.1064991599999998,6.6045647,58.0,3.2,-66.0,-20.7,14.8,261.5,-1056.7,2.1,306.1,1017.171,-3.8742264,3307.3,0.084922492,0.0236254022,0.0144728621999999,0.001744078,-1.6339382,0.0060519518,59235.0,26634.0,29745.0,-2.5,12.5,18.5,0,None
2023-01-03 08:41:28,296.106,0.0999999999999999,100.0,1040.5,24321.0,4887.5,98.0,1102.8,163.8,4885.8,83.60510400000001,3.9670897999999992,0.067982374,0.0043139936,-1.6978061999999998,59.25999999999999,0.081031366,0.0096210022,-1.6302308,0.5463281,1.15318519,6.206489400000001,61.0,-3.4,-66.9,-23.3,-0.8,258.7,-1063.9,2.4,312.0,1017.1772,-3.8678749,3309.8,0.081031366,0.004935734,0.0096210022,-0.0037414859999999,-1.6302308,-0.0021027837,59255.0,26658.5,29765.0,1.5,15.0,17.5,0,None
2023-01-03 08:41:29,297.106,0.0999999999999999,100.0,1048.0,24342.0,4894.5,98.0,1047.4,166.8,4885.8,83.36807400000001,4.0007504,0.065990286,0.0111208931999999,-1.7041688000000002,59.278,0.079778488,0.016212172,-1.6370028,0.5543561899999999,1.0750763600000002,5.305781900000001,52.6,13.9,-68.9,-32.9,20.0,252.4,-1064.4,-18.1,306.1,1017.1995,-3.8456873,3312.3,0.079778488,0.0037136462,0.016212172,0.00897114672,-1.6370028,-0.0017536311999999,59280.0,26632.0,29790.0,0.5,13.5,16.5,0,None
2023-01-03 08:41:30,298.106,0.0999999999999999,100.0,1094.0,24282.5,4895.0,98.0,1078.0,169.8,4888.7,83.128406,4.032515,0.07447483,0.0128841946,-1.7056676,59.254,0.08909321,0.017608204,-1.6385606000000004,0.6072428400000001,1.0647657499999998,6.716192599999999,54.8,4.8,-68.5,-17.2,15.2,248.7,-1068.0,-3.1,306.1,1017.1826,-3.8625468,3314.8,0.08909321,0.0049523738,0.017608204,0.00546899,-1.6385606000000004,-0.0047123468,59250.0,26609.0,29760.0,4.5,15.5,17.0,0,None
2023-01-03 08:41:31,299.106,0.0999999999999999,100.0,1052.5,24321.5,4891.5,98.0,1060.9,172.7,4890.4,82.88060399999999,4.062764400000001,0.06666229,0.0123802648,-1.7046465999999998,59.27,0.081045008,0.0166245106,-1.637061,0.5561263000000001,1.0570671900000002,5.0188329,55.8,-20.5,-68.6,-16.9,-6.3,251.6,-1077.7,4.7,300.3,1017.2129,-3.8321639,3317.3,0.081045008,-0.024998022,0.0166245106,-0.023120056,-1.637061,-0.0076954638,59270.0,26620.5,29780.0,12.0,22.5,19.5,0,None
2023-01-03 08:41:32,300.0995,0.1176250000000038,100.0,1019.0,24306.5,4889.5,98.0,1034.75,175.5,4891.25,82.61325250000002,4.093159750000001,0.066959462,-0.0009642474799999,-1.7070748000000002,59.23599999999999,0.0824044979999999,0.003565801,-1.6398292,0.65045219375,1.2380021874999998,6.7383805,47.6875,1.0625,-67.4375,-40.25,21.1875,256.0625,-1065.0,-16.6875,303.8125,1017.207875,-3.8373141875,3319.8125,0.0824044979999999,0.0141247126,0.003565801,0.0055190759999999,-1.6398292,0.0070847962,59245.0,26602.5,29755.0,13.0,22.0,19.5,0,None
2023-01-03 08:41:33,301.0567,0.1039999999999962,100.0,1054.5,24293.0,4898.0,98.0,1025.6,178.5,4890.4,82.39470200000001,4.1189816,0.073475718,0.00386433654,-1.7035852000000002,59.234,0.08930518,0.0086920462,-1.6362234,0.6177862399999999,1.0670181399999998,5.3527658,54.6,0.2,-69.5,2.5,3.3,249.4,-1101.9,2.8,300.0,1017.2201,-3.8249921000000007,3322.3,0.08930518,0.035760316,0.0086920462,-0.009670462,-1.6362234,0.031794572,59230.0,26613.5,29740.0,11.5,26.0,22.0,0,None
2023-01-03 08:41:34,302.068,0.1088888888888908,100.0,1081.0,24295.0,4898.0,98.0,1105.7777777777778,181.44444444444449,4889.0,82.20009777777778,4.144771111111112,0.0683378625,-0.004714794075,-1.7010165,59.24,0.08378831,-0.00087033575,-1.63406475,0.5261823555555556,1.0421836222222225,4.531230333333334,46.0,-11.833333333333334,-61.55555555555556,-22.55555555555556,-17.72222222222222,241.33333333333331,-1059.4444444444443,-4.722222222222222,317.5,1017.188,-3.857100611111112,3324.3888888888887,0.08378831,-0.0256101974999999,-0.00087033575,-0.00914218025,-1.63406475,0.0028771860749999,59235.0,26637.5,29745.0,15.5,34.5,18.0,0,None
2023-01-03 08:41:35,303.05033333333336,0.1066666666666643,100.0,1040.5,24311.5,4886.5,98.0,1070.2222222222222,184.33333333333331,4889.333333333333,82.03367333333333,4.1709757777777785,0.0573031459999999,-0.010911385,-1.6969392,59.254,0.0726081859999999,-0.0072255396,-1.6305678,0.636616588888889,1.0167533777777775,5.576477555555555,57.0,5.555555555555555,-63.333333333333336,-14.88888888888889,5.888888888888889,251.66666666666663,-1072.0,4.222222222222222,310.3333333333333,1017.2081111111112,-3.837022444444445,3327.0,0.0726081859999999,0.02392077878,-0.0072255396,-0.0031503218,-1.6305678,0.0123203545999999,59255.0,26658.5,29765.0,8.0,31.5,17.5,0,None
2023-01-03 08:41:36,304.0468,0.1020000000000038,100.0,1051.0,24285.5,4895.5,98.0,1046.3,187.3,4894.7,81.91084799999999,4.1942144,0.058849516,-0.0005302833,-1.6975968,59.246,0.0745615219999999,0.00245477582,-1.6314798,0.59780696,1.03958381,5.9245106,44.7,-0.5,-63.75,-14.7,13.7,260.65,-1052.2,-13.2,310.25,1017.18665,-3.858464600000001,3329.5,0.0745615219999999,0.02341265,0.00245477582,0.009771586,-1.6314798,0.0059258709999999,59245.0,26655.0,29755.0,6.0,25.0,19.0,0,None
2023-01-03 08:41:37,305.0534,0.1020999999999957,100.0,984.5,24297.0,4894.0,98.0,1012.8,190.3,4895.8,81.81841800000001,4.2135812,0.060757876,-0.010654204,-1.6941458,59.254,0.076202242,-0.00745236762,-1.6284958,0.6666311100000001,1.07280599,6.2113402,55.1,1.0,-65.3,-10.9,1.7,251.1,-1072.0,6.6,315.7,1017.2017000000002,-3.8434296,3332.0,0.076202242,0.033682008,-0.00745236762,-0.0014564504,-1.6284958,0.003335451608,59255.0,26668.5,29765.0,4.0,23.0,19.5,0,None
2023-01-03 08:41:38,306.0555555555556,0.1066666666666706,100.0,1002.5,24312.0,4890.5,98.0,994.4444444444443,192.88888888888889,4891.222222222223,81.75399444444446,4.2305457777777775,0.064399762,-0.0045796796,-1.6940835999999997,59.26800000000001,0.079798616,-0.0018216799999999,-1.6292320000000005,0.7051230666666667,1.1301735888888889,6.147733888888889,40.0,4.333333333333333,-64.55555555555556,-23.55555555555556,28.444444444444443,248.0,-1044.7777777777778,-18.666666666666668,320.22222222222223,1017.1883333333332,-3.8567013333333335,3334.4444444444443,0.079798616,0.0326822295999999,-0.0018216799999999,3.161359999999955e-05,-1.6292320000000005,0.0059740928,59270.0,26663.5,29780.0,2.0,24.5,16.5,0,None
2023-01-03 08:41:39,307.028,0.0999999999999999,100.0,1076.5,24273.0,4885.0,98.0,1010.9,195.6,4888.0,81.710002,4.2472218,0.072362702,-0.00441667284,-1.6961868000000002,59.286,0.087646852,-0.001956600872,-1.6319811999999998,0.68957975,1.16094185,6.5885312,54.7,5.3,-64.9,-19.5,17.1,250.5,-1048.4,-13.0,309.3,1017.1705,-3.8746484,3336.5,0.087646852,0.0028293681999999,-0.001956600872,0.01662441,-1.6319811999999998,-0.0025013376,59290.0,26647.0,29800.0,-4.0,27.5,14.0,0,None
2023-01-03 08:41:40,308.028,0.0999999999999999,100.0,1021.0,24290.0,4887.0,98.0,1027.4,198.4,4888.7,81.67330000000001,4.26505,0.0642426439999999,0.024322796,-1.7070636,59.294,0.08004683,0.0265461259999999,-1.6438327999999998,0.6361201399999998,0.9890741400000002,5.7493387,54.9,28.1,-64.1,-20.0,-16.4,258.5,-1098.2,-20.1,313.1,1017.1855000000002,-3.8595937,3339.0,0.08004683,-0.0253151774,0.0265461259999999,0.020116039,-1.6438327999999998,-0.0051157409999999,59290.0,26583.0,29800.0,-4.5,33.0,14.5,0,None
2023-01-03 08:41:41,309.028,0.0999999999999999,100.0,885.5,24333.5,4889.0,98.0,981.2,201.2,4892.5,81.61068000000003,4.2833272,0.06162224,0.0213919347999999,-1.7099552,59.292,0.07718535,0.0233251934,-1.645815,0.72326437,0.99535261,6.757989,62.7,-20.3,-71.8,5.8,24.0,256.4,-1083.9,11.1,297.0,1017.194,-3.8511014,3341.4,0.07718535,-0.041317016,0.0233251934,-0.0435253086,-1.645815,0.0257390984,59295.0,26568.0,29805.0,18.0,26.0,16.0,0,None
2023-01-03 08:41:42,310.028,0.0999999999999999,100.0,922.5,24341.0,4889.0,98.0,968.9,203.9,4892.4,81.494654,4.300372599999999,0.072438328,-0.0027716888,-1.7069185999999998,59.26800000000001,0.087115812,0.0008454475999999,-1.6431994,0.6664793299999999,1.3143262999999998,8.5060917,58.2,-7.9,-68.4,-0.8,-10.5,247.4,-1157.8,-7.3,304.5,1017.1921,-3.8529687,3343.9,0.087115812,0.010379948,0.0008454475999999,0.0068610915999999,-1.6431994,0.0066692083999999,59270.0,26582.0,29780.0,18.0,27.0,18.5,0,None
2023-01-03 08:41:43,311.028,0.0999999999999999,100.0,985.5,24309.5,4889.0,98.0,955.5,206.6,4890.3,81.37887,4.3169304,0.063070882,0.0068588791999999,-1.7107418,59.29,0.078992518,0.0105467176,-1.6472719999999998,0.5669182800000001,1.1265739900000002,7.136121500000002,56.6,4.1,-68.5,-8.0,-16.6,251.4,-1112.8,-8.7,299.5,1017.1674,-3.8778437,3346.3,0.078992518,-0.0206411002399999,0.0105467176,-0.0083861279999999,-1.6472719999999998,0.0062472545999999,59290.0,26563.5,29800.0,9.0,32.0,15.5,0,None
2023-01-03 08:41:44,312.028,0.0999999999999999,100.0,941.0,24326.5,4886.5,98.0,988.7,209.3,4889.8,81.271762,4.3329276,0.060189276,0.015664498,-1.7142674,59.324,0.076469374,0.019378356,-1.6507716,0.55710999,1.09547488,5.8727665,53.1,9.1,-67.8,-14.9,10.8,255.0,-1055.1,-9.1,316.6,1017.1462,-3.8989529,3348.5,0.076469374,0.0048728326,0.019378356,-0.0004006429999999,-1.6507716,0.018021989,59320.0,26539.0,29830.0,6.5,30.0,14.0,0,None
2023-01-03 08:41:45,313.028,0.0999999999999999,100.0,1038.0,24285.0,4890.5,98.0,984.3,212.0,4892.2,81.153191,4.347058700000001,0.067278916,0.019621342,-1.7114232,59.364,0.083964118,0.023008794,-1.647523,0.5684133600000001,1.12995038,6.244945899999999,57.4,0.3,-72.8,-21.3,22.5,258.1,-1026.4,2.8,305.3,1017.1185,-3.9266092,3350.7,0.083964118,-0.0068453913999999,0.023008794,-0.0082512556,-1.647523,0.0065586125999999,59365.0,26561.5,29875.0,8.5,27.0,9.5,0,None
2023-01-03 08:41:46,314.028,0.0999999999999999,100.0,1033.0,24283.0,4890.0,98.0,1041.0,214.9,4887.4,81.000766,4.3612852,0.067426988,0.01948657,-1.7128958,59.392,0.083506496,0.02329952,-1.6488004,0.5289544,1.05935443,5.8626606,50.9,-8.3,-74.3,-27.9,0.3,255.6,-1057.5,20.7,305.7,1017.1354,-3.909679600000001,3353.3,0.083506496,0.011521809,0.02329952,0.0037841341999999,-1.6488004,-0.001648084,59390.0,26554.0,29900.0,14.5,29.0,5.0,0,None
2023-01-03 08:41:47,315.028,0.0999999999999999,100.0,1062.0,24280.0,4890.0,98.0,1086.0,217.8,4888.5,80.81915800000002,4.3762074,0.062901556,0.0082030424,-1.7028500000000002,59.37199999999999,0.079366094,0.0124573136,-1.6384906,0.53329428,1.08278665,5.031224099999999,56.0,-7.6,-65.4,-33.6,1.4,253.0,-1062.5,8.4,298.5,1017.1422,-3.9028124000000006,3355.7,0.079366094,0.0160527376,0.0124573136,-0.0034970587999999,-1.6384906,0.0094791585999999,59370.0,26611.5,29880.0,15.5,28.0,8.0,0,None
2023-01-03 08:41:48,316.028,0.0999999999999999,100.0,1094.0,24266.5,4886.5,98.0,1090.1,220.8,4885.5,80.63503,4.390807000000001,0.066845788,0.0107427218,-1.6962928000000002,59.35,0.083532684,0.0156249239999999,-1.6313834,0.56896688,1.09595746,5.758679,55.6,4.1,-69.9,-22.8,18.2,253.3,-1056.4,2.1,304.7,1017.1577,-3.8875233000000007,3357.8,0.083532684,0.0102455777999999,0.0156249239999999,0.000552996,-1.6313834,0.0051052055999999,59350.0,26652.5,29860.0,13.5,23.5,9.0,0,None
2023-01-03 08:41:49,317.028,0.0999999999999999,100.0,1161.0,24229.5,4886.5,98.0,1180.2,224.1,4887.4,80.46164,4.404936599999999,0.071771596,0.004099446,-1.6970454,59.314,0.088204338,0.0091302642,-1.6318031999999998,0.52683866,1.2294653,6.589156699999999,61.7,-5.8,-69.0,-18.7,17.8,246.0,-1063.6,-2.7,301.0,1017.1603,-3.884789,3360.1,0.088204338,-0.02245775,0.0091302642,-0.0006883143999999,-1.6318031999999998,-0.0035241675999999,59315.0,26652.5,29825.0,13.5,24.5,11.0,0,None
2023-01-03 08:41:50,318.028,0.0999999999999999,100.0,1041.0,24262.0,4888.0,98.0,1105.9,227.2,4889.8,80.306064,4.4194654,0.064820626,-0.00513413058,-1.6980898,59.30800000000001,0.08135908,-0.0003149988,-1.632837,0.53682063,1.18786833,6.4716904,56.6,-14.4,-65.6,-20.3,-2.1,253.1,-1058.4,-0.3,304.2,1017.1959,-3.8490937,3362.2,0.08135908,-0.0158856199999999,-0.0003149988,-0.0068165244,-1.632837,-0.0045430019999999,59310.0,26644.0,29820.0,14.5,23.0,16.0,0,None
2023-01-03 08:41:51,319.03000000000003,0.1019999999999981,100.0,1104.0,24256.5,4890.5,98.0,974.5,230.0,4895.5,80.18186399999999,4.433966600000001,0.070440806,-0.0077827166,-1.6966248,59.294,0.086933528,-0.002596484912,-1.6315255999999998,0.7630376200000001,1.1505048,6.861207500000001,47.9,13.1,-67.5,-21.5,24.3,245.6,-1024.0,-26.0,316.1,1017.1962,-3.8488828,3364.7,0.086933528,0.026587338,-0.002596484912,0.004872858,-1.6315255999999998,-0.0095904692,59290.0,26655.5,29800.0,8.0,22.5,16.0,0,None
2023-01-03 08:41:52,320.06690000000003,0.1061000000000035,100.0,990.5,24291.5,4892.5,98.0,1032.8,233.1,4894.9,80.09875000000001,4.4476006,0.0722155479999999,-0.0091908414,-1.6967902,59.284000000000006,0.088592464,-0.0045098345199999,-1.6319608,0.6714484600000001,1.14185059,6.386275899999999,58.7,0.6,-68.35,-4.25,-5.4,248.9,-1053.25,-2.25,312.25,1017.1798,-3.86537095,3366.8,0.088592464,-0.008393562,-0.0045098345199999,-0.0047369892,-1.6319608,-0.0062694399,59280.0,26651.5,29790.0,4.0,31.0,16.5,0,None
2023-01-03 08:41:53,321.0615,0.1124999999999971,100.0,926.0,24285.0,4898.0,98.0,995.25,236.0,4900.5,80.045905,4.461908125,0.0679227925,-0.00211441025,-1.6924785,59.3025,0.0844116025,0.00210829375,-1.62778225,0.8001625874999999,1.185158875,7.704302,65.1875,-13.1875,-65.9375,-3.0625,14.75,252.0625,-1087.625,8.8125,316.1875,1017.1744375,-3.870678625,3369.125,0.0844116025,0.020508235,0.00210829375,-0.0135359199999999,-1.62778225,0.01161251,59305.0,26669.0,29815.0,4.0,35.0,16.0,0,None
2023-01-03 08:41:54,322.0528,0.1098999999999989,100.0,1014.3333333333334,24277.33333333333,4890.666666666667,98.0,996.1,238.6,4892.5,80.0089,4.476019999999999,0.064693696,0.0008078268,-1.698854,59.312,0.08115834,0.00524981754,-1.63444,0.7253995499999999,1.1417648699999998,7.2951478,50.9,13.95,-66.1,0.0,11.15,247.6,-1038.8,11.1,317.95,1017.17785,-3.8673905,3371.45,0.08115834,0.0015046356,0.00524981754,0.032769482,-1.63444,-0.0129879287999999,59310.0,26641.5,29820.0,0.5,34.5,11.5,0,None
2023-01-03 08:41:55,323.06999999999994,0.1088888888888908,100.0,1026.5,24277.0,4890.0,98.0,993.0,241.44444444444449,4891.777777777777,79.98193666666667,4.489031111111111,0.066359278,0.0014564576,-1.696559,59.316,0.082190162,0.0050171231999999,-1.6321218000000002,0.7582751222222223,1.287089222222222,8.160586333333333,60.72222222222222,-22.27777777777778,-66.16666666666667,8.944444444444445,-17.666666666666668,251.33333333333331,-1125.6666666666667,9.055555555555555,314.3888888888889,1017.1844444444446,-3.860620666666667,3373.6666666666665,0.08165313,0.006307852,0.0050612046,-0.0058322981,-1.6321902,0.00696426366,59310.0,26648.0,29820.0,9.5,33.5,13.5,0,None
2023-01-03 08:41:56,324.0722222222223,0.1089999999999993,100.0,1095.0,24238.0,4901.0,98.0,1066.6666666666667,244.22222222222223,4892.777777777777,79.95394222222222,4.501794222222222,0.0680174775,-0.0147663674999999,-1.69416825,59.295,0.0839614499999999,-0.01060816275,-1.62983275,0.6806141111111113,1.247598211111111,7.223371666666667,57.11111111111112,-4.555555555555555,-64.94444444444444,-2.111111111111111,21.5,245.16666666666663,-1098.1666666666667,1.5,316.77777777777777,1017.163,-3.8819445,3375.777777777778,0.0839614499999999,0.02726933,-0.01060816275,-6.473200000000007e-05,-1.62983275,0.0006504435,59285.0,26656.5,29795.0,4.5,34.5,12.5,0,None
2023-01-03 08:41:57,325.0788888888889,0.111111111111111,100.0,1118.0,24254.5,4891.5,98.0,1119.6666666666667,247.33333333333331,4894.0,79.93507444444444,4.514044999999999,0.061130182,0.0165232862,-1.7037698,59.338,0.077984468,0.02086286804,-1.6394243999999998,0.5603671,1.0991418222222222,5.611573222222223,58.888888888888886,43.888888888888886,-69.38888888888889,-14.5,-18.5,249.83333333333331,-1039.2777777777778,-9.055555555555555,310.8333333333333,1017.0865555555554,-3.958480888888888,3378.1111111111118,0.077984468,0.0209603319999999,0.02086286804,0.0374207899999999,-1.6394243999999998,-0.020268232,59340.0,26612.0,29850.0,-11.0,34.0,12.0,0,None
2023-01-03 08:41:58,326.0612222222222,0.1066666666666643,100.0,1148.5,24220.0,4887.5,98.0,1038.5555555555557,250.22222222222223,4894.888888888889,79.90912555555555,4.525363777777778,0.052115815,0.0036528249999999,-1.70264325,59.4275,0.0684591349999999,0.006305552,-1.63782575,0.631381611111111,1.084700277777778,6.977587333333334,48.44444444444444,-73.77777777777777,-62.888888888888886,2.7777777777777777,7.555555555555555,252.0,-1089.4444444444443,18.55555555555556,311.77777777777777,1017.1167777777778,-3.928237888888889,3380.0,0.0684591349999999,0.0323186025,0.006305552,-0.0694075175,-1.63782575,0.0159562499999999,59420.0,26598.5,29930.0,24.5,24.0,7.0,0,None
2023-01-03 08:41:59,327.0433333333333,0.1111111111111111,100.0,1008.0,24281.0,4889.0,98.0,1071.2222222222222,253.33333333333331,4887.888888888889,79.88376666666665,4.534774444444445,0.051494936,-0.034844472,-1.6994098000000002,59.42,0.067918588,-0.0296084939999999,-1.6332902,0.5322065333333332,1.250902966666667,7.735682222222222,31.83333333333333,17.0,-62.22222222222222,-20.83333333333333,-18.88888888888889,238.94444444444449,-1083.7222222222222,-10.22222222222222,325.3888888888889,1017.1335,-3.9116837777777778,3382.222222222222,0.067918588,-0.0105496397,-0.0296084939999999,0.0018153179999999,-1.6332902,-0.0063606152,59425.0,26643.5,29935.0,17.5,24.0,1.0,0,None
2023-01-03 08:42:00,328.0789,0.1060000000000001,100.0,1100.5,24248.5,4893.0,98.0,1068.4,256.4,4888.5,79.89162400000001,4.5412344,0.04759621,-0.0094062706,-1.6917922,59.4,0.064992656,-0.0045976018,-1.6252376000000002,0.6063004,1.17101793,5.812921899999999,41.9,0.45,-64.9,-15.55,20.65,240.25,-1051.85,3.45,317.45,1017.14595,-3.8991289,3384.45,0.064992656,0.020808908,-0.0045976018,0.0003431879999999,-1.6252376000000002,-0.0044284321,59400.0,26685.0,29910.0,0.0,24.0,4.0,0,None
2023-01-03 08:42:01,329.07444444444445,0.1088888888888908,100.0,1127.5,24220.5,4897.0,98.0,1120.6666666666667,259.3333333333333,4897.0,79.92249333333332,4.545475555555556,0.06393993,0.0005530841999999,-1.6981216,59.372,0.080957398,0.0045657252,-1.6310134,0.6047700555555555,1.1300906666666668,6.509502777777778,52.5,20.77777777777778,-66.22222222222223,-5.722222222222222,25.77777777777778,248.22222222222223,-1064.2777777777778,-8.166666666666666,305.8888888888889,1017.1308888888888,-3.914270611111111,3386.333333333333,0.080957398,0.00853688,0.0045657252,0.014703308,-1.6310134,-0.0236245474,59370.0,26660.5,29880.0,-1.5,22.0,6.5,0,None
2023-01-03 08:42:02,330.0633333333333,0.111111111111111,100.0,1034.5,24252.5,4896.0,98.0,1055.2222222222222,262.3333333333333,4893.555555555556,79.95034333333335,4.548779888888889,0.0556335449999999,-0.007406691525,-1.7031165,59.4025,0.0723330425,-0.00395238075,-1.6352337499999998,0.5010356111111112,1.0415024000000002,5.581161999999999,47.333333333333336,-20.55555555555556,-66.88888888888889,6.5,-10.38888888888889,247.77777777777777,-1071.0555555555557,0.3333333333333333,314.77777777777777,1017.136611111111,-3.9086327222222224,3388.4444444444443,0.0723330425,0.029594619,-0.00395238075,-0.0402644875,-1.6352337499999998,0.0001637164999999,59405.0,26629.0,29915.0,9.0,23.0,6.5,0,None
2023-01-03 08:42:03,331.04788888888885,0.1066666666666643,100.0,1049.5,24236.0,4896.0,98.0,1017.5555555555557,265.22222222222223,4897.444444444444,79.9774688888889,4.552106555555556,0.061548554,-0.004969321,-1.7054954000000002,59.404,0.078665728,-0.00058507564,-1.6375022,0.6531410666666666,1.0329320555555557,5.416724666666667,45.0,26.666666666666668,-68.77777777777777,-26.22222222222222,27.77777777777778,248.77777777777777,-1054.0,-15.88888888888889,317.1111111111111,1017.1547777777778,-3.8903732222222223,3390.4444444444443,0.078665728,0.0365674921999999,-0.00058507564,0.03888464114,-1.6375022,-0.0204334329999999,59400.0,26615.5,29910.0,2.5,15.0,6.0,0,None
2023-01-03 08:42:04,332.07699999999994,0.1060000000000002,100.0,992.5,24240.5,4891.5,98.0,996.6,268.1,4894.0,80.00991400000001,4.555674600000001,0.075860188,0.0020031058,-1.705265,59.382000000000005,0.092307302,0.0057590708,-1.6370096,0.66662362,1.09875767,6.365644199999999,52.65,-3.2,-69.35,-14.85,2.65,254.9,-1044.4,-16.4,312.25,1017.1577499999996,-3.8874216000000006,3392.6,0.092307302,0.0196283419999999,0.0057590708,0.001093114,-1.6370096,-0.01673095312,59380.0,26627.0,29890.0,7.5,23.0,8.5,0,None
2023-01-03 08:42:05,333.0723333333333,0.1066666666666706,100.0,1031.0,24232.0,4890.5,98.0,991.1111111111112,270.77777777777777,4899.111111111111,80.0412888888889,4.560428333333333,0.066745428,-0.0007294737999999,-1.7150622000000002,59.38000000000001,0.083497884,0.0037593985999999,-1.6467382000000002,0.7205188111111109,1.005681677777778,6.319217,55.44444444444444,19.22222222222222,-71.44444444444444,-22.444444444444443,5.888888888888889,263.0,-1070.6666666666667,-23.77777777777778,322.55555555555554,1017.1364444444444,-3.908645777777777,3394.777777777778,0.083497884,0.01130626606,0.0037593985999999,0.021974066,-1.6467382000000002,-0.0091676394,59380.0,26556.0,29890.0,1.5,31.5,6.0,0,None
2023-01-03 08:42:06,334.0628,0.1019999999999981,100.0,1032.5,24254.5,4875.5,98.0,1003.8,273.6,4895.7,80.06757400000002,4.5661312,0.062579964,0.013941117,-1.7115844,59.36800000000001,0.07956614,0.017891132,-1.6427565999999998,0.67394696,1.1260995399999998,6.054885799999999,54.75,-12.6,-66.65,-20.9,0.8,255.0,-1067.4,-9.7,303.25,1017.1574,-3.88773435,3396.7,0.07956614,0.0048591719999999,0.017891132,-0.029139922,-1.6427565999999998,0.0170380909999999,59360.0,26588.5,29870.0,13.5,30.0,5.0,0,None
2023-01-03 08:42:07,335.093,0.104000000000002,100.0,964.5,24288.5,4895.0,98.0,1008.3,276.5,4892.1,80.07524999999998,4.5722092,0.0607393879999999,0.0001881416,-1.7114752000000002,59.352,0.077939894,0.005500846,-1.6414608000000002,0.72298722,1.1837733,6.7271208,55.2,-11.9,-69.3,0.9,1.5,250.5,-1080.9,8.5,308.3,1017.1547,-3.8903594,3398.8,0.077939894,-0.0155297359999999,0.005500846,-0.0106350037999999,-1.6414608000000002,0.0127918239999999,59355.0,26594.5,29865.0,18.5,31.0,9.5,0,None
2023-01-03 08:42:08,336.0911,0.0999999999999999,100.0,1040.5,24259.5,4888.0,98.0,1024.6,279.3,4890.8,80.07167999999999,4.578090399999999,0.06331644,-0.0054269086,-1.7097042000000002,59.374,0.080516008,-0.00015886312,-1.6383990000000002,0.64789495,1.17107237,6.219528700000001,51.3,-2.4,-68.1,-24.5,-1.8,246.4,-1027.6,4.5,312.1,1017.1225,-3.9226559,3400.7,0.080516008,-0.0081563346,-0.00015886312,-0.004185087,-1.6383990000000002,-0.00649548336,59380.0,26612.5,29890.0,12.5,31.0,8.0,0,None
2023-01-03 08:42:09,337.091,0.0979999999999961,100.0,1019.5,24233.5,4892.0,98.0,970.7,282.0,4891.0,80.07095199999999,4.583811,0.0609230659999999,0.002623053,-1.7183214,59.40999999999999,0.07854977,0.0075555702199999,-1.6469691999999998,0.7512765800000001,0.96833971,8.428802700000002,49.5,15.4,-67.1,-29.6,4.7,248.9,-1106.3,-5.6,314.1,1017.1459,-3.8992342,3402.8,0.07854977,-0.003791452,0.0075555702199999,0.0236057904,-1.6469691999999998,-0.0072773256,59410.0,26561.0,29920.0,5.0,26.0,6.5,0,None
2023-01-03 08:42:10,338.0911,0.1020000000000038,100.0,988.0,24254.0,4880.0,98.0,992.7,284.8,4891.6,80.06974799999999,4.589222,0.067502816,0.0129857579999999,-1.7200517999999998,59.412,0.083886344,0.017232342,-1.6482574,0.6379623399999999,0.98090665,4.9838085,59.6,0.9,-74.5,-17.6,9.7,257.4,-1061.5,13.2,311.9,1017.1157,-3.929539000000001,3404.8,0.083886344,0.0005872261999999,0.017232342,-0.0036794259999999,-1.6482574,0.0078582058,59415.0,26556.5,29925.0,6.0,27.0,4.0,0,None
2023-01-03 08:42:11,339.093,0.0999999999999999,100.0,1086.0,24202.0,4888.5,98.0,1051.5,287.6,4891.9,80.05519799999999,4.5947068,0.066011112,0.014278505,-1.7149834,59.444,0.0832238959999999,0.018895472,-1.6428117999999998,0.5166407599999999,1.11846534,6.779882199999999,51.8,0.5,-65.5,-14.9,28.2,257.9,-1037.4,23.4,303.9,1017.1067,-3.9384922,3406.9,0.0832238959999999,0.014271884,0.018895472,-0.0176416864,-1.6428117999999998,0.0271504109999999,59450.0,26591.0,29960.0,11.0,25.0,1.5,0,None
2023-01-03 08:42:12,340.093,0.0999999999999999,100.0,1133.5,24186.0,4894.5,98.0,1113.7,290.6,4895.1,80.018822,4.6010954,0.065014982,-0.0022922178,-1.7125381999999998,59.444,0.081538374,0.0027841939999999,-1.6395617999999998,0.56261577,1.24331271,6.1828693,62.66666666666666,-32.888888888888886,-70.0,-28.22222222222222,-11.11111111111111,251.33333333333331,-1048.0,-7.0,306.55555555555554,1017.0984,-3.9467187,3408.8,0.081538374,-0.0507173201999999,0.0027841939999999,-0.0272094025999999,-1.6395617999999998,-0.0098082091999999,59445.0,26610.0,29955.0,20.5,24.0,2.0,0,None
2023-01-03 08:42:13,341.093,0.0999999999999999,100.0,858.5,24272.0,4898.5,98.0,930.3,293.5,4893.7,79.971786,4.608123000000001,0.06280113,0.0009248508,-1.7102647999999998,59.502,0.080014326,0.0065755472,-1.6367699999999998,0.796955,1.25590411,8.413374000000001,52.3,16.2,-68.0,-4.8,32.3,254.6,-1015.9,6.7,320.2,1017.1089,-3.9361403,3410.7,0.080014326,0.033319878,0.0065755472,0.0147444379999999,-1.6367699999999998,0.00828756046,59505.0,26625.5,30015.0,15.0,16.5,3.0,0,None
2023-01-03 08:42:14,342.0991,0.1000999999999976,100.0,882.0,24258.0,4884.5,98.0,988.2,296.1,4887.3,79.933004,4.615003799999999,0.07983332,-0.0135086132,-1.7061205999999998,59.474,0.096219234,-0.0084341314,-1.6324718,0.8648980199999998,1.2183286,8.5045483,45.0,-12.6,-71.0,-28.9,10.1,249.0,-1086.1,-15.6,318.2,1017.1428,-3.9024608,3413.0,0.096219234,-0.0272034698,-0.0084341314,-0.0152343039999999,-1.6324718,-0.0101035594,59470.0,26650.5,29980.0,12.5,21.5,-0.5,0,None
2023-01-03 08:42:15,343.088,0.1043333333333356,100.0,1102.0,24197.5,4880.0,98.0,1001.2222222222222,298.8888888888889,4894.0,79.90917444444445,4.622627555555557,0.072896335,-0.0109768695,-1.7021305,59.435,0.0902414825,-0.00507554075,-1.6288429999999998,0.8761545777777778,1.1830086666666666,8.25607188888889,55.44444444444444,1.7222222222222223,-67.72222222222223,2.1666666666666665,22.166666666666668,253.94444444444449,-1015.3888888888888,20.5,318.6666666666667,1017.1317777777778,-3.913211722222222,3415.0,0.0902414825,0.0663131225,-0.00507554075,0.0032928875,-1.6288429999999998,0.00011231425,59420.0,26685.0,29930.0,5.0,34.0,0.5,0,None
2023-01-03 08:42:16,344.0532,0.0999999999999999,100.0,1144.0,24186.0,4895.0,98.0,1127.0,302.0,4896.3,79.903526,4.631191999999999,0.065889058,-0.0063364214,-1.701575,59.402,0.083049492,-0.0011382424259999,-1.627704,0.54937867,1.16261052,5.8760315,53.0,1.2,-72.2,-20.7,-15.0,251.6,-1059.2,-12.2,311.0,1017.1255,-3.9196171,3416.6,0.083049492,-0.01724625832,-0.0011382424259999,0.00939391,-1.627704,-0.013999206,59410.0,26658.5,29920.0,1.5,37.5,4.0,0,None
2023-01-03 08:42:17,345.0552,0.1019999999999981,100.0,924.5,24243.5,4886.5,98.0,1037.6,305.0,4888.5,79.907664,4.640068599999999,0.0544274099999999,0.001960544,-1.709,59.42999999999999,0.07256285,0.00659499858,-1.6342662,0.6147216199999999,1.16075823,6.3960803,66.4,6.1,-65.5,-16.3,49.5,255.6,-1032.5,3.5,312.1,1017.1175,-3.927711,3418.6,0.07256285,0.0333202229999999,0.00659499858,0.0490403599999999,-1.6342662,0.0011171568,59440.0,26641.5,29950.0,-0.5,22.5,6.5,0,None
2023-01-03 08:42:18,346.05330000000004,0.0980000000000017,100.0,1122.5,24197.5,4887.5,98.0,1115.2,307.9,4897.3,79.91268000000001,4.647249,0.07869066,0.01513557474,-1.7105086,59.45200000000001,0.095945792,0.01942203,-1.6366938000000002,0.59755157,1.2186703,6.676517899999999,61.4,17.0,-75.2,-19.8,11.5,257.1,-1059.4,-21.9,309.8,1017.113,-3.9321638,3420.7,0.095945792,-0.011815476,0.01942203,-0.01081097662,-1.6366938000000002,-0.003831054,59450.0,26609.0,29960.0,7.0,22.0,0.0,0,None
2023-01-03 08:42:19,347.072,0.1020999999999958,100.0,1062.5,24202.5,4885.0,98.0,1061.9,311.0,4891.3,79.904864,4.654560399999999,0.07110396,0.0075855514,-1.7110879999999995,59.462,0.08860873,0.0121916553999999,-1.6356078,0.5766725399999999,1.2637507,6.787396800000001,59.6,-13.3,-79.7,-31.2,-1.2,253.2,-1067.1,-7.5,305.4,1017.1211,-3.9240858999999992,3422.6,0.08860873,-0.00539827,0.0121916553999999,-0.0133282514,-1.6356078,-0.0073128701999999,59475.0,26625.0,29985.0,16.0,25.5,3.0,0,None
2023-01-03 08:42:20,348.086,0.104000000000002,100.0,1013.5,24218.0,4876.5,98.0,1060.5,313.9,4890.6,79.88090600000001,4.6631206,0.06666591,0.00203026292,-1.7171358,59.48199999999999,0.0843059999999999,0.00642522024,-1.6419996,0.68191809,1.1364729700000002,7.224642700000001,65.8,17.1,-68.6,-16.9,12.7,248.6,-1061.1,2.5,307.3,1017.1234,-3.9217031000000007,3424.3,0.084252104,0.007594142,0.0062208562399999,0.0227688856,-1.6420358,0.0005186172,59480.0,26587.5,29990.0,14.0,23.5,2.0,0,None
2023-01-03 08:42:21,349.0912222222222,0.1044444444444441,100.0,1045.5,24189.0,4895.5,98.0,1058.111111111111,316.8888888888889,4894.888888888889,79.85382555555555,4.671827333333334,0.0719997759999999,0.0025896658,-1.7163574,59.49,0.0903749599999999,0.0076154665999999,-1.641162,0.6080694666666666,1.0665159555555557,6.091025444444444,56.94444444444444,-10.11111111111111,-73.22222222222223,-20.11111111111111,19.38888888888889,255.16666666666663,-1056.8333333333333,-5.5,309.27777777777777,1017.125111111111,-3.920091277777778,3426.222222222222,0.0903749599999999,0.0234387138,0.0076154665999999,-0.0049293936,-1.641162,-0.0039330753999999,59490.0,26610.0,30000.0,16.0,25.0,4.0,0,None
2023-01-03 08:42:22,350.0681000000001,0.1019999999999981,100.0,1055.5,24212.0,4893.5,98.0,1066.7,319.8,4898.0,79.82714,4.6799126,0.068721094,0.0019041747999999,-1.7183160000000002,59.50599999999999,0.087053602,0.0066395794999999,-1.6421686000000002,0.6291770299999999,1.12875618,6.5938572,66.1,-9.7,-75.7,0.1,-6.7,244.5,-1090.4,13.6,307.4,1017.1497000000002,-3.8954218,3428.3,0.087053602,-0.015724049,0.0066395794999999,0.0035082031999999,-1.6421686000000002,0.0072458108199999,59505.0,26587.5,30015.0,16.0,27.0,3.5,0,None
2023-01-03 08:42:23,351.04466666666667,0.111111111111111,100.0,989.0,24210.5,4895.5,98.0,1077.6666666666667,322.6666666666667,4896.222222222223,79.80015999999999,4.688535444444444,0.0653361175,-0.0077699495,-1.7111635,59.5225,0.0842057349999999,-0.0030083307499999,-1.63554675,0.6501906833333333,1.283726277777778,7.0059975,57.44444444444444,-6.111111111111111,-68.33333333333333,-25.77777777777778,14.333333333333334,243.88888888888889,-1047.111111111111,-3.6666666666666665,307.0,1017.135777777778,-3.909331555555556,3430.0,0.0842057349999999,-0.00402664,-0.0030083307499999,-0.0117926775,-1.63554675,0.0093609695,59515.0,26623.0,30025.0,18.5,29.0,6.5,0,None
2023-01-03 08:42:24,352.07210000000003,0.0999999999999999,100.0,978.5,24227.5,4887.5,97.1,1019.5,325.7,4892.2,79.78140800000001,4.6966498,0.060807342,-0.0099162052,-1.7098814,59.556,0.0788056779999999,-0.00421111886,-1.6338832,0.64123902,1.2067792,6.2464390000000005,53.4,1.0,-65.5,1.7,19.9,248.2,-1037.5,15.7,306.0,1017.1314,-3.9136327,3431.7,0.0788056779999999,-0.014565356,-0.00421111886,0.0170813243999999,-1.6338832,-0.0013414118,59550.0,26642.5,30060.0,10.5,27.0,5.5,0,None
2023-01-03 08:42:25,353.04666666666674,0.1111111111111111,100.0,1062.5,24177.0,4893.5,97.0,1045.7777777777778,328.44444444444446,4894.111111111111,79.77619999999999,4.703156777777779,0.06956625,-0.0007355494249999,-1.706952,59.56,0.088112285,0.003958647975,-1.6310005,0.7043732444444445,1.1334431555555555,6.906203888888888,56.0,14.333333333333334,-63.333333333333336,-14.333333333333334,8.88888888888889,246.66666666666663,-1082.5555555555557,-8.222222222222221,313.44444444444446,1017.1371111111114,-3.908124777777777,3433.6666666666665,0.088112285,0.0272746925,0.003958647975,0.02153286425,-1.6310005,-0.00939311,59565.0,26653.0,30075.0,5.5,23.0,3.5,0,None
2023-01-03 08:42:26,354.0741,0.0999999999999999,100.0,989.0,24212.0,4895.5,97.0,1028.5,331.4,4891.1,79.77693799999997,4.709422399999999,0.071555552,-0.0044607006,-1.7034490000000002,59.564,0.089369756,0.00041900994,-1.6264527999999998,0.75273664,1.1808345,7.1146251000000005,55.8,-14.4,-68.8,-4.9,-6.2,248.5,-1059.4,6.0,318.6,1017.1133,-3.931945199999999,3435.5,0.089369756,-0.041472853,0.00041900994,-0.0396915318,-1.6264527999999998,0.0139970966,59560.0,26664.5,30070.0,9.5,26.0,4.0,0,None
2023-01-03 08:42:27,355.07210000000003,0.0999999999999999,100.0,1111.0,24161.5,4877.0,97.0,1056.3,334.3,4895.8,79.78157,4.7157982,0.061930675,-0.008206763325,-1.70995,59.565,0.0796433575,-0.003583027,-1.631907,0.6261938444444446,1.1394831222222224,5.514419333333333,46.66666666666666,19.11111111111111,-68.22222222222223,-27.11111111111111,11.555555555555555,238.11111111111111,-1041.111111111111,-18.22222222222222,301.0,1017.1128,-3.9323045,3437.2,0.0796433575,-0.0022080399999999,-0.003583027,0.0346207775,-1.631907,-0.0113861665,59570.0,26668.0,30080.0,5.0,30.5,2.0,0,None
2023-01-03 08:42:28,356.07210000000003,0.0999999999999999,100.0,1144.0,24187.0,4878.5,97.0,1123.1,337.4,4887.3,79.79213999999999,4.722025,0.052471336,0.0096980778,-1.718124,59.582,0.069769352,0.0137409748,-1.639463,0.5439335555555556,1.032450388888889,5.428732555555556,47.9,11.4,-67.6,-21.4,-9.0,255.2,-1061.5,-2.2,313.1,1017.0904,-3.954757700000001,3439.1,0.069769352,0.0097186418,0.0137409748,0.0143972479999999,-1.639463,-0.0135880196399999,59565.0,26620.0,30075.0,-4.0,32.5,2.0,0,None
2023-01-03 08:42:29,357.07030000000003,0.0999999999999999,100.0,1022.0,24208.0,4878.5,97.0,1081.4,340.5,4884.9,79.796434,4.727242799999999,0.0507141639999999,0.0140259092,-1.7211995999999998,59.614,0.068376026,0.018146138,-1.6415019999999998,0.56605658,1.1828438900000002,6.212088799999998,50.6,-3.8,-70.2,-21.7,16.6,255.4,-1050.3,-0.5,295.7,1017.1074999999998,-3.9376484,3440.9,0.068376026,0.0039056319799999,0.018146138,-0.014234574,-1.6415019999999998,0.0004327648,59615.0,26591.0,30125.0,4.0,25.0,0.0,0,None
2023-01-03 08:42:30,358.07400000000007,0.0999999999999999,100.0,1113.5,24155.0,4886.0,97.0,1107.3,343.5,4889.7,79.784662,4.7304014,0.05713588,-0.0049221086,-1.7185175999999998,59.606,0.0746129599999999,-4.349520000000032e-05,-1.6375661999999995,0.5025671,1.1433632299999998,5.361998999999999,49.4,-14.0,-73.4,-19.2,7.8,253.7,-1058.8,-0.7,316.4,1017.1072,-3.9379376,3442.7,0.0746129599999999,-0.017440384,-4.349520000000032e-05,-0.0102017079999999,-1.6375661999999995,-0.0028975508,59610.0,26617.5,30120.0,14.0,19.5,0.5,0,None
2023-01-03 08:42:31,359.07400000000007,0.0999999999999999,100.0,997.0,24197.5,4892.5,97.0,1008.6,346.4,4892.6,79.767484,4.732575800000001,0.0533961939999999,0.0043256730539999,-1.727215,59.64,0.07091612,0.009407858,-1.6466868,0.6301924999999999,1.0413622100000002,5.401802699999999,37.4,10.0,-67.7,-30.9,-8.3,255.3,-1068.2,-19.7,312.4,1017.1045,-3.9405858,3444.4,0.07091612,-0.0030210045999999,0.009407858,-0.002459952,-1.6466868,-0.0086682958,59620.0,26576.5,30130.0,8.5,19.5,1.0,0,None
2023-01-03 08:42:32,360.0722,0.0999999999999999,100.0,984.5,24201.0,4892.0,97.0,991.1,349.1,4892.4,79.75095,4.7339986,0.0424714925,-0.01451998475,-1.7350245,59.697500000000005,0.059776315,-0.00973316075,-1.65452475,0.8765406600000001,1.1210805,9.824607599999998,37.44444444444444,-18.77777777777778,-65.0,-24.55555555555556,-9.333333333333334,252.88888888888889,-1063.5555555555557,-32.22222222222222,315.1111111111111,1017.1258,-3.9192342,3446.0,0.059776315,0.0122868672249999,-0.00973316075,-0.02128775,-1.65452475,-0.01862259425,59690.0,26525.0,30200.0,12.0,16.0,0.0,0,None
2023-01-03 08:42:33,361.07400000000007,0.0999999999999999,100.0,932.0,24233.5,4882.0,97.0,1011.9,352.0,4899.9,79.734632,4.734551999999999,0.044591228,-0.01679076604,-1.7451208,59.716,0.0628480979999999,-0.0115740096,-1.6636575999999998,1.02644734,1.4352458,9.0736562,48.1,-10.9,-71.7,-18.0,51.5,246.0,-1052.7,8.8,320.9,1017.1536,-3.891406,3447.9,0.0629232475,0.02569316,-0.0074058845,0.02379918,-1.664102,0.000195223,59710.0,26463.0,30220.0,1.0,7.5,-1.5,0,None
2023-01-03 08:42:34,362.0721,0.0999999999999999,100.0,916.5,24233.0,4891.5,97.0,956.2,354.8,4892.6,79.716578,4.7342438,0.093670846,0.0069702788,-1.741209,59.74,0.110674582,0.01097725682,-1.6601827999999998,1.0242259500000002,1.4131922000000003,10.1081334,27.6,75.5,-82.2,-16.9,36.5,255.5,-1027.7,-23.0,312.9,1017.1293000000002,-3.9158438,3449.5,0.1063199275,0.0085862500249999,0.0077428960249999,0.08215398,-1.65915325,-0.0201517337499999,59720.0,26517.5,30230.0,-16.5,17.0,6.0,0,None
2023-01-03 08:42:35,363.0702,0.0999999999999999,100.0,846.5,24255.0,4891.0,97.0,882.3,357.2,4893.8,79.68802400000001,4.7339654,0.053919352,0.024237122,-1.7431868,59.872,0.070223422,0.028126276,-1.6611668000000002,1.1143028,1.3757549,9.400465400000002,41.9,-37.1,-77.5,-8.6,-71.8,256.5,-1111.1,19.9,304.7,1017.1311,-3.914179700000001,3451.5,0.0740132525,-0.0714899717499999,0.0300226625,-0.0401110375,-1.66268725,0.0410384175,59840.0,26447.0,30350.0,-0.5,56.5,6.0,0,None
2023-01-03 08:42:36,364.0721,0.0999999999999999,100.0,791.5,24266.5,4880.5,97.0,835.0,359.6,4897.3,79.636622,4.734050400000001,0.0245858896,-0.00079966718,-1.7062732,59.986,0.04113978,0.00440283092,-1.6233896,1.1965040999999998,1.6645087999999997,11.3554147,49.0,2.8,-53.0,-34.4,-41.1,256.1,-1154.0,30.6,317.0,1017.1267,-3.918375,3453.2,0.0431442375,0.0046249199999999,0.0038683774,-0.009267199825,-1.6250364999999998,0.0519812175,59955.0,26649.0,30465.0,10.0,54.5,3.0,0,None
2023-01-03 08:42:37,365.0705,0.1001000000000032,100.0,929.5,24221.5,4888.0,97.0,919.7,362.1,4892.1,79.583988,4.7307056,0.0062052762,0.01568983,-1.6954864,60.048,0.0229460636,0.01926626,-1.6125764,1.3503435,1.8109987,11.5296978,43.8,4.7,-41.4,-28.4,47.5,256.7,-1145.6,-24.4,304.5,1017.1313,-3.9138282,3454.7,0.0229460636,0.046812684,0.01926626,-0.0073000039999999,-1.6125764,-0.0328007176,60025.0,26787.5,30535.0,9.0,23.5,0.5,0,None
2023-01-03 08:42:38,366.06322222222224,0.1133333333333312,100.0,955.0,24228.0,4895.5,97.0,912.1111111111112,364.44444444444446,4894.111111111111,79.52010444444444,4.720134777777778,0.059255476,0.0082773078,-1.717557,60.14750000000001,0.06879641,0.0149899925,-1.63518725,1.1241919000000002,1.7082682777777778,10.194018111111111,35.666666666666664,22.88888888888889,-61.888888888888886,-35.55555555555556,-23.444444444444443,256.77777777777777,-1076.3333333333333,-14.88888888888889,314.55555555555554,1017.1131111111112,-3.931927111111111,3456.333333333333,0.073599734,-0.0466885507999999,0.0117693412,0.00236802,-1.6344914,-0.0239259355999999,60120.0,26661.5,30630.0,18.5,3.0,4.0,0,None
