00000_Time_epoch,00000_Time_boot_sec,00000_Span_Time_boot_sec,1_battery_remaining_avg,1_current_battery_avg,1_voltage_battery_avg,125_Vcc_avg,147_battery_remaining_avg,147_current_battery_avg,147_current_consumed_avg,165_Vcc_avg,168_direction_avg,168_speed_avg,178_pitch_avg,178_roll_avg,178_yaw_avg,182_altitude_avg,182_pitch_avg,182_roll_avg,182_yaw_avg,241_vibration_x_avg,241_vibration_y_avg,241_vibration_z_avg,27_xacc_avg,27_xgyro_avg,27_xmag_avg,27_yacc_avg,27_ygyro_avg,27_ymag_avg,27_zacc_avg,27_zgyro_avg,27_zmag_avg,29_press_abs_avg,29_press_diff_avg,29_temperature_avg,30_pitch_avg,30_pitchspeed_avg,30_roll_avg,30_rollspeed_avg,30_yaw_avg,30_yawspeed_avg,33_alt_avg,33_hdg_avg,33_relative_alt_avg,33_vx_avg,33_vy_avg,33_vz_avg,label,diagnosis
2023-01-01 07:57:35,601.695,0.1019999999999981,73.0,93.5,22828.0,4889.0,99.0,92.1,149.0,4890.9,-126.0778,0.1180466,-0.0067955906,-0.0045943819999999,-1.2675052,28.348000000000003,-0.0011991325999999,0.0012868616,-1.3021553999999995,0.025885276,0.025100104,0.0367874659999999,-17.6,3.7,71.2,-9.1,4.5,250.8,-1042.2,-1.2,328.1,1022.2619,-0.111703125,4190.0,-0.0011991325999999,0.0048319114,0.0012868616,0.004072309,-1.3021553999999995,-0.001938141,28355.0,28540.0,-75.0,4.0,15.5,-19.0,0,None
2023-01-01 07:57:36,602.7269999999999,0.1039999999999963,73.0,181.0,22786.0,4878.666666666667,99.0,149.8,149.0,4889.9,-123.83392,0.12405548,-0.0070435603333333,-0.0049644348333333,-1.2656356666666666,28.308333333333337,-0.0012658488333333,0.0011513535833333,-1.3014036666666666,0.086297949,0.14897679,0.90282772,-22.45,4.2,64.45,-12.05,2.55,247.9,-1046.35,-0.95,327.3,1022.2742,-0.099390612,4190.8,-0.0012658488333333,0.003122748,0.0011513535833333,0.0049521834999999,-1.3014036666666666,0.0001776028333333,28315.0,28544.5,-115.0,4.0,15.5,-18.5,0,None
2023-01-01 07:57:37,603.7058888888889,0.1023333333333387,73.0,1488.0,22492.0,4896.0,99.0,1150.2222222222222,150.33333333333334,4898.888888888889,-120.99983333333336,0.1509002222222222,-0.007194213,0.00248168025,-1.262647,28.3025,-0.0015748507499999,0.00900309,-1.2968397500000002,0.6352462111111111,0.4410611444444444,2.979809066666667,18.77777777777778,40.0,50.77777777777778,-16.444444444444443,23.55555555555556,243.77777777777777,-1135.888888888889,10.333333333333334,303.22222222222223,1022.4347777777776,0.0612847111111111,4191.444444444444,-0.0015748507499999,0.03185033575,0.00900309,0.063981755,-1.2968397500000002,0.00586573625,28305.0,28569.5,-125.0,6.5,11.5,0.0,0,None
2023-01-01 07:57:38,604.6800000000001,0.1039999999999963,72.0,1707.5,22364.0,4886.5,99.0,1822.1,155.0,4893.3,-125.36004000000004,0.1802172,0.0017522204,-0.0116591597999999,-1.2557204,29.174,0.0072267184,-0.0054961563999999,-1.2855922,0.3910296599999999,0.97773866,4.9279812,26.8,-46.3,42.9,3.6,43.8,238.7,-1230.9,-4.9,283.6,1022.2102,-0.163492167,4192.3,0.0072267184,0.0357237586,-0.0054961563999999,-0.050975568,-1.2855922,0.0048097121599999,29255.0,28638.0,825.0,30.5,-14.0,158.0,0,None
2023-01-01 07:57:39,605.6771111111111,0.1044444444444505,71.0,1621.0,22361.0,4883.0,99.0,1759.2222222222222,159.77777777777777,4889.0,-142.59702222222222,0.1881664333333333,0.078130042,-0.050638262,-1.255497,31.996,0.082131006,-0.0443171839999999,-1.299311,0.3921672,1.0624088,7.199133111111111,26.666666666666668,-29.27777777777778,20.166666666666668,-5.5,81.88888888888889,220.72222222222223,-1094.7222222222222,32.5,294.05555555555554,1021.8372222222222,-0.5363715111111111,4193.333333333333,0.082131006,0.1410053604,-0.0443171839999999,-0.046761542,-1.299311,0.038336612,32150.0,28590.5,3720.0,17.5,-27.5,283.0,0,None
2023-01-01 07:57:40,606.6891,0.1101999999999975,70.33333333333333,1453.6666666666667,22393.33333333333,4883.666666666667,98.0,1346.9,164.3,4890.9,-99.61704,0.22552646,0.0562877416,0.0178478919999999,-1.2362722,35.354,0.059087082,0.0263141537999999,-1.2896196,0.45631396,0.85901252,3.6667712,5.35,183.05,33.3,-18.45,-210.05,246.9,-937.7,132.1,298.75,1021.52845,-0.8452382499999999,4194.1,0.059087082,-0.1706646891999999,0.0263141537999999,0.183199476,-1.2896196,0.101150122,35495.0,28616.0,7065.0,-32.5,33.0,271.0,0,None
2023-01-01 07:57:41,607.7251,0.0999999999999999,70.0,1318.5,22433.5,4887.5,98.0,1293.0,167.7,4888.3,165.95080000000002,0.28294018,-0.1957869833333333,0.0756253766666666,-0.8906138000000001,37.66,-0.1897146666666666,0.0840543333333333,-0.9442760833333332,0.39200544,0.84075574,6.0109083,5.0,20.7,199.1,-31.2,29.6,229.9,-1009.5,373.3,239.3,1021.266,-1.1078203000000002,4195.4,-0.1897146666666666,0.0760964466666666,0.0840543333333333,0.0505417013333333,-0.9442760833333332,0.3805738833333333,37605.0,30505.5,9175.0,69.5,-32.5,137.5,0,None
2023-01-01 07:57:42,608.7075555555556,0.1022222222222176,69.0,1333.0,22380.0,4895.0,98.0,1337.6666666666667,171.55555555555554,4896.111111111111,151.9107111111111,0.3477006777777777,-0.0411981395,0.02704221,-0.539684925,38.93,-0.04215488625,0.03498095,-0.59334495,0.4177761111111111,1.0610651666666666,7.470304666666667,-21.666666666666668,-6.0,230.55555555555557,-44.44444444444444,191.22222222222223,165.44444444444446,-1030.3333333333333,330.44444444444446,266.8888888888889,1021.090777777778,-1.2828993333333334,4196.0,-0.04215488625,0.1545314925,0.03498095,-0.0236977874999999,-0.59334495,0.3289227999999999,38870.0,32509.0,10440.0,193.5,-134.5,103.0,0,None
2023-01-01 07:57:43,609.6712,0.1019000000000005,69.0,1349.0,22380.0,4883.5,98.0,1233.7,175.2,4894.3,142.02284,0.3822213799999999,-0.025348032,0.049698432,-0.5863560999999999,39.982,-0.0296757578,0.058996146,-0.64497602,0.4581525699999999,1.37937743,7.802998700000001,-43.7,46.7,229.2,-79.0,-68.1,156.5,-1018.1,-512.7,285.9,1020.9538,-1.4197654000000002,4197.3,-0.0296757578,-0.106614848,0.058996146,0.079835926,-0.64497602,-0.4798380459999999,40035.0,32188.5,11605.0,179.5,-136.5,83.0,0,None
2023-01-01 07:57:44,610.691,0.1020000000000095,68.5,1310.5,22351.5,4881.0,98.0,1281.0,178.5,4897.0,129.89186,0.40997888,-0.041831534,0.096807358,-1.0827303,40.934000000000005,-0.035912458,0.104084968,-1.1463065999999995,0.48001081,1.2549721999999996,9.710925,-10.2,22.1,119.7,-61.4,-50.9,265.7,-1060.8,-279.9,288.5,1020.8527,-1.5209921000000002,4198.1,-0.035912458,-0.038249074,0.104084968,0.015294137,-1.1463065999999995,-0.26470539,40975.0,29329.0,12545.0,208.5,-128.5,59.5,0,None
2023-01-01 07:57:45,611.7149999999999,0.1039999999999963,68.0,1318.0,22364.33333333333,4885.333333333333,98.0,1296.0,182.1,4893.2,116.85480000000004,0.4517633399999999,-0.0159002684,0.0694619616,-1.2860505999999998,41.744,-0.005607924,0.076390022,-1.347559,0.50330613,1.0410167,7.573349,1.05,-135.5,52.9,-69.65,117.8,265.45,-1039.95,-114.9,283.65,1020.7819,-1.5916600000000003,4199.3,-0.005607924,0.118252492,0.076390022,-0.1223123640599999,-1.347559,-0.135967118,41785.0,28196.0,13355.0,261.0,-146.5,64.0,0,None
2023-01-01 07:57:46,612.731,0.0999999999999999,67.5,1167.0,22431.0,4888.0,98.0,1213.8,185.5,4891.6,105.3906,0.51064032,0.1140280019999999,-0.060314092,-1.2587534,42.392,0.12319441,-0.0504309919999999,-1.3178032000000002,0.49524205,1.0699407600000002,9.3184978,-3.7,-23.5,17.4,-62.0,22.2,224.3,-1008.7,62.6,340.0,1020.7114,-1.6621485,4200.3,0.12319441,0.0797842722,-0.0504309919999999,-0.0386473289999999,-1.3178032000000002,0.072732434,42415.0,28473.0,13985.0,193.0,-101.5,29.5,0,None
2023-01-01 07:57:47,613.7032222222223,0.1023333333333261,67.0,1115.0,22397.0,4896.0,98.0,1132.6666666666667,188.77777777777777,4895.111111111111,96.59589555555556,0.5852992666666667,0.1130806199999999,-0.0562034179999999,-1.2304452,42.668,0.12374668,-0.045227904,-1.28651,0.4671084777777777,1.1622823777777778,9.17912611111111,15.88888888888889,54.44444444444444,26.11111111111111,-66.0,-10.0,233.88888888888889,-1067.2222222222222,-11.666666666666666,341.22222222222223,1020.6764444444444,-1.697118111111111,4201.333333333333,0.12374668,-0.0132396227999999,-0.045227904,0.061318834,-1.28651,-0.007329366,42680.0,28624.0,14250.0,69.0,-30.5,3.5,0,None
2023-01-01 07:57:48,614.6713,0.1019000000000005,67.0,1246.5,22382.0,4887.0,98.0,1211.1,192.2,4894.6,90.827552,0.6760316199999999,0.086109164,0.0260895736,-1.2446930000000005,42.78,0.097394994,0.0340069852,-1.2967672,0.45135665,1.1445948200000002,9.3712008,24.7,77.8,30.9,-42.8,-20.7,248.5,-1038.2,-19.7,305.2,1020.6698,-1.7039061,4202.0,0.097394994,-0.01460716662,0.0340069852,0.0829255539999999,-1.2967672,-0.0293507522,42785.0,28562.5,14355.0,-3.5,15.0,-8.5,0,None
2023-01-01 07:57:49,615.697,0.1060000000000059,67.0,1076.0,22438.0,4886.666666666667,98.0,1113.8,195.4,4888.6,86.985978,0.7888775599999999,0.0652509859999999,0.052436344,-1.2626984,42.84400000000001,0.075430152,0.0588438539999999,-1.3110454,0.48156874,1.3429489099999998,10.2287256,37.4,5.45,33.95,-84.5,-0.45,266.6,-1084.6,-14.5,302.2,1020.6315,-1.7422695,4203.25,0.075430152,-0.047751734,0.0588438539999999,0.0044544637839999,-1.3110454,-0.0053074084,42850.0,28484.0,14420.0,-9.0,34.5,-10.5,0,None
2023-01-01 07:57:50,616.721,0.0999999999999999,66.5,1025.5,22417.5,4883.5,98.0,1001.6,198.3,4886.4,83.75317399999999,0.92201204,-0.019762578,0.046125396,-1.2773382000000002,42.94199999999999,-0.0107725999999999,0.052825758,-1.3236138,0.67575189,1.18865815,9.0862141,51.2,-29.7,57.0,-62.8,-174.7,262.6,-1026.7,10.4,300.2,1020.6021,-1.7717109,4204.1,-0.0107725999999999,-0.152325314,0.052825758,0.0144672772,-1.3236138,-0.0063495618,42945.0,28413.0,14515.0,-0.5,4.0,-19.0,0,None
2023-01-01 07:57:51,617.7211,0.0999999999999999,66.0,1131.5,22385.0,4882.0,98.0,1081.8,201.2,4888.5,81.235754,1.0718181999999998,-0.0889331539999999,-0.0018286727999999,-1.2743103999999998,42.940000000000005,-0.080904124,0.00550149446,-1.3194481999999998,0.5285673500000001,1.2726082,6.7486102,23.4,-23.5,82.9,-25.6,73.8,243.2,-1046.5,-0.6,302.7,1020.6502,-1.7234295,4205.3,-0.080904124,0.080775458,0.00550149446,-0.0233742398,-1.3194481999999998,-0.016702163,42940.0,28442.5,14510.0,23.5,-135.0,-25.0,0,None
2023-01-01 07:57:52,618.7065555555557,0.1068888888888876,66.0,1117.0,22374.0,4890.0,98.0,1195.7777777777778,204.55555555555557,4888.555555555556,79.8350933333333,1.2212975555555554,-0.0263469758,0.0018321496,-1.27378,42.876,-0.0229344956,0.0096033172,-1.3186514,0.4050603444444445,1.1909550555555557,10.61413611111111,18.77777777777778,44.55555555555556,66.33333333333333,-45.333333333333336,40.77777777777778,249.22222222222223,-1069.7777777777778,3.2222222222222223,313.3333333333333,1020.6366666666668,-1.7370484444444445,4206.0,-0.0229344956,0.0406133959999999,0.0096033172,0.033151992,-1.3186514,0.0278529119999999,42875.0,28447.0,14445.0,17.5,-234.5,-20.0,0,None
2023-01-01 07:57:53,619.7007777777777,0.1067777777777791,66.0,1352.0,22322.0,4888.0,98.0,1300.7777777777778,207.88888888888889,4896.888888888889,79.20444666666666,1.3610601111111107,-0.0131070554,0.033837728,-1.250539,42.84400000000001,-0.0114898258,0.0421326859999999,-1.2946584,0.3790375666666666,1.0437216444444444,8.02297388888889,5.722222222222222,-5.944444444444445,62.44444444444444,-27.88888888888889,22.05555555555556,252.66666666666663,-1064.2222222222222,51.94444444444444,302.77777777777777,1020.6695,-1.7042143333333335,4207.055555555556,-0.0114898258,0.0454761848,0.0421326859999999,0.0032440241999999,-1.2946584,0.0202649392,42845.0,28591.5,14415.0,32.0,-274.5,-15.0,0,None
2023-01-01 07:57:54,620.6934,0.107899999999995,66.0,1288.5,22344.5,4894.5,98.0,1317.3,211.5,4891.6,78.67165800000001,1.4925648,0.097767088,0.0262693159999999,-1.2468065999999998,42.812,0.097639848,0.036052584,-1.2898446,0.4038091599999999,0.92936544,5.4818802,-3.95,38.9,35.65,-34.75,86.5,245.55,-1045.15,-31.0,300.3,1020.6978,-1.6759923,4208.05,0.097639848,0.02244876,0.036052584,0.0743604454,-1.2898446,-0.0286887807999999,42810.0,28603.5,14380.0,39.0,-235.0,-8.0,0,None
2023-01-01 07:57:55,621.7247777777778,0.1066666666666706,65.0,1250.5,22357.0,4893.5,98.0,1254.6666666666667,215.0,4895.666666666667,78.25832333333334,1.6134554444444444,0.03194834,0.1639219999999999,-1.2615535,42.795,0.0337656199999999,0.1721493,-1.304769,0.4262209777777778,1.095393488888889,5.386955666666666,-2.111111111111111,145.88888888888889,41.66666666666666,-22.33333333333333,-61.11111111111112,284.55555555555554,-1055.2222222222222,14.88888888888889,268.6666666666667,1020.7118888888888,-1.6617446666666666,4209.0,0.0337656199999999,-0.05854993,0.1721493,0.141131185,-1.304769,0.01079342,42785.0,28524.0,14355.0,122.0,-144.0,-7.0,0,None
2023-01-01 07:57:56,622.7162222222222,0.1112222222222195,65.0,1166.0,22346.5,4894.0,98.0,1247.4444444444443,218.66666666666663,4901.666666666667,77.91911222222222,1.726372888888889,0.0197804073999999,-0.01859914,-1.2324176,42.782,0.021998314,-0.0065967786,-1.2719372,0.4196761444444444,1.423776922222222,11.020205333333331,-13.77777777777778,-477.27777777777777,64.16666666666667,-30.88888888888889,58.333333333333336,241.77777777777777,-1037.5555555555557,34.72222222222222,303.1111111111111,1020.6650555555556,-1.7084634444444446,4210.0,0.021872768,0.0616020719999999,-0.0060043585999999,-0.4382786399999999,-1.2720982,0.04039913,42800.0,28747.5,14370.0,174.0,-108.0,-4.5,0,None
2023-01-01 07:57:57,623.7007777777777,0.1066666666666706,65.0,1354.0,22297.5,4895.0,98.0,1342.111111111111,222.22222222222223,4900.0,77.59384333333334,1.8152563333333327,0.014753392,-0.159021844,-1.2634808,42.864,0.020777736,-0.1429657384,-1.298581,0.5146903444444445,1.5135452222222223,11.018157555555554,-14.833333333333334,306.22222222222223,68.88888888888889,-33.05555555555556,55.833333333333336,179.22222222222223,-1062.611111111111,-177.72222222222223,350.0,1020.5923333333334,-1.7814409444444443,4211.0,0.020777736,0.008349604,-0.1429657384,0.289505354,-1.298581,-0.157140489,42860.0,28693.0,14430.0,6.0,-154.0,-18.0,0,None
2023-01-01 07:57:58,624.6756999999999,0.1039999999999963,65.0,1496.0,22283.0,4894.0,98.0,1276.9,226.0,4891.9,77.540186,1.8950844000000004,0.1445065999999999,0.0933795,-1.3931092,42.948,0.14920916,0.09735989,-1.4296166,0.6809469899999999,1.23309588,8.4061357,-1.6,-15.3,-15.7,-20.6,83.9,275.1,-1094.1,12.3,292.2,1020.6549,-1.7188513999999997,4211.8,0.14920916,0.123013404,0.09735989,-0.03671618,-1.4296166,0.024307218,42930.0,27826.0,14500.0,-23.0,-122.5,-20.5,0,None
2023-01-01 07:57:59,625.7314,0.1038999999999986,65.0,937.5,22410.5,4890.5,98.0,1026.5,229.0,4892.6,77.396156,1.9631896,0.00917691,0.013870847,-1.255376,42.88,0.014364408,0.0216905878,-1.2898996,0.69669953,1.1831494,7.4465822,0.7,21.0,57.7,-21.15,-79.45,253.4,-1093.4,92.35,306.8,1020.7769499999998,-1.59681235,4212.8,0.014364408,-0.154900412,0.0216905878,0.0152174559999999,-1.2898996,0.1064773779999999,42880.0,28548.0,14450.0,22.666666666666668,-9.333333333333334,-8.0,0,None
2023-01-01 07:58:00,626.7232222222223,0.1067777777777791,65.0,1191.5,22355.0,4887.5,98.0,1183.6666666666667,232.11111111111111,4889.333333333333,77.25390444444444,2.022586222222222,0.0491645699999999,0.0578983825,-1.22538675,42.7375,0.0547748225,0.0625265225,-1.25887225,0.7297485444444445,1.3498165555555557,9.34686888888889,17.0,11.11111111111111,56.44444444444444,-19.88888888888889,49.55555555555556,251.66666666666663,-1032.6666666666667,-36.55555555555556,299.22222222222223,1020.7067777777776,-1.6667274444444449,4213.777777777777,0.0547748225,0.0849808225,0.0625265225,0.05311001625,-1.25887225,-0.042491845,42730.0,28816.0,14300.0,51.0,3.0,-13.0,0,None
2023-01-01 07:58:01,627.6897777777777,0.1066666666666706,64.0,1169.0,22342.5,4893.5,98.0,1101.0,235.11111111111111,4890.555555555556,77.17851333333334,2.063753111111111,0.118665678,-0.0180201639999999,-1.2853564,42.774,0.121852566,-0.01331066,-1.3180234,0.5702096111111111,1.026131477777778,8.648813333333333,15.27777777777778,-96.61111111111111,20.72222222222222,-4.888888888888889,113.44444444444444,239.72222222222223,-1089.888888888889,-19.83333333333333,319.77777777777777,1020.6762222222223,-1.6973262222222223,4214.555555555556,0.121852566,0.068296848,-0.01331066,-0.049405412,-1.3180234,-0.02365034,42770.0,28463.0,14340.0,68.5,48.5,-4.5,0,None
2023-01-01 07:58:02,628.7074,0.107899999999995,64.0,1083.5,22375.5,4893.0,98.0,1050.9,238.3,4888.9,77.295648,2.0984016,0.001849408,-0.067502386,-1.2485768,42.84,0.008130474,-0.0602724946,-1.2798674,0.83830186,1.2363265799999998,11.621517399999998,10.2,32.8,55.8,-32.4,-234.55,223.05,-1042.55,-3.35,328.7,1020.7029,-1.67062505,4215.4,0.008130474,-0.1905202399999999,-0.0602724946,0.037381412,-1.2798674,-0.0006352482,42840.0,28663.5,14410.0,-5.0,116.0,-7.0,0,None
2023-01-01 07:58:03,629.6984444444445,0.1023333333333387,64.0,1210.5,22332.5,4883.5,98.0,1149.6666666666667,241.55555555555557,4894.555555555556,77.51501333333334,2.124507333333333,-0.0391022032,-0.00753552108,-1.270645,42.808,-0.03144038,-0.0039174608,-1.3012618,0.6703367111111111,1.1080241333333334,6.842454555555555,-0.5555555555555556,2.333333333333333,68.33333333333333,3.4444444444444446,1.1111111111111112,243.55555555555557,-1050.5555555555557,-4.0,304.8888888888889,1020.6636666666668,-1.7100085555555555,4216.111111111111,-0.03144038,-0.0232258656,-0.0039174608,-0.0348589959999999,-1.3012618,0.0090000064,42805.0,28533.0,14375.0,-29.0,42.5,-7.5,0,None
2023-01-01 07:58:04,630.6854999999999,0.1038999999999986,64.0,1172.5,22323.5,4898.0,98.0,1211.2,244.6,4898.0,77.67889,2.1381141999999995,-0.083330496,-0.029450932,-1.219093,42.84,-0.076954394,-0.0259554779999999,-1.2488584,0.6697364555555555,1.2777507777777777,8.31174311111111,7.1,-21.1,98.9,-12.7,7.5,236.9,-1031.3,63.8,301.7,1020.6585,-1.715164,4217.0,-0.076954394,0.03488290276,-0.0259554779999999,-0.036107724,-1.2488584,0.043458996,42840.0,28833.5,14410.0,-8.0,-39.5,-16.0,0,None
2023-01-01 07:58:05,631.6909999999999,0.0999999999999999,64.0,1215.5,22315.5,4900.5,98.0,1217.8,248.2,4896.1,77.883192,2.1470648,0.0168085779999999,0.004566334,-1.2083038,42.86,0.019984778,0.008788466,-1.237765,0.5188489900000001,1.12069411,5.410968600000001,4.0,71.0,81.0,-16.9,158.7,240.2,-1035.6,-21.5,309.7,1020.6675,-1.7061405,4218.0,0.019984778,0.170064136,0.008788466,0.061980554,-1.237765,-0.031918973,42860.0,28924.0,14430.0,-1.5,-118.5,-15.0,0,None
2023-01-01 07:58:06,632.7134,0.1039999999999963,64.0,1349.5,22264.5,4883.5,98.0,1346.4,251.6,4894.1,78.18878199999999,2.1538128,0.1229106799999999,0.03616601,-1.2331109999999998,42.848,0.1231409279999999,0.0417557639999999,-1.2625129999999998,0.4143122899999999,1.0974627299999995,3.7485199,11.65,15.85,25.0,-14.75,-24.35,244.3,-1052.3,-24.3,302.75,1020.6643,-1.7093787500000002,4218.8,0.1231409279999999,-0.07905562,0.0417557639999999,0.0201712632,-1.2625129999999998,-0.0142753708,42845.0,28772.5,14415.0,6.0,-44.5,-15.0,0,None
2023-01-01 07:58:07,633.703,0.1022222222222302,64.0,1290.5,22305.0,4901.0,98.0,1265.3333333333333,255.33333333333331,4902.777777777777,78.53275222222221,2.163696555555555,-0.0454965625,0.0907568825,-1.1275890000000002,42.895,-0.0416752824999999,0.09810756,-1.156488,0.3601675,1.0808950333333334,4.492880555555555,10.88888888888889,121.77777777777776,91.55555555555556,-18.77777777777778,-146.0,261.3333333333333,-1091.0,336.0,282.44444444444446,1020.6497777777778,-1.7238627777777775,4219.444444444444,-0.0416752824999999,-0.153707395,0.09810756,0.13411955,-1.156488,0.351889125,42900.0,29398.0,14470.0,48.5,8.5,-4.0,0,None
2023-01-01 07:58:08,634.6977,0.1060999999999921,63.5,1449.0,22238.0,4896.5,98.0,1429.1,259.0,4895.1,78.92660999999998,2.1756728,-0.108312356,0.0876812479999999,-0.7784290799999999,43.27,-0.10576515,0.094596994,-0.8067880800000001,0.4159529,1.1982288100000005,6.465984799999999,5.45,-35.95,206.95,-57.05,120.55,212.55,-1097.2,334.55,252.15,1020.5873,-1.7862657000000002,4220.35,-0.10576515,0.123461412,0.094596994,-0.0485148828,-0.8067880800000001,0.32352268,43345.0,31586.5,14915.0,205.5,-47.5,54.0,0,None
2023-01-01 07:58:09,635.7139999999999,0.1110000000000026,63.0,1372.5,22275.0,4899.5,98.0,1361.5555555555557,263.0,4897.666666666667,79.34178444444444,2.186593888888889,-0.0146150646,0.033880246,-0.4277855,44.334,-0.01809428,0.0414067699999999,-0.4567619599999999,0.4115447333333333,1.2838024444444445,9.58631,-25.444444444444443,20.77777777777778,246.66666666666663,-82.77777777777777,44.66666666666666,127.0,-1051.888888888889,338.55555555555554,289.3333333333333,1020.4672222222222,-1.906345222222222,4221.0,-0.01809428,0.038417176,0.0414067699999999,0.0374004992,-0.4567619599999999,0.34286818,44455.0,33590.0,16025.0,248.0,-76.0,97.0,0,None
2023-01-01 07:58:10,636.6804444444444,0.1023333333333387,63.0,1268.5,22290.0,4897.0,98.0,1255.6666666666667,266.3333333333333,4894.0,79.66080777777779,2.198364555555555,-0.0424047949999999,0.0422071149999999,-0.1915360749999999,45.5425,-0.0465276775,0.0488982174999999,-0.2213323,0.4389021444444445,1.4155613333333332,14.11066511111111,-30.38888888888889,35.388888888888886,278.94444444444446,-101.0,-36.888888888888886,73.0,-989.4444444444443,112.61111111111111,290.6666666666667,1020.3324444444444,-2.041241277777777,4221.888888888889,-0.0465276775,-0.0646302375,0.0488982174999999,-0.0419668174999999,-0.2213323,0.0861175399999999,45785.0,34821.0,17355.0,249.0,-90.5,94.5,0,None
2023-01-01 07:58:11,637.6835,0.1098999999999932,63.0,1307.0,22250.5,4897.0,98.0,1335.5,270.1,4894.7,79.92820000000002,2.2163820000000003,-0.07104115,0.074285124,-0.13703274,46.648,-0.07309076,0.080031796,-0.1702031,0.5247360700000001,1.2950752,10.2880227,-28.9,1.25,294.85,-72.9,-12.05,62.5,-1110.0,13.7,274.65,1020.19735,-2.17628905,4222.7,-0.07309076,-0.029729762,0.080031796,-0.002471354,-0.1702031,0.019323462,47000.0,35063.5,18570.0,287.5,-83.5,99.0,0,None
2023-01-01 07:58:12,638.6962222222222,0.1023333333333387,63.0,1244.0,22284.0,4897.5,98.0,1290.6666666666667,273.6666666666667,4890.333333333333,80.09682111111113,2.241011888888889,-0.057997352,0.065502332,-0.13032154,47.908,-0.059327732,0.072054992,-0.1653001399999999,0.5170117777777778,1.3753730000000002,10.429054222222224,-37.55555555555556,3.0,296.6666666666667,-96.0,70.33333333333333,64.0,-1065.7777777777778,-2.6666666666666665,279.1111111111111,1020.0435555555556,-2.330052111111111,4223.444444444444,-0.059327732,0.0783376259999999,0.072054992,0.0023211419999999,-0.1653001399999999,-0.0308750504,47950.0,35060.0,19520.0,324.0,-79.0,100.0,0,None
2023-01-01 07:58:13,639.6814,0.1038999999999986,63.0,1216.0,22261.5,4892.5,98.0,1219.8,277.2,4894.3,80.23151800000002,2.2730314,-0.032909082,0.053056106,-0.16567516,49.322,-0.03340119,0.061499432,-0.20436334,0.50211477,1.2004413,11.6991039,-44.2,-6.2,285.2,-79.2,-28.6,64.5,-1041.5,-46.0,285.6,1019.8865,-2.4869921,4224.1,-0.03340119,-0.0352746,0.061499432,0.009777122,-0.20436334,-0.066061208,49015.0,34902.5,20585.0,317.0,-69.5,111.5,0,None
2023-01-01 07:58:14,640.7151,0.1039999999999963,63.0,1171.5,22269.0,4898.0,98.0,1174.2,280.6,4890.2,80.376752,2.3087054,-0.035807002,0.0509862779999999,-0.20124424,50.774,-0.033668276,0.060393298,-0.2437345,0.5252951799999999,1.27494643,11.676722000000002,-46.45,5.9,283.55,-73.35,-2.8,71.4,-1079.3,-13.65,285.3,1019.7270499999998,-2.64657015,4225.1,-0.033668276,0.0059341571999999,0.060393298,0.00394652,-0.2437345,-0.0254044225999999,50460.0,34635.5,22030.0,308.0,-71.5,111.0,0,None
2023-01-01 07:58:15,641.722888888889,0.1045555555555589,62.5,1354.5,22235.0,4899.5,98.0,1348.6666666666667,284.22222222222223,4894.333333333333,80.50622555555556,2.348451111111111,-0.045199446,0.059894232,-0.2157548,52.182,-0.042414278,0.069984326,-0.26158012,0.4782427222222222,1.247323611111111,10.724237,-43.888888888888886,10.0,282.55555555555554,-79.33333333333333,-4.0,84.33333333333333,-1083.6666666666667,-42.55555555555556,283.55555555555554,1019.5984444444445,-2.775243111111111,4225.777777777777,-0.042414278,-0.0064562125799999,0.069984326,0.0225167559999999,-0.26158012,-0.0215726036,51890.0,34534.5,23460.0,305.5,-73.0,113.0,0,None
2023-01-01 07:58:16,642.687,0.1110000000000026,62.0,1207.5,22261.0,4899.5,98.0,1206.4444444444443,287.55555555555554,4898.888888888889,80.59778999999999,2.385787,-0.007138228175,0.05249871,-0.23550395,53.517500000000005,-0.0042409835,0.0629564725,-0.283201775,0.5196503666666668,1.0871661777777777,9.210152444444445,-42.94444444444444,-26.88888888888889,272.44444444444446,-56.66666666666666,20.72222222222222,92.33333333333331,-1048.2222222222222,-24.33333333333333,295.3888888888889,1019.445111111111,-2.9284634444444446,4226.555555555556,-0.0042409835,0.040214845,0.0629564725,0.0023553874999999,-0.283201775,-0.01953043725,53330.0,34389.0,24900.0,306.0,-62.0,123.5,0,None
2023-01-01 07:58:17,643.6603333333333,0.1066666666666706,62.0,1363.5,22212.5,4909.0,98.0,1240.888888888889,290.8888888888889,4899.444444444444,80.74278444444445,2.4238648888888887,-0.046512374,0.0169257656,-0.27533946,54.86800000000001,-0.042479516,0.02790125,-0.32726402,0.5080031666666667,1.206207588888889,11.569515666666668,-43.333333333333336,-12.0,285.3888888888889,-51.5,-43.66666666666666,90.0,-1023.7222222222222,-46.888888888888886,295.5,1019.2913888888888,-3.0823178333333336,4227.333333333333,-0.042469988,-0.03517595958,0.02797055,-0.029703836,-0.32733364,-0.0618071146,54845.0,34124.5,26415.0,285.0,-62.0,117.5,0,None
2023-01-01 07:58:18,644.6578999999999,0.1020999999999957,62.0,1333.0,22231.5,4907.5,98.0,1309.2,294.5,4899.7,80.94468700000002,2.4552691,-0.04751019,0.04720468,-0.263715625,56.31999999999999,-0.0403844099999999,0.060187428,-0.3115441,0.47353772,1.3320716,10.4523473,-33.9,15.1,283.3,-55.1,37.9,91.3,-1020.7,73.3,281.7,1019.134,-3.2395859,4227.8,-0.0403844099999999,0.04298896,0.060187428,0.022132812,-0.3115441,0.0814774259999999,56315.0,34216.0,27885.0,297.5,-90.0,121.0,0,None
2023-01-01 07:58:19,645.6977,0.1059999999999944,62.0,1106.0,22289.5,4899.0,98.0,1099.3,297.9,4895.6,81.12823,2.4822488,0.004240136,-0.0610769,-0.40986792,57.598,0.0079902884,-0.0505406576,-0.46696368,0.50427741,1.17443358,13.1602969,-11.35,-89.25,255.75,-39.1,66.45,94.3,-924.65,-348.65,309.7,1019.0413,-3.3323514000000003,4228.65,0.0079902884,0.0631287902,-0.0505406576,-0.059762424,-0.46696368,-0.36229298,57585.0,33370.5,29155.0,278.5,-137.5,82.5,0,None
2023-01-01 07:58:20,646.7031111111112,0.1065555555555622,62.0,1125.5,22259.0,4897.0,98.0,1122.111111111111,301.1111111111111,4900.777777777777,81.3914311111111,2.508626555555556,0.004781393825,-0.0340091624999999,-0.7443707,58.11,0.0119970772499999,-0.0250063225,-0.8064784,0.4995195,1.4418781111111112,13.35159222222222,-6.444444444444445,56.55555555555556,194.22222222222223,-54.11111111111112,31.11111111111111,167.11111111111111,-1013.3333333333334,-241.55555555555557,314.8888888888889,1018.9896666666666,-3.384027666666667,4229.222222222223,0.0119970772499999,0.0239905827499999,-0.0250063225,0.0669064825,-0.8064784,-0.295577775,58135.0,31264.5,29705.0,212.5,-220.0,27.0,0,None
2023-01-01 07:58:21,647.689,0.1059999999999945,62.0,1214.0,22269.0,4878.5,98.0,1183.2,304.2,4893.6,81.747554,2.5341642,0.0438846416666666,0.0289086475,-0.8135095333333333,58.305,0.05035897,0.0356732091666666,-0.8785492833333334,0.51268686,1.3356121,13.61686,4.95,68.75,159.25,-65.6,63.65,207.6,-1032.05,43.5,312.95,1018.9372,-3.4366056,4229.9,0.05035897,0.0603713236666666,0.0356732091666666,0.0645404606666666,-0.8785492833333334,0.0390014,58315.0,30993.0,29885.0,187.5,-239.0,8.5,0,None
2023-01-01 07:58:22,648.7095555555555,0.1066666666666706,62.0,1148.0,22269.0,4897.0,98.0,1144.5555555555557,307.55555555555554,4893.222222222223,82.15927777777779,2.562548222222222,0.0540079849999999,0.057905435,-0.7416624999999999,58.465,0.0582137524999999,0.0645432175,-0.80782405,0.5098527777777777,1.4806874444444444,13.369148333333335,9.666666666666666,-16.88888888888889,168.22222222222223,-53.888888888888886,-54.66666666666666,207.33333333333331,-997.3333333333334,44.11111111111112,305.22222222222223,1018.8722222222224,-3.501415,4230.555555555556,0.0582137524999999,-0.0476803435,0.0645432175,-0.013207085,-0.80782405,0.0629846945,58480.0,31381.5,30050.0,173.0,-200.0,-0.5,0,None
2023-01-01 07:58:23,649.6856,0.1000999999999976,62.0,944.0,22359.5,4894.0,98.0,970.3,310.4,4885.8,82.562596,2.5954202000000004,0.031558998,0.0383566719999999,-0.7487248,58.602,0.036580594,0.046072146,-0.8162391,0.57851476,1.25989725,10.816058000000002,4.9,0.5,176.9,-62.9,52.7,205.7,-975.1,-35.2,309.5,1018.8806,-3.4930937,4231.0,0.036580594,0.0495118202,0.046072146,-0.0098421495999999,-0.8162391,-0.0134555514,58620.0,31299.0,30190.0,176.5,-196.5,-11.5,0,None
2023-01-01 07:58:24,650.6783333333334,0.1043333333333419,62.0,1139.0,22292.5,4883.0,98.0,1151.7777777777778,313.3333333333333,4893.222222222223,82.97157,2.6321288888888885,0.0509999659999999,0.055351604,-0.75423156,58.588,0.0545341139999999,0.064096094,-0.82340012,0.6025515333333334,1.2532903666666666,14.017616666666664,22.11111111111111,63.61111111111112,165.94444444444446,-93.11111111111111,-23.38888888888889,208.22222222222223,-990.2222222222222,28.83333333333333,308.94444444444446,1018.8444444444444,-3.529114555555555,4232.0,0.0545341139999999,-0.047330892,0.064096094,3.570800000000096e-05,-0.82340012,0.0045026286,58580.0,31303.0,30150.0,151.5,-189.5,-12.0,0,None
2023-01-01 07:58:25,651.6975,0.1099999999999908,62.0,1261.0,22249.5,4895.0,98.0,1114.5,316.4,4894.6,83.42085,2.6786204,0.0296519523999999,0.089559542,-0.7057097999999999,58.684000000000005,0.033616768,0.09748687,-0.77821466,0.5566061899999999,1.3522797,13.346263599999997,28.7,-27.9,181.15,-96.4,23.05,202.6,-1059.45,45.95,278.55,1018.78785,-3.5858084500000005,4232.45,0.033616768,-0.0066702356,0.09748687,-0.050837278,-0.77821466,0.0391809952,58710.0,31588.5,30280.0,183.5,-202.5,-17.0,0,None
2023-01-01 07:58:26,652.691888888889,0.1023333333333387,62.0,986.5,22339.0,4878.0,98.0,889.5555555555555,319.0,4899.333333333333,83.84055000000001,2.733227888888889,0.02985608,0.0785375025,-0.6832088250000001,58.7475,0.03193457,0.0864477575,-0.75790965,0.6079513777777777,1.2656198777777778,9.839016666666668,5.444444444444445,1.6666666666666667,192.22222222222223,-96.66666666666669,-9.11111111111111,198.88888888888889,-1000.6666666666666,-15.77777777777778,303.55555555555554,1018.8737777777776,-3.500043222222222,4233.222222222223,0.03193457,0.0317662025,0.0864477575,-0.03416501,-0.75790965,-0.0008292572499999,58760.0,31672.0,30330.0,191.0,-199.0,-28.0,0,None
2023-01-01 07:58:27,653.6835,0.1058999999999968,62.0,952.0,22347.5,4901.5,98.0,1005.8,321.9,4902.2,84.252516,2.7954298,0.0343408966666666,0.0536641216666666,-0.7342388166666666,58.62833333333334,0.036973015,0.0614981116666666,-0.8106588333333334,0.5553158100000001,1.30196157,12.741021300000002,30.1,-4.5,181.1,-71.8,17.2,205.5,-1051.9,-60.2,303.3,1018.883,-3.4904609,4234.0,0.0369671466666666,-0.0058632918333333,0.0613183933333333,-0.0087365908333333,-0.8104142333333333,-0.076300075,58655.0,31460.5,30225.0,203.0,-196.5,-20.0,0,None
2023-01-01 07:58:28,654.6937777777778,0.1066666666666706,62.0,1014.5,22337.5,4899.5,97.44444444444444,1020.1111111111112,324.77777777777777,4901.888888888889,84.65742333333334,2.858532111111112,0.0403454575,0.0513302025,-0.7935501500000001,58.58,0.04412434,0.0586468025,-0.8721272750000001,0.5965487,0.8484793555555556,7.563974,35.72222222222222,-9.833333333333334,159.94444444444446,-62.72222222222222,24.38888888888889,206.5,-1017.1111111111112,-41.888888888888886,304.22222222222223,1018.8680555555557,-3.5056294999999995,4234.222222222223,0.04412434,0.030345673,0.0586468025,0.0085926125,-0.8721272750000001,-0.03655715825,58580.0,31066.5,30150.0,199.5,-206.0,-14.5,0,None
2023-01-01 07:58:29,655.7254,0.1059999999999945,62.0,1145.5,22278.5,4903.5,97.0,1137.0,327.8,4897.1,85.085346,2.9235506,0.0565575799999999,0.048361962,-0.8091642800000001,58.596,0.0608658339999999,0.05553127,-0.88971658,0.5256601000000001,1.30588389,14.509028,37.5,22.05,148.75,-96.4,6.9,210.15,-1021.75,18.7,304.35,1018.82675,-3.5468709999999994,4234.9,0.0608658339999999,0.020107918,0.05553127,0.035623367,-0.88971658,-0.007815707,58590.0,30897.0,30160.0,193.5,-214.5,-17.5,0,None
2023-01-01 07:58:30,656.7652222222223,0.111111111111111,62.0,1227.5,22266.0,4907.0,97.0,1197.2222222222222,331.3333333333333,4898.666666666667,85.54597666666666,2.9946047777777784,0.055321906,0.065192874,-0.7776270200000001,58.644000000000005,0.0597194599999999,0.072614368,-0.8589981800000001,0.4954504444444444,1.4188803333333333,14.085902222222222,35.166666666666664,17.11111111111111,153.38888888888889,-83.72222222222223,-31.72222222222222,218.72222222222223,-1085.6666666666667,31.72222222222222,295.8888888888889,1018.8402222222222,-3.533598055555556,4235.611111111111,0.0597194599999999,0.0057711794,0.072614368,0.0413080848,-0.8589981800000001,0.031769636,58640.0,31044.5,30210.0,180.5,-218.0,-23.5,0,None
2023-01-01 07:58:31,657.7353,0.0999999999999999,62.0,1283.5,22244.5,4907.0,97.0,1257.2,334.6,4895.3,85.94593399999998,3.0633630000000003,0.037593808,0.078070508,-0.7398475399999999,58.63199999999999,0.041992288,0.085367182,-0.82204268,0.54432147,1.13239017,12.633897,36.8,3.7,169.0,-86.8,-4.3,211.9,-1041.0,29.1,286.2,1018.8596,-3.5139219,4236.0,0.041992288,-0.0165214864,0.085367182,-0.0098748756,-0.82204268,0.026115275,58635.0,31268.0,30205.0,182.5,-216.5,-22.0,0,None
2023-01-01 07:58:32,658.7392,0.1001000000000089,62.0,1069.5,22284.0,4889.5,97.0,1168.7,338.0,4893.9,86.33971,3.1382902,0.039279768,0.0732448,-0.7205762800000001,58.63,0.04472317,0.0809379799999999,-0.8040286999999999,0.4108745199999999,1.6183980000000002,16.887205,40.1,7.4,171.0,-97.7,22.9,202.2,-1068.5,4.8,298.9,1018.8619,-3.5117498,4236.3,0.04472317,0.052121652,0.0809379799999999,-0.0058629365999999,-0.8040286999999999,0.009068076,58630.0,31388.5,30200.0,198.0,-223.0,-16.0,0,None
2023-01-01 07:58:33,659.7116666666666,0.1065555555555495,62.0,1229.0,22242.0,4895.5,97.0,1229.5555555555557,341.3333333333333,4891.111111111111,86.71269222222222,3.2165291111111114,0.0537280919999999,0.079935164,-0.7140591599999999,58.608,0.058669582,0.0870972619999999,-0.7978491400000001,0.5239792666666666,1.4346233333333334,14.089606666666668,33.111111111111114,21.444444444444443,164.44444444444446,-85.77777777777777,21.88888888888889,202.0,-1014.5555555555557,6.888888888888889,289.55555555555554,1018.8847777777778,-3.488871555555555,4236.888888888889,0.058669582,0.032645172,0.0870972619999999,0.0122760578,-0.7978491400000001,-0.00497875974,58620.0,31429.0,30190.0,200.0,-221.5,-15.0,0,None
2023-01-01 07:58:34,660.6516666666666,0.1044444444444504,62.0,1126.0,22264.0,4894.0,97.0,1118.6666666666667,344.3333333333333,4890.666666666667,87.03112555555558,3.2886041111111117,0.0318631025,0.043219835,-0.745950275,58.5725,0.0374814375,0.0511208075,-0.830501375,0.5526828555555556,1.3412471333333331,13.339530000000002,27.125,-27.375,167.5,-83.0,-14.3125,205.0,-1017.5,-103.25,299.4375,1018.8962222222224,-3.4774871111111114,4237.5,0.0374814375,-0.019830495,0.0511208075,-0.07447043725,-0.830501375,-0.115201125,58570.0,31257.0,30140.0,191.5,-217.0,-9.5,0,None
2023-01-01 07:58:35,661.6595,0.1039999999999963,62.0,1193.0,22241.5,4890.5,97.0,1185.6,347.6,4894.3,87.36438100000001,3.3661991,0.051636174,0.040071314,-0.87078594,58.572,0.058246774,0.047004668,-0.9563208600000002,0.5668046899999999,1.25555953,15.116998,41.0,1.5,140.8,-74.1,22.4,221.1,-1035.3,-122.8,297.1,1018.8576,-3.516023299999999,4237.9,0.058246774,0.0164541054,0.047004668,0.003462816,-0.9563208600000002,-0.1119534899999999,58570.0,30473.5,30140.0,180.5,-234.5,-16.0,0,None
2023-01-01 07:58:36,662.7031999999999,0.1059999999999945,62.0,1156.0,22247.0,4901.5,97.0,1153.8,350.8,4900.6,87.69072400000002,3.4409996,0.060766446,0.038202594,-0.95102842,58.59000000000001,0.068269418,0.04403415,-1.0376648,0.52367122,1.16578658,12.810225399999998,46.4,5.65,114.5,-52.8,9.8,233.55,-1034.2,-37.8,317.25,1018.87565,-3.49794145,4238.4,0.068269418,-0.0017449999999999,0.04403415,-0.00148119526,-1.0376648,-0.032125476,58590.0,30036.5,30160.0,162.5,-240.5,-12.5,0,None
2023-01-01 07:58:37,663.6895555555557,0.1023333333333387,62.0,1133.5,22262.5,4898.0,97.0,1130.6666666666667,354.22222222222223,4897.333333333333,87.99252999999999,3.510162888888889,0.06142768,0.0446190839999999,-0.97330286,58.57000000000001,0.068613132,0.051043974,-1.0597778000000002,0.5824052888888889,1.2724543444444445,10.843823333333331,45.11111111111112,16.22222222222222,108.77777777777776,-79.22222222222223,14.333333333333334,253.55555555555557,-1032.111111111111,21.444444444444443,315.8888888888889,1018.896888888889,-3.4769270000000003,4239.0,0.068613132,-0.0008425599999999,0.051043974,0.0112715496,-1.0597778000000002,0.0171061915999999,58570.0,29929.0,30140.0,150.5,-243.0,-11.5,0,None
2023-01-01 07:58:38,664.6832999999999,0.1058999999999968,62.0,1144.0,22227.0,4898.5,97.0,1131.3,357.2,4907.1,88.283362,3.5845764000000004,0.06175467,0.04946167,-0.95525814,58.564,0.068063,0.056864024,-1.0404106,0.52365087,1.28477273,12.1219859,41.0,14.8,110.4,-73.3,-4.7,252.0,-1066.3,40.6,325.7,1018.8836,-3.4899374,4239.1,0.068063,0.0035849179999999,0.056864024,0.0134781396,-1.0404106,0.0088841102,58565.0,30048.0,30135.0,142.0,-236.5,-10.0,0,None
2023-01-01 07:58:39,665.7093000000001,0.1019999999999981,62.0,1118.0,22274.5,4901.5,97.0,1128.3,360.3,4903.8,88.52493000000001,3.655032200000001,0.046200308,0.054623956,-0.92884,58.56,0.05344797,0.061551804,-1.0144879999999998,0.5612789,0.8932028300000001,9.6648241,24.55,2.9,119.55,-67.25,1.75,229.65,-1027.1,18.8,293.8,1018.90395,-3.4697694,4239.55,0.05344797,0.0112156154,0.061551804,0.0092026552,-1.0144879999999998,0.0083527082,58555.0,30192.5,30125.0,145.0,-234.5,-10.0,0,None
2023-01-01 07:58:40,666.7073333333334,0.1044444444444504,62.0,1168.5,22244.5,4897.0,97.0,1153.5555555555557,363.55555555555554,4901.444444444444,88.73320555555557,3.7251832222222223,0.0534092575,0.0510270649999999,-0.923758625,58.5475,0.0595399249999999,0.0585860075,-1.0102995,0.4404105666666666,1.3169317777777776,12.075263666666666,36.22222222222222,-0.8888888888888888,120.22222222222224,-70.55555555555556,3.888888888888889,235.44444444444449,-1055.3333333333333,-13.555555555555555,307.1111111111111,1018.8845555555556,-3.4892013333333334,4240.0,0.0595399249999999,0.0281552924999999,0.0585860075,0.0114140995,-1.0102995,-0.00917636475,58555.0,30213.0,30125.0,145.5,-232.0,-11.0,0,None
2023-01-01 07:58:41,667.7154,0.1059999999999945,62.0,1163.0,22250.5,4896.0,97.0,1150.5,366.9,4896.0,88.89751600000001,3.7895236,0.042185744,0.0519995119999999,-0.9180169,58.57399999999999,0.047875016,0.059072176,-1.0053104,0.52244805,1.2111383400000002,13.4347061,32.5,10.85,124.6,-73.4,-0.85,231.9,-1004.7,19.3,306.8,1018.86955,-3.5040740500000007,4240.25,0.047875016,-0.0170237304,0.059072176,0.0133581934,-1.0053104,-0.0141817924399999,58580.0,30254.5,30150.0,143.5,-235.5,-12.5,0,None
2023-01-01 07:58:42,668.7295555555555,0.1089999999999993,62.0,1200.0,22237.5,4902.0,97.0,1182.2222222222222,370.0,4897.111111111111,89.03742222222222,3.8537886666666665,0.04166971,0.058153478,-0.90420946,58.588,0.047164324,0.064705602,-0.9925788,0.4779757,1.3292867,12.670641333333332,26.38888888888889,5.5,128.27777777777777,-75.66666666666667,-11.22222222222222,233.61111111111111,-1051.7777777777778,0.4444444444444444,302.1666666666667,1018.8690555555556,-3.504674388888889,4241.0,0.047164324,-0.004738950812,0.064705602,-0.0160514459999999,-0.9925788,-0.009003813,58590.0,30321.0,30160.0,148.0,-236.0,-16.0,0,None
2023-01-01 07:58:43,669.6962222222223,0.1044444444444504,61.5,1174.5,22249.5,4890.0,97.0,1170.111111111111,373.22222222222223,4895.444444444444,89.13138000000001,3.911182555555556,0.02779385,0.056357382,-0.89786374,58.588,0.032996818,0.063622826,-0.98726254,0.4423741444444444,1.666588777777778,10.765167777777778,29.444444444444443,-5.222222222222222,134.88888888888889,-68.55555555555556,-17.666666666666668,224.33333333333331,-1099.4444444444443,-9.555555555555555,274.1111111111111,1018.8844444444444,-3.4893143333333336,4240.888888888889,0.032996818,-0.0109214536,0.063622826,-0.0083976266,-0.98726254,-0.0008126403999999,58590.0,30347.5,30160.0,154.0,-238.0,-15.5,0,None
2023-01-01 07:58:44,670.66,0.0999999999999999,61.0,944.0,22310.5,4893.0,97.0,1123.9,376.5,4891.4,89.197974,3.969105,0.032150574,0.04861981,-0.90623906,58.59,0.037256366,0.0560535459999999,-0.9966237800000002,0.47781373,1.612194,9.9968447,32.4,0.1,137.6,-81.6,3.8,234.7,-1037.2,-18.2,293.4,1018.8538999999998,-3.5197499,4241.0,0.037256366,0.0177423036,0.0560535459999999,0.0206354793999999,-0.9966237800000002,-0.0130439533999999,58580.0,30300.5,30150.0,163.0,-247.5,-17.5,0,None
2023-01-01 07:58:45,671.6840999999998,0.108000000000004,61.0,1285.0,22200.0,4892.5,97.0,1096.6,379.6,4889.7,89.249156,4.0228296,0.05168557,0.055942964,-0.91380286,58.626,0.0574602019999999,0.063754718,-1.00393,0.66741613,1.2190492799999997,9.5756443,42.9,12.15,122.85,-72.05,17.1,227.25,-1052.55,3.85,297.8,1018.85685,-3.5167773,4241.1,0.0574602019999999,0.079668802,0.063754718,0.056389186,-1.00393,-0.0191399536,58620.0,30255.0,30190.0,166.0,-262.0,-16.5,0,None
2023-01-01 07:58:46,672.7077777777778,0.1044444444444378,62.0,1113.5,22247.0,4895.5,97.0,978.2222222222222,382.1111111111111,4899.0,89.30419555555558,4.0770917777777775,0.0693635249999999,0.063136155,-0.92807045,58.6225,0.0751918025,0.0702509925,-1.01761525,0.6810925666666666,1.1249510222222223,9.175538888888887,47.888888888888886,13.555555555555555,116.11111111111111,-86.88888888888889,10.444444444444445,243.66666666666663,-1050.888888888889,-36.44444444444444,312.3333333333333,1018.8959999999998,-3.4774826666666665,4241.666666666667,0.0751918025,0.0301087965,0.0702509925,-0.0288083425,-1.01761525,-0.0439741525,58635.0,30190.0,30205.0,167.0,-258.0,-16.5,0,None
2023-01-01 07:58:47,673.688,0.1039999999999963,61.5,1179.0,22240.5,4886.0,97.0,1267.3,385.5,4896.0,89.36285999999998,4.1295944,0.075207614,0.053869732,-0.94855842,58.528,0.08140815,0.0616657539999999,-1.0376174,0.54363072,1.0394760799999998,12.4037373,66.7,1.35,103.4,-86.55,26.95,237.65,-1092.95,8.25,304.95,1018.8838000000002,-3.4898632500000004,4241.55,0.08140815,0.017679384,0.0616657539999999,-0.0045548259999999,-1.0376174,0.0085341138,58530.0,30052.0,30100.0,167.0,-252.5,-19.5,0,None
2023-01-01 07:58:48,674.7341,0.1020000000000095,61.0,1303.5,22205.5,4896.0,97.0,1326.4,389.1,4897.5,89.443064,4.185561,0.09912334,0.047313568,-0.94194074,58.50599999999999,0.105983848,0.055064914,-1.0312456,0.53171504,1.2704275500000002,11.1989254,65.1,-4.9,98.2,-68.2,10.2,219.5,-1042.2,8.3,299.6,1018.9143,-3.4594218,4241.9,0.105983848,0.060877293,0.055064914,0.0076092755999999,-1.0312456,0.0164094262,58505.0,30091.0,30075.0,163.0,-247.5,-11.5,0,None
2023-01-01 07:58:49,675.7035555555555,0.1022222222222176,61.0,1105.0,22251.0,4902.0,97.0,1167.0,392.55555555555554,4901.444444444444,89.55848222222222,4.2452264444444445,0.08315277,0.051497598,-0.93637096,58.53,0.090877882,0.058447496,-1.0266892,0.6137479444444444,1.1985858555555555,7.550638222222223,78.66666666666667,12.11111111111111,102.66666666666669,-50.333333333333336,-15.22222222222222,230.77777777777777,-1061.3333333333333,-4.888888888888889,308.8888888888889,1018.918111111111,-3.455598777777778,4241.888888888889,0.090877882,-0.0164973815999999,0.058447496,0.022935996,-1.0266892,0.0196547746,58525.0,30122.0,30095.0,147.0,-238.0,-2.0,0,None
2023-01-01 07:58:50,676.6682,0.1039999999999963,61.0,1270.0,22211.0,4899.0,97.0,1328.4,395.8,4905.6,89.69773,4.303647600000001,0.09369056,0.007799228,-0.96137786,58.5,0.1013095719999999,0.0141882419999999,-1.051468,0.5963269600000001,1.13305911,10.3161265,72.2,-117.2,102.0,-51.5,20.0,223.3,-1016.2,-119.2,308.8,1018.9186,-3.4552499,4241.9,0.1013095719999999,0.098489278,0.0141882419999999,-0.108345612,-1.051468,-0.136215794,58500.0,30036.0,30070.0,145.5,-235.0,-11.5,0,None
2023-01-01 07:58:51,677.7008,0.1000999999999976,61.0,1386.5,22150.5,4899.5,97.0,1108.1,399.2,4904.3,89.858882,4.363215600000001,0.082428534,-0.06447463,-1.276301,58.496,0.092414044,-0.0589084059999999,-1.366196,0.7200587799999999,1.06172669,7.6085195,71.5,54.9,32.5,-33.0,2.5,210.1,-1039.3,-362.1,334.3,1018.9641,-3.4097107000000006,4241.9,0.092414044,0.039702596,-0.0589084059999999,0.0328237256,-1.366196,-0.35370314,58505.0,28262.0,30075.0,75.0,-246.5,-7.0,0,None
2023-01-01 07:58:52,678.7009999999999,0.0999999999999999,61.0,1454.5,22131.5,4898.5,97.0,1263.8,402.8,4904.6,90.05158200000001,4.421939199999999,0.068015034,-0.050459608,-1.5214713999999998,58.464,0.079510024,-0.049563346,-1.6102846,0.749748,1.1300383100000002,7.8460771,70.8,7.3,-36.7,16.0,25.8,234.2,-1027.1,-128.5,325.0,1018.9155,-3.4581952,4242.0,0.079510024,0.0398848156,-0.049563346,-0.004434368,-1.6102846,-0.117716208,58465.0,26800.0,30035.0,30.5,-271.0,-2.5,0,None
2023-01-01 07:58:53,679.7009999999999,0.0999999999999999,61.0,1065.0,22209.5,4898.0,97.0,1260.8,406.2,4904.1,90.277808,4.4791794,0.081028356,-0.0796325,-1.6018236,58.51199999999999,0.0917935399999999,-0.07800499,-1.6875814000000002,0.8276573,1.419624,11.4095333,89.2,9.0,-64.5,27.4,4.3,223.5,-1055.2,-93.1,325.7,1018.8898,-3.4837812,4242.1,0.0917935399999999,-0.0159404212,-0.07800499,-0.0393981068,-1.6875814000000002,-0.0944393919999999,58505.0,26361.5,30075.0,7.5,-287.5,-4.5,0,None
2023-01-01 07:58:54,680.7009999999999,0.0999999999999999,61.0,1434.0,22121.5,4897.5,97.0,1256.5,409.5,4902.5,90.543238,4.536301,0.103183734,-0.07691768,-1.6523858,58.586,0.11318302,-0.07374111,-1.7349492000000002,0.7558888699999999,1.1283092,10.683977099999998,67.4,-27.6,-92.8,50.3,22.9,221.1,-960.6,23.3,326.9,1018.8601,-3.5135546,4242.0,0.11318302,-0.00541022,-0.07374111,-0.016524276,-1.7349492000000002,0.025073148,58590.0,26044.5,30160.0,-12.0,-285.0,-16.5,0,None
2023-01-01 07:58:55,681.713,0.1040000000000077,61.0,1199.5,22207.0,4899.5,97.0,1180.7,413.2,4904.5,90.84035000000002,4.5942176,0.081932734,-0.058399516,-1.5817910000000002,58.604,0.091471154,-0.05300539,-1.6613702,0.6962842300000001,1.10161518,8.919017300000002,67.9,35.75,-68.6,44.4,-4.95,222.75,-1056.85,137.8,332.3,1018.862,-3.5116211,4242.05,0.091471154,-0.007787814,-0.05300539,0.0392150259999999,-1.6613702,0.14766579,58600.0,26435.0,30170.0,-33.5,-274.0,-16.0,0,None
2023-01-01 07:58:56,682.745,0.0999999999999999,61.0,1319.0,22166.0,4904.5,97.0,1155.2,416.4,4900.6,91.16507,4.6525113,0.088308584,-0.019590134,-1.4175462,58.61800000000001,0.096209448,-0.0138181512,-1.495006,0.85984305,1.18923328,10.3676987,62.4,2.7,-21.6,-5.1,-2.3,244.9,-1043.0,121.8,319.6,1018.9071,-3.4664454,4241.7,0.096209448,0.0140860399999999,-0.0138181512,0.020721834,-1.495006,0.14708411,58625.0,27397.5,30195.0,-27.5,-272.5,-17.5,0,None
2023-01-01 07:58:57,683.6934444444445,0.1023333333333261,60.5,1365.5,22145.0,4895.5,97.0,1365.0,419.6666666666667,4899.777777777777,91.45821222222224,4.703340555555556,0.087243048,-0.014373886,-1.3398686000000002,58.534000000000006,0.093854882,-0.00723503526,-1.4158814000000002,0.685981511111111,1.400127111111111,8.463164444444445,78.44444444444444,37.11111111111112,0.8888888888888888,-1.3333333333333333,-6.444444444444445,238.22222222222223,-1024.888888888889,37.888888888888886,317.55555555555554,1018.923888888889,-3.4496353333333336,4241.666666666667,0.093854882,-0.061440386,-0.00723503526,0.0501885119799999,-1.4158814000000002,0.04508045,58540.0,27868.5,30110.0,-21.0,-273.0,-13.5,0,None
2023-01-01 07:58:58,684.665,0.1019000000000005,60.0,1402.0,22150.5,4898.0,97.0,1411.6,423.6,4900.5,91.77302,4.756826,0.08329086,0.007867720908,-1.2804548,58.496,0.089012424,0.0147586684,-1.3559878,0.62247293,1.07129315,8.3444562,72.2,4.8,16.9,-5.6,-13.3,247.4,-1049.5,47.5,304.7,1018.9181,-3.4555937,4241.3,0.089012424,0.014937872,0.0147586684,0.01411081,-1.3559878,0.044140608,58495.0,28228.5,30065.0,-4.5,-274.5,-12.0,0,None
2023-01-01 07:58:59,685.6829999999999,0.1019999999999981,60.0,1271.5,22179.0,4899.5,97.0,1325.8,427.5,4902.9,92.06522800000002,4.8047576,0.069871058,0.0029988961999999,-1.2946648,58.52,0.075830214,0.0097437976,-1.3688547999999998,0.6273229899999999,1.11450733,7.303824800000001,64.2,-25.8,24.7,14.0,-6.7,251.8,-1053.4,-50.3,313.2,1018.9253,-3.4481406,4241.1,0.075830214,-0.011214838,0.0097437976,-0.0250190884,-1.3688547999999998,-0.05951582,58520.0,28177.0,30090.0,27.5,-267.0,-3.0,0,None
2023-01-01 07:59:00,686.703,0.1020000000000095,60.0,1143.0,22200.5,4899.0,97.0,1233.9,431.2,4905.4,92.359124,4.848317199999999,0.054349352,-0.039217254,-1.3863436,58.54600000000001,0.06150895,-0.031866562,-1.4587108,0.5553565399999999,1.16615554,7.373284600000001,53.1,-18.0,10.05,9.1,-27.6,240.3,-1038.55,-87.35,325.55,1018.9178,-3.4558085,4241.0,0.06150895,-0.0009282217999999,-0.031866562,-0.0420532193999999,-1.4587108,-0.0922010779999999,58545.0,27663.5,30115.0,34.5,-261.5,-6.0,0,None
2023-01-01 07:59:01,687.7209999999999,0.0999999999999999,60.0,1125.0,22205.0,4898.0,97.0,1269.9,434.5,4899.1,92.657564,4.8870718,0.06599353,-0.019977343,-1.4539145999999998,58.56,0.074403886,-0.013994518,-1.5244893999999998,0.63122765,1.0423985999999998,9.2129047,39.3,14.5,-15.3,26.9,0.1,237.9,-1045.8,-61.3,312.8,1018.8485,-3.5250781000000004,4240.8,0.074403886,0.0705937419999999,-0.013994518,-0.0160309259999999,-1.5244893999999998,-0.061434758,58560.0,27279.0,30130.0,33.5,-260.5,-13.5,0,None
2023-01-01 07:59:02,688.733,0.1019999999999981,60.0,1471.0,22112.0,4899.5,97.0,1338.6,438.1,4896.2,92.95371,4.921405399999999,0.0395159459999999,-0.083069414,-1.5477406000000002,58.622,0.0493690259999999,-0.077082092,-1.6151456,0.56282121,0.99858663,8.135395899999999,31.6,-16.0,-32.7,26.9,-29.4,220.3,-1031.1,-107.9,326.4,1018.8401,-3.533476499999999,4240.7,0.0493690259999999,-0.011835633,-0.077082092,-0.0205106394,-1.6151456,-0.1099594439999999,58620.0,26778.0,30190.0,31.5,-244.0,-21.0,0,None
2023-01-01 07:59:03,689.741,0.0999999999999999,60.0,1480.5,22088.0,4898.5,97.0,1296.7,441.9,4900.333333333333,93.26515,4.9516404000000005,0.0080682257199999,-0.067615206,-1.5882234,58.634,0.0196568298,-0.062070316,-1.653197,0.51666752,1.02897753,7.0047406,19.7,23.7,-33.3,19.7,1.8,222.7,-1024.2,25.7,324.7,1018.8674,-3.5062264,4240.0,0.0196568298,0.0112822821999999,-0.062070316,0.0109194786,-1.653197,0.0509574599999999,58635.0,26516.0,30205.0,-13.0,-251.0,-22.0,0,None
2023-01-01 07:59:04,690.7429999999999,0.0999999999999999,60.0,1289.5,22167.5,4896.5,97.0,1257.2,445.6,4899.6,93.5976,4.975406799999999,0.03822279,-0.0992674399999999,-1.711118,58.6225,0.0493532725,-0.095499205,-1.7739945,0.62006666,1.15920702,8.122198899999999,19.5,-8.0,-60.9,32.0,111.4,212.4,-1028.6,-313.5,342.6,1018.8703,-3.503328,4240.0,0.046845638,0.1140657599999999,-0.102984224,-0.05772434,-1.769996,-0.31481828,58620.0,25977.0,30190.0,-69.0,-267.5,-12.5,0,None
2023-01-01 07:59:05,691.7449999999999,0.0999999999999999,60.0,1017.0,22227.5,4898.0,97.0,1133.6,448.8,4899.1,93.917256,4.992983199999999,0.0389803184,-0.090473424,-2.0451006,58.618,0.0489405438,-0.0892025539999999,-2.1056674,0.73159073,1.5543766,12.512285,-11.9,7.8,-157.5,73.2,-71.8,191.1,-1044.8,-259.3,333.2,1018.8998,-3.4736249,4239.7,0.0489405438,-0.093483236,-0.0892025539999999,-0.0053921949999999,-2.1056674,-0.2574317,58620.0,23992.0,30190.0,-87.5,-210.5,-16.5,0,None
2023-01-01 07:59:06,692.741,0.0999999999999999,60.0,955.0,22257.0,4898.0,97.0,1023.2,451.7,4896.1,94.231614,5.008309,-0.0453570752,-0.064178494,-2.1968608,58.564,-0.0334670903999999,-0.064064198,-2.2501634,0.5428429699999999,1.2209804,11.9182899,-28.0,31.1,-170.1,13.8,-55.9,162.4,-1007.6,-35.0,342.5,1018.9394,-3.434336,4239.2,-0.0334670903999999,-0.074349526,-0.064064198,0.0190583364,-2.2501634,-0.0487676159999999,58565.0,23099.5,30135.0,-108.5,-176.0,-10.5,0,None
2023-01-01 07:59:07,693.7429999999999,0.0999999999999999,60.0,869.5,22276.5,4902.5,97.0,914.8,454.5,4896.8,94.520709,5.0198711000000005,-0.0039436639999999,-0.022199746,-2.179307,58.50599999999999,0.0072978099999999,-0.02185137076,-2.2280458000000003,0.60724134,1.4331562999999998,12.3905097,-32.0,49.8,-171.0,25.6,216.9,186.2,-1063.2,31.1,332.7,1018.9518,-3.4216952,4239.1,0.0072978099999999,0.2801460699999999,-0.02185137076,0.050610774,-2.2280458000000003,0.036340358,58510.0,23221.0,30080.0,-143.0,-199.5,-5.5,0,None
2023-01-01 07:59:08,694.7429999999999,0.0999999999999999,60.0,1155.5,22161.5,4901.0,97.0,1230.4,457.3,4901.5,94.72755399999998,5.021881800000001,0.1753725599999999,-0.053627152,-2.1506038,58.452,0.18088854,-0.05035102,-2.1944906,0.75193141,1.5127141,13.5037003,-0.3,-59.8,-226.6,38.6,18.5,181.9,-1092.8,28.2,293.6,1018.8889,-3.4848280000000003,4239.0,0.18088854,0.0129002228,-0.05035102,-0.014887294,-2.1944906,0.0268884359999999,58455.0,23421.5,30025.0,-73.5,-131.0,-7.0,0,None
2023-01-01 07:59:09,695.7449999999999,0.0999999999999999,60.0,1021.5,22215.5,4906.0,97.0,1086.5,460.7,4900.5,94.877826,5.0175334,0.124920426,-0.05634731,-2.121773,58.59,0.1334497,-0.049631926,-2.1572996,0.7761943899999999,1.25888733,11.0103373,20.4,38.2,-205.1,38.8,-83.8,183.0,-1058.8,2.2,304.2,1018.7857,-3.5881874,4238.8,0.1334497,-0.086547342,-0.049631926,0.0202761322,-2.1572996,0.011700308,58575.0,23634.5,30145.0,-10.0,-22.0,-11.5,0,None
2023-01-01 07:59:10,696.7430999999999,0.0999999999999999,60.0,827.5,22297.5,4899.5,97.0,868.1,463.3,4899.8,94.983626,5.015105999999999,0.1190076619999999,0.0133329396,-2.138211,58.73,0.127430062,0.0188933668,-2.1675482,0.87887872,1.2932944000000002,8.181923399999999,13.9,80.1,-199.8,-2.1,8.1,207.5,-1042.8,-18.5,303.8,1018.9031,-3.4704609,4238.2,0.127430062,0.0282723999999999,0.0188933668,0.104653848,-2.1675482,-0.0202682324,58735.0,23580.5,30305.0,20.5,39.0,-21.0,0,None
2023-01-01 07:59:11,697.6933333333333,0.1022222222222176,60.0,881.0,22260.5,4901.0,97.0,932.7777777777778,465.6666666666667,4901.222222222223,95.02349,5.010995888888889,0.0445381,0.014913291,-2.16257675,58.6,0.0532110924999999,0.019964813,-2.18651125,1.0083466444444444,1.3630783333333334,8.851259777777777,34.333333333333336,-30.77777777777778,-187.44444444444449,-1.0,-89.22222222222223,201.44444444444449,-1027.6666666666667,-7.555555555555555,307.6666666666667,1018.9356666666667,-3.438150777777778,4238.111111111111,0.0532110924999999,-0.0849873275,0.019964813,-0.0310003324999999,-2.18651125,-0.01230063675,58590.0,23469.5,30160.0,77.0,73.5,-18.5,0,None
2023-01-01 07:59:12,698.663,0.1019999999999981,60.5,648.0,22325.0,4900.5,97.0,702.8,468.0,4902.4,95.035888,5.0015598,0.0179016496,-0.0225193094,-2.169305,58.53,0.0263119176,-0.0184152482,-2.1893822,1.06305231,1.4968197,11.4317429,-9.4,-7.6,-170.5,-17.3,2.8,197.4,-993.4,-12.1,332.7,1018.9199999999998,-3.4537108,4238.0,0.0263119176,0.059517356,-0.0184152482,-0.0041264742,-2.1893822,-0.0078383119999999,58530.0,23457.0,30100.0,69.5,66.5,-2.5,0,None
2023-01-01 07:59:13,699.693,0.1019999999999981,61.0,986.5,22253.0,4889.5,97.0,976.6,470.3,4899.4,95.052078,4.9871052,0.0003770305999999,-0.0032248645999999,-2.1751524,58.518,0.0085782982,-0.0008607644,-2.1922884,1.12835281,1.3921769999999998,12.996467,67.2,36.1,-175.1,-6.8,49.6,206.7,-983.9,2.9,318.2,1018.8578,-3.5157499000000003,4237.9,0.0085782982,0.044374476,-0.0008607644,0.0529987808,-2.1922884,-0.00202097134,58520.0,23437.5,30090.0,49.0,12.0,-17.5,0,None
2023-01-01 07:59:14,700.713,0.1020000000000095,61.0,812.5,22313.0,4899.5,97.0,844.3,473.0,4900.4,95.07967,4.970828799999999,0.080264795,-0.0598540925,-2.17202225,58.586,0.0768480159999999,-0.0458840333,-2.185237,1.11957819,1.6400108000000002,11.678129799999995,47.0,-36.75,-191.65,44.85,45.95,182.9,-1038.4,0.0,316.8,1018.8933999999996,-3.4803164000000004,4237.35,0.0768480159999999,0.138328824,-0.0458840333,-0.115339416,-2.185237,0.0096429154,58600.0,23491.0,30170.0,50.0,-28.0,-13.0,0,None
2023-01-01 07:59:15,701.6998888888888,0.106666666666658,61.0,985.0,22215.5,4896.0,97.0,850.4444444444445,475.22222222222223,4898.0,95.0990511111111,4.956961444444444,0.056995782,-0.070081454,-2.1878532,58.592000000000006,0.06322937,-0.065440976,-2.1960806,1.1573206666666669,1.604747111111111,14.521373333333337,60.0,20.55555555555556,-193.55555555555557,37.77777777777778,-7.111111111111111,168.33333333333334,-1026.888888888889,-22.0,321.22222222222223,1018.8397777777776,-3.533871555555555,4237.0,0.06322937,-0.1066793279999999,-0.065440976,0.08458029,-2.1960806,-0.0170020465999999,58590.0,23412.0,30160.0,38.0,2.5,-24.5,0,None
2023-01-01 07:59:16,702.691,0.1019999999999981,61.0,810.5,22301.0,4892.5,97.0,872.9,477.8,4894.0,95.11695799999998,4.947859199999999,0.050837174,-0.079582622,-2.1999098,58.63199999999999,0.0595502959999999,-0.075567964,-2.20601,1.12371085,1.4976672,14.783759999999996,33.0,-36.4,-184.2,63.9,9.3,184.8,-1021.1,0.8,333.8,1018.7907,-3.5828905,4236.7,0.0595502959999999,0.08100338,-0.075567964,-0.062832766,-2.20601,0.0048664563,58640.0,23360.5,30210.0,16.0,-16.5,-18.5,0,None
2023-01-01 07:59:17,703.713,0.1020000000000095,61.0,957.5,22272.0,4899.0,97.0,939.3,480.1,4900.0,95.14667,4.944777400000001,0.09590915,-0.107216148,-2.1927592,58.718,0.104891464,-0.102052046,-2.1951304,1.1227439,1.4759832,14.506927,116.4,-10.05,-201.7,16.15,13.45,157.95,-1185.3,4.35,324.55,1018.7672,-3.6065312500000006,4236.4,0.104891464,0.0455911815999999,-0.102052046,0.015023502,-2.1951304,0.0260301548,58725.0,23427.0,30295.0,-1.5,-16.5,-32.0,0,None
2023-01-01 07:59:18,704.691,0.106666666666658,61.0,1260.0,22195.0,4892.5,97.0,1157.4444444444443,483.0,4900.222222222223,95.17789555555557,4.949301555555555,0.11777974,-0.0940878219999999,-2.1758242,58.728,0.12744934,-0.088852354,-2.1752290000000003,1.058585622222222,1.3465091111111112,10.864114,111.66666666666669,76.22222222222223,-206.66666666666663,68.22222222222223,14.444444444444445,169.44444444444446,-1072.888888888889,34.22222222222222,323.6666666666667,1018.7642222222224,-3.609444444444444,4235.666666666667,0.12744934,0.0034104161999999,-0.088852354,0.0097664674,-2.1752290000000003,0.019781246,58725.0,23567.0,30295.0,-16.5,0.0,-33.0,0,None
2023-01-01 07:59:19,705.6791000000001,0.1019999999999981,61.0,701.0,22335.5,4899.0,96.9,901.7,486.0,4900.4,95.189786,4.961687400000001,0.1209320439999999,-0.08870455,-2.1734782,58.758,0.12967318,-0.084010612,-2.1705846,1.10838467,1.7224963,14.597011999999998,72.2,-90.7,-204.4,71.3,-2.3,179.3,-998.0,-6.1,312.4,1018.8138,-3.559797,4234.8,0.12967318,-0.02552418,-0.084010612,-0.046364286,-2.1705846,-0.0078800522,58765.0,23559.5,30335.0,10.5,18.0,-21.5,0,None
2023-01-01 07:59:20,706.713,0.1020000000000095,61.0,831.0,22283.0,4901.0,96.0,951.3,488.5,4899.2,95.181318,4.9796034,0.0294016098,-0.09698435,-2.2548212,58.718,0.042039604,-0.091725428,-2.2481456,1.1403066599999998,1.6406263000000003,14.857272,116.35,122.75,-192.9,46.65,-153.9,153.45,-1036.7,-198.65,330.0,1018.8273,-3.54626935,4234.1,0.042039604,-0.128187,-0.091725428,0.059304258,-2.2481456,-0.245242972,58710.0,22961.5,30280.0,-31.0,19.0,-20.5,0,None
2023-01-01 07:59:21,707.7357999999999,0.1020999999999957,61.0,945.5,22280.5,4888.5,96.0,860.4,490.9,4898.3,95.16905799999998,4.9993074,-0.099006206,-0.03253472,-2.2556578,58.696000000000005,-0.084652984,-0.0314984799999999,-2.24836,1.3039134,1.6151444,16.748752,52.1,-20.0,-156.6,45.3,-7.3,181.5,-1075.8,301.9,342.0,1018.8538,-3.5197655,4233.4,-0.084652984,-0.015084122,-0.0314984799999999,0.0328551926,-2.24836,0.31235056,58690.0,23382.0,30260.0,-89.5,-105.5,-29.5,0,None
2023-01-01 07:59:22,708.7031111111112,0.1022222222222176,61.0,1090.5,22235.5,4904.5,96.0,1013.7777777777778,493.6666666666667,4905.0,95.14256666666668,5.0160118888888885,-0.0026600724,-0.080183564,-2.106685,58.586,0.0071646199999999,-0.0788368399999999,-2.0985008,0.9894599,1.5035383333333332,13.809826666666664,61.11111111111112,-7.222222222222222,-146.22222222222223,15.333333333333334,140.55555555555554,183.33333333333331,-983.2222222222222,-11.77777777777778,343.77777777777777,1018.8856666666666,-3.48796,4232.888888888889,0.0071646199999999,0.106533648,-0.0788368399999999,0.0062356998,-2.0985008,-0.0154442896,58570.0,23958.5,30140.0,-149.0,-208.5,-18.0,0,None
