00000_Time_epoch,00000_Time_boot_sec,00000_Span_Time_boot_sec,1_battery_remaining_avg,1_current_battery_avg,1_voltage_battery_avg,125_Vcc_avg,147_battery_remaining_avg,147_current_battery_avg,147_current_consumed_avg,165_Vcc_avg,168_direction_avg,168_speed_avg,178_pitch_avg,178_roll_avg,178_yaw_avg,182_altitude_avg,182_pitch_avg,182_roll_avg,182_yaw_avg,241_vibration_x_avg,241_vibration_y_avg,241_vibration_z_avg,27_xacc_avg,27_xgyro_avg,27_xmag_avg,27_yacc_avg,27_ygyro_avg,27_ymag_avg,27_zacc_avg,27_zgyro_avg,27_zmag_avg,29_press_abs_avg,29_press_diff_avg,29_temperature_avg,30_pitch_avg,30_pitchspeed_avg,30_roll_avg,30_rollspeed_avg,30_yaw_avg,30_yawspeed_avg,33_alt_avg,33_hdg_avg,33_relative_alt_avg,33_vx_avg,33_vy_avg,33_vz_avg,label,diagnosis
2022-12-29 11:56:28,135.348,-0.25,100.0,69.0,24372.0,4883.0,99.0,68.0,24.0,4882.0,-160.80695,0.19183345,0.00010069166,-0.01163869,-1.1539283333333332,42.85,0.0041956663333333,-0.0079486203333333,-1.1493883333333337,0.02611806,0.02451182,0.043899,-16.0,3.0,95.0,-2.0,5.0,249.0,-1072.0,0.0,329.0,1022.019,-0.08617187,3421.0,0.0041956663333333,0.0052186556666666,-0.0079486203333333,0.003282944,-1.1493883333333337,7.350783333333334e-05,42850.0,29415.0,-60.0,2.0,16.0,-36.0,0,None
2022-12-29 11:56:29,136.348,0.5,100.0,65.0,24367.5,4887.0,99.0,62.0,24.0,4871.5,-161.3145,0.1368812,-0.0001935240166666,-0.0116804408333332,-1.1537469166666665,42.73,0.0043090181666666,-0.00802720125,-1.149274,0.024041565,0.0237053149999999,0.0369066049999999,-14.0,3.0,95.0,-2.0,5.0,248.5,-1071.5,0.0,329.0,1022.022,-0.082890625,3423.0,0.0043090181666666,0.0051096110833333,-0.00802720125,0.0031431997499999,-1.149274,-0.0002293488175,42725.0,29416.0,-185.0,2.0,15.0,-38.5,0,None
2022-12-29 11:56:30,137.368,0.5099999999999909,100.0,97.0,24367.0,4885.0,99.0,113.5,24.0,4890.0,-160.2514,0.1641226499999999,2.4656483333350003e-05,-0.01209963,-1.15341675,42.61,0.0044207240833332,-0.0080866111666666,-1.149088916666667,0.07549951,0.21595819,0.909681265,-12.0,3.5,93.0,-3.5,6.5,246.5,-1071.0,26.0,330.0,1022.038,-0.06761718,3426.5,0.0044207240833332,0.0045847319999999,-0.0080866111666666,0.0026217950833333,-1.149088916666667,-0.0172232439974999,42615.0,29418.0,-295.0,2.0,15.0,-39.0,0,None
2022-12-29 11:56:31,138.3785,0.5105000000000075,100.0,107.5,24352.0,4890.0,99.0,103.5,24.5,4889.0,-159.1102,0.20478905,3.86276083333e-05,-0.01202986,-1.1536680833333333,42.55916666666667,0.0045815755,-0.00801965,-1.1489051666666668,0.1020395,0.27690375,0.6179475999999999,-19.5,0.5,87.5,-20.5,3.5,242.0,-1078.0,-35.5,328.5,1022.0635,-0.04167969,3429.0,0.0045766938333333,0.0052200226666666,-0.0080200071666666,0.0037188835499999,-1.1490725,0.0134225811666667,42570.0,29413.0,-340.0,3.0,15.5,-40.0,0,None
2022-12-29 11:56:32,139.409,0.5099999999999909,100.0,1470.5,23958.0,4889.0,99.0,924.5,26.0,4893.0,-158.52179999999998,0.24958855,0.0157071557666666,-0.0129290891666666,-1.1505100833333333,42.6025,0.0200156461666666,-0.0083998645833333,-1.1443561666666668,0.33778785,0.6224891499999999,2.55527995,-17.5,12.0,66.0,-21.5,-7.5,232.5,-1144.5,13.0,301.0,1022.286,0.1807031,3432.0,0.0200156461666666,0.0168580345,-0.0083998645833333,-0.0078873193333333,-1.1443561666666668,0.0114510292499999,42635.0,29448.5,-275.0,-4.0,23.0,5.5,0,None
2022-12-29 11:56:33,140.43900000000002,0.5200000000000102,100.0,1605.0,23903.0,4881.5,99.0,1646.0,30.0,4886.5,-157.55765,0.2730488,-0.0209786275833332,-0.0026891810333333,-1.14721375,43.99333333333333,-0.0168603845833332,0.0024128761,-1.1401156666666663,0.36466285,1.448999,4.7819725,-28.0,65.0,83.5,-22.0,-74.0,273.5,-1201.0,-0.5,306.5,1021.867,-0.2379687,3435.0,-0.0168603845833332,-0.0741054558333333,0.0024128761,0.0396339586666666,-1.1401156666666663,0.0065530155833333,44215.0,29468.5,1305.0,-26.5,21.5,176.5,0,None
2022-12-29 11:56:34,141.49,0.5304999999999893,100.0,1600.0,23890.0,4890.0,99.0,1707.0,34.5,4882.5,-154.62955,0.2762016499999999,-0.01865515906,0.0226971178333333,-1.1560123333333334,47.155,-0.0139457935,0.0273229843333332,-1.163449,0.3386671,1.3197100000000002,5.070889,-28.0,-7.5,80.0,-17.0,114.0,262.0,-1099.0,-20.5,278.5,1021.551,-0.5541015499999999,3438.5,-0.0139457935,0.0165947633333333,0.0273229843333332,-0.03027741125,-1.163449,-0.05072332,47435.0,29298.0,4525.0,-5.0,0.5,279.5,0,None
2022-12-29 11:56:35,142.281,0.521000000000015,100.0,1297.0,23952.0,4888.0,99.0,1345.0,38.0,4890.0,-150.4359,0.2665347,-0.0120578855,0.013446814,-1.18576,49.805,-0.00800585535,0.020192025,-1.197078,0.420161,1.342136,6.082771,-51.0,76.0,89.0,-59.0,-75.0,253.0,-855.0,15.0,313.0,1021.235,-0.8705469,3440.0,-0.00800585535,-0.046243873,0.020192025,0.1238203,-1.197078,0.003874575,50100.0,29154.0,7190.0,-5.0,11.0,266.0,0,None
2022-12-29 11:56:36,143.08100000000002,0.5300000000000011,100.0,1067.5,23998.5,4886.5,99.0,956.0,40.5,4887.0,-143.688,0.24838795,-0.0297290533333332,0.0443587366666666,-1.1533514166666667,51.590833333333336,-0.0253179366666666,0.0506852508333333,-1.161973,0.59549675,1.118109,4.6808685,-52.5,42.0,93.0,-16.5,78.5,262.0,-872.5,44.5,281.5,1021.0535,-1.051953,3443.0,-0.0253179366666666,0.000728696,0.0506852508333333,-0.03729847,-1.161973,0.0401349699999999,51745.0,29373.0,8835.0,13.0,23.0,116.5,0,None
2022-12-29 11:56:37,144.111,0.519999999999996,100.0,1120.0,23978.5,4890.0,99.0,1102.5,43.5,4885.0,-128.03115,0.24287555,-0.0411435366666666,-0.0158611294999999,-1.1510123333333333,52.53,-0.0356879466666666,-0.009154525,-1.1554746666666666,0.533973,1.2145355,7.2378275,-50.0,-39.5,109.5,-34.5,-3.0,235.0,-986.0,7.5,288.0,1020.989,-1.116367,3446.0,-0.0356879466666666,-0.0235679441666666,-0.009154525,-0.0440941963333333,-1.1554746666666666,-0.0127945344999999,52560.0,29386.0,9650.0,24.5,36.5,24.5,0,None
2022-12-29 11:56:38,145.14100000000002,0.5100000000000051,100.0,1180.5,23943.5,4891.5,99.0,1128.0,47.0,4886.0,-111.0277,0.2737663,-0.0591434983333332,0.0041386091666666,-1.167063,52.790000000000006,-0.054102335,0.0100177068333333,-1.1676522500000002,0.49266975,1.1873585000000002,3.213625,-63.5,60.5,101.5,-35.5,-6.0,251.5,-1095.5,-24.0,281.5,1020.9375,-1.167695,3449.5,-0.054102335,0.0035019739166666,0.0100177068333333,0.0474015191666666,-1.1676522500000002,-0.0050196478333333,52790.0,29312.5,9880.0,1.0,14.5,1.5,0,None
2022-12-29 11:56:39,146.2105,0.5394999999999897,100.0,1137.0,23947.0,4891.25,99.0,1083.0,50.0,4891.5,-95.48442,0.3567623,-0.0361469841666666,0.0238504841666666,-1.170181666666667,52.89,-0.0326483758333333,0.0282295133333333,-1.1667500833333333,0.4888346,1.1929575,6.4491265,-48.75,6.0,96.75,-34.5,24.0,268.5,-1033.75,3.5,297.25,1020.875,-1.2301755,3452.25,-0.0330599683333332,0.0272926405666666,0.0282888308333333,0.0106154491666666,-1.1670205833333331,0.0086187223333333,52885.0,29314.5,9975.0,7.5,4.5,-12.0,0,None
2022-12-29 11:56:40,147.231,0.5005000000000024,100.0,1107.0,23953.0,4891.5,99.0,1116.5,53.5,4870.5,-85.047585,0.4504317,-0.0354338808333332,0.0156494316666666,-1.1706436666666666,52.92333333333333,-0.0330138158333333,0.0215335141666666,-1.1650931666666666,0.5145388,1.5955075,6.984776,-36.5,14.0,96.5,-33.0,3.0,256.0,-999.0,21.0,301.0,1020.853,-1.2521485,3457.0,-0.0330138158333333,-0.00165912,0.0215335141666666,0.0033953474166666,-1.1650931666666666,-0.0066686104999999,52925.0,29324.0,10015.0,9.5,12.0,-23.5,0,None
2022-12-29 11:56:41,148.251,0.5100000000000051,100.0,1114.5,23941.5,4883.5,99.0,1128.5,56.5,4883.5,-77.365515,0.5485247,-0.0342110391666666,0.0285397141666666,-1.1714188333333333,52.92916666666666,-0.0318293283333333,0.0342059683333333,-1.1632269166666664,0.5733949,1.1330965,6.0278425,-65.5,2.5,103.5,-32.0,25.5,261.0,-1097.0,-10.5,295.0,1020.8355,-1.269453,3460.0,-0.03187247,0.01522693875,0.03407326,-0.0025081573333333,-1.1631839166666669,0.0077557161166665,52925.0,29333.5,10015.0,9.0,18.0,-29.0,0,None
2022-12-29 11:56:42,149.291,0.519999999999996,100.0,1103.5,23935.0,4890.0,99.0,1104.5,59.5,4885.5,-71.11426499999999,0.6592715499999999,-0.0358000725,0.0125343130833333,-1.1711133333333337,52.9675,-0.0329630025,0.0195117533333332,-1.159988,0.5336797,1.214755,8.4332055,-50.5,15.0,98.5,-31.0,26.5,262.0,-1171.5,5.5,297.5,1020.8365,-1.2684765,3462.5,-0.0329630025,0.0121764363333332,0.0195117533333332,0.0237125455,-1.159988,0.0011806637333333,52965.0,29347.5,10055.0,10.5,26.5,-29.5,0,None
2022-12-29 11:56:43,150.311,0.5100000000000051,99.5,1108.5,23932.5,4887.0,99.0,1067.0,63.0,4888.5,-66.98736500000001,0.7599146000000001,-0.0310723791666666,0.01761812775,-1.1670970833333332,52.99250000000001,-0.0287952599999999,0.0236237816666666,-1.1528918333333331,0.6046846,1.41817,9.171411,-56.5,10.5,89.0,-10.0,-5.0,260.5,-1018.0,0.0,303.5,1020.8565,-1.2485545,3466.5,-0.0287952599999999,-0.002953865,0.0236237816666666,-0.0242587075,-1.1528918333333331,0.0017421053333333,52995.0,29396.0,10085.0,10.5,33.0,-33.5,0,None
2022-12-29 11:56:44,151.331,0.5099999999999909,99.0,1132.0,23933.0,4885.0,99.0,1124.0,66.0,4885.0,-63.843535,0.86076635,-0.0578779858333333,0.0058154699166666,-1.1743100000000002,52.965833333333336,-0.0545627533333333,0.0129792118333332,-1.1574561666666665,0.5013568500000001,1.466657,9.342572,-58.5,1.0,112.0,-12.0,24.5,259.5,-1071.0,-13.5,296.5,1020.841,-1.2639065,3469.0,-0.0546585916666666,0.0034725015833333,0.0130077868333333,0.0089627980833333,-1.157397,0.0023633685,52965.0,29373.5,10055.0,9.0,30.0,-35.5,0,None
2022-12-29 11:56:45,152.351,0.5100000000000051,99.0,1127.5,23934.5,4882.5,99.0,1152.5,69.0,4881.5,-61.396575,0.96496445,-0.0374968749999999,0.0138992075,-1.18302175,52.97,-0.0345404741666666,0.0204001408333332,-1.1650215,0.4197824,1.679735,7.758043,-45.0,0.0,101.0,-36.5,38.5,248.5,-1024.5,3.5,291.5,1020.8255,-1.2793359999999998,3472.0,-0.0345404741666666,0.0297988783333333,0.0204001408333332,0.0082438853999999,-1.1650215,0.0035672119,52970.0,29328.5,10060.0,8.5,15.5,-31.5,0,None
2022-12-29 11:56:46,153.38150000000002,0.5204999999999984,99.0,1159.0,23930.5,4891.5,99.0,1113.0,72.0,4891.5,-59.29104,1.0740515,-0.0283611375,0.0142682483333333,-1.1823146666666666,52.98916666666666,-0.02577253,0.0212517816666666,-1.1625764166666666,0.55944735,1.2370155,6.795612,-56.0,12.0,93.0,-22.0,11.5,268.5,-1047.0,-11.5,301.5,1020.8175,-1.287344,3475.0,-0.02577253,-0.00315607325,0.0212517816666666,-0.0076484994166667,-1.1625764166666666,0.0026481836666666,52985.0,29339.5,10075.0,8.0,17.5,-34.5,0,None
2022-12-29 11:56:47,154.423,0.5210000000000008,98.5,1086.0,23926.0,4891.5,99.0,1144.0,76.0,4894.5,-57.70244,1.160228,-0.0277508083333333,0.0034748212916666,-1.1895520833333333,53.03916666666667,-0.0247137066666666,0.0109146286666666,-1.1676831666666665,0.47468425,1.500689,7.220815,-56.0,-9.5,93.0,-60.0,34.5,263.5,-1023.0,4.5,311.0,1020.811,-1.293828,3478.5,-0.0247137066666666,-0.0190691083333333,0.0109146286666666,-0.0119620094999999,-1.1676831666666665,-0.0048347333333333,53035.0,29316.0,10125.0,5.5,24.5,-33.5,0,None
2022-12-29 11:56:48,155.464,0.519999999999996,98.0,1137.0,23908.0,4894.0,99.0,1157.0,79.0,4889.5,-56.49037,1.235112,-0.0415286891666666,0.0209320811666666,-1.18941275,53.07,-0.0378182516666666,0.0288113408333333,-1.1659853333333334,0.4776582,1.327272,8.1003335,-58.0,46.0,96.0,-18.0,0.0,266.5,-1083.5,-1.5,296.0,1020.785,-1.3202729999999998,3481.0,-0.0378182516666666,-0.02072291875,0.0288113408333333,0.0360033445,-1.1659853333333334,0.0092931227499999,53065.0,29318.5,10155.0,-7.5,24.5,-39.0,0,None
2022-12-29 11:56:49,156.50400000000002,0.5200000000000102,98.0,1101.5,23899.5,4886.5,99.0,1099.5,82.0,4901.0,-55.25092,1.3137495,-0.0396396149999999,0.0285783608333333,-1.1894660833333337,53.126666666666665,-0.0357999808333333,0.0359948799999999,-1.164046666666667,0.4873922,1.4102915,9.793628,-40.0,-14.5,94.5,-37.5,61.0,278.0,-980.0,8.0,301.0,1020.7955,-1.309883,3484.0,-0.0357999808333333,0.037366524,0.0359948799999999,-0.0179213978333332,-1.164046666666667,0.0121501207,53120.0,29324.5,10210.0,5.0,14.0,-41.5,0,None
2022-12-29 11:56:50,157.5545,0.1734999999999994,98.0,1059.5,23923.0,4891.5,99.0,1114.8333333333333,86.16666666666667,4889.666666666667,-54.07458,1.383154333333333,-0.004256976111111,0.0170545088888888,-1.1626082222222225,53.09777777777777,-0.0016166366666666,0.0250773355555555,-1.1359728888888887,0.56054785,1.4189231666666666,9.976449666666667,-18.0,4.0,97.5,-43.0,-12.5,273.0,-1106.5,64.0,315.5,1020.8545,-1.250781,3486.5,-0.0016166366666666,-0.0569260033333333,0.0250773355555555,0.0107647777777777,-1.1359728888888887,0.0166032894444444,53120.0,29449.0,10210.0,9.0,25.5,-38.5,0,None
2022-12-29 11:56:51,158.355,0.0999999999999999,98.0,1234.5,23859.0,4891.5,99.0,1208.7,89.1,4885.8,-53.13487999999999,1.4233091999999998,-0.1332049839999999,0.0099023094,-1.1695744,53.078,-0.128327954,0.018856718,-1.1426462000000002,0.49870493,1.4605119,8.792994400000001,-41.5,35.0,134.5,-45.0,-161.5,282.0,-1116.0,-25.5,292.0,1020.769,-1.336211,3490.0,-0.128327954,-0.15040977,0.018856718,0.0154208613999999,-1.1426462000000002,-0.0294192956,53065.0,29468.5,10155.0,14.0,10.5,-29.0,0,None
2022-12-29 11:56:52,159.32477777777777,0.1022222222222208,97.0,1008.5,23929.5,4893.0,99.0,1069.111111111111,92.11111111111111,4894.222222222223,-52.11723444444444,1.4645365555555554,-0.131569838,0.0092577618,-1.1898779999999998,53.564,-0.1264368659999999,0.0157233545999999,-1.16268,0.4821236222222221,1.3303078888888888,9.551717777777778,-38.5,-27.5,127.5,-26.0,78.0,259.0,-1026.5,8.0,291.5,1020.7545,-1.3508205,3492.5,-0.1264368659999999,0.094897198,0.0157233545999999,0.0028097287999999,-1.16268,0.0009687878,53515.0,29338.5,10605.0,71.5,-119.5,20.5,0,None
2022-12-29 11:56:53,160.2768,0.0999999999999999,97.0,1018.5,23909.0,4891.5,99.0,1111.6,94.9,4892.5,-51.371638,1.4989746000000004,-0.09539392,0.0113684581999999,-1.1966842,54.16,-0.093850588,0.0177628996,-1.1699514,0.63790113,1.4679727,8.386659400000001,-78.5,16.5,123.0,-8.0,-187.5,270.0,-1038.0,-31.0,303.5,1020.7735,-1.3315625,3495.5,-0.093850588,-0.0690828884,0.0177628996,-0.013223336,-1.1699514,-0.0335200671999999,54120.0,29318.5,11210.0,99.0,-187.5,36.0,0,None
2022-12-29 11:56:54,161.2886,0.102000000000001,97.0,1214.0,23861.5,4894.0,99.0,1258.0,98.5,4889.8,-50.74608800000001,1.5325298,-0.14301592,-0.0116010407799999,-1.2175284,54.8,-0.14159472,-0.0031424114,-1.1903596,0.5207063200000001,1.7010576,8.5757162,-73.5,-20.0,127.5,-21.5,67.0,276.0,-1067.0,5.5,304.0,1020.636,-1.469023,3498.0,-0.14159472,0.0052174910999999,-0.0031424114,0.018612308,-1.1903596,-0.001214189,54750.0,29176.5,11840.0,129.5,-249.0,43.0,0,None
2022-12-29 11:56:55,162.2893333333333,0.1088888888888877,97.0,1349.5,23820.5,4893.0,99.0,1291.4444444444443,101.88888888888889,4889.0,-50.33929111111112,1.5653965555555558,-0.13923268,0.0077379463999999,-1.2071662,55.626,-0.13748794,0.0155168699999999,-1.1810902,0.5088352555555555,1.6188280000000002,9.621770111111111,-92.5,25.0,125.5,-26.0,58.5,252.0,-1058.0,15.5,276.5,1020.536,-1.5689845,3500.5,-0.13748794,0.0403179516999999,0.0155168699999999,0.0186496684,-1.1810902,0.0051251812,55555.0,29235.5,12645.0,141.0,-322.0,46.0,0,None
2022-12-29 11:56:56,163.2917,0.1021000000000014,97.0,1141.0,23858.5,4890.0,99.0,1138.5,105.2,4887.7,-50.097704,1.5997168,-0.1443731,0.002398495,-1.2130864,56.628,-0.14333256,0.0087677179999999,-1.1863286,0.6552733099999999,1.3493037,7.829673100000001,-103.5,67.0,129.5,-22.0,-15.0,255.0,-967.5,-6.0,289.0,1020.4395,-1.665586,3503.5,-0.14333256,-0.0202499361999999,0.0087677179999999,-0.022576998,-1.1863286,-9.499300000000156e-05,56530.0,29184.5,13620.0,168.5,-372.0,70.5,0,None
2022-12-29 11:56:57,164.296,0.0999999999999999,96.0,1150.0,23860.5,4891.5,99.0,1203.3,108.5,4895.4,-50.019598,1.632573,-0.16411556,0.0051774408,-1.215358,57.638,-0.16300146,0.0108841406,-1.1882823999999998,0.6748664900000001,1.6208676,9.240700800000004,-130.0,24.0,138.0,-12.0,-60.0,249.0,-1131.0,-48.5,295.5,1020.2715,-1.833633,3506.0,-0.16300146,-0.0577092139999999,0.0108841406,0.0300004382,-1.1882823999999998,0.0027982088,57545.0,29185.5,14635.0,183.5,-423.5,66.0,0,None
2022-12-29 11:56:58,165.32,0.1039999999999991,96.0,940.5,23921.0,4893.0,99.0,1275.3,112.1,4888.2,-50.0606,1.6650434,-0.16888092,0.0175566942,-1.2118276,58.832,-0.16857912,0.023082632,-1.1844476,0.7806771100000001,1.4576553,10.6964555,-122.5,77.5,138.0,-40.5,-106.5,255.0,-1039.5,38.0,283.5,1020.125,-1.9803125,3508.5,-0.16857912,-0.054230686,0.023082632,0.0064776114,-1.1844476,-0.002167313,58715.0,29211.0,15805.0,202.5,-475.0,80.0,0,None
2022-12-29 11:56:59,166.336,0.0999999999999999,96.0,1226.5,23833.5,4888.0,99.0,1217.4,115.5,4885.7,-50.137218,1.6993906,-0.1627648599999999,0.013397912,-1.2060863999999998,60.27,-0.1645239399999999,0.0194299459999999,-1.1784576000000002,0.74382412,1.7949891,11.6131011,-144.5,-14.0,148.0,19.0,28.0,277.0,-1054.5,-8.0,297.0,1019.9195,-2.1857420000000003,3511.5,-0.1645239399999999,0.0473829908,0.0194299459999999,-0.0102354815999999,-1.1784576000000002,-0.0005516555999999,60130.0,29242.5,17220.0,227.5,-513.5,85.0,0,None
2022-12-29 11:57:00,167.344,0.102000000000001,96.0,1264.0,23810.5,4895.5,99.0,1188.4,118.8,4890.0,-50.205338000000005,1.7346929999999996,-0.14360888,0.0117730334,-1.2099886000000002,61.73199999999999,-0.14642366,0.01842413,-1.1815412,0.73915302,1.6733169,11.4162991,-150.0,-6.5,138.0,-32.5,35.5,243.0,-997.5,3.5,275.5,1019.7735,-2.3315625,3514.0,-0.14642366,0.0127876839999999,0.01842413,0.01489081718,-1.1815412,-0.0099757952,61610.0,29234.0,18700.0,241.0,-539.5,83.5,0,None
2022-12-29 11:57:01,168.3237777777778,0.1022222222222208,96.0,1249.0,23818.5,4896.5,99.0,1215.2222222222222,122.0,4894.333333333333,-50.24903,1.7674796666666666,-0.15132765,0.011898694,-1.21111325,62.91,-0.15440285,0.0178834675,-1.181005,0.7351841666666667,1.5872722222222224,11.543679555555554,-150.0,-1.5,138.5,-46.0,-15.0,255.5,-1069.0,-10.5,297.0,1019.649,-2.4560545,3516.5,-0.15440285,-0.031322285,0.0178834675,-0.01910186275,-1.181005,-0.015470837,62925.0,29233.5,20015.0,248.0,-554.5,86.5,0,None
2022-12-29 11:57:02,169.3004,0.1040999999999996,96.0,1207.5,23822.0,4890.5,99.0,1102.0,125.3,4895.7,-50.219846,1.7924531999999995,-0.103139644,0.0191745119999999,-1.2111428000000002,64.14,-0.1070393339999999,0.025873044,-1.1801652,0.83390644,1.5530374999999998,10.3663654,-135.5,-21.5,134.0,-24.5,197.0,263.5,-1029.5,-8.5,285.5,1019.4905,-2.6147655,3518.5,-0.1073465939999999,0.100103336,0.025917416,0.039738748,-1.1801932000000002,0.0015026184,64295.0,29237.5,21385.0,240.0,-564.5,96.5,0,None
2022-12-29 11:57:03,170.35690000000002,0.1039999999999991,96.0,970.5,23889.5,4887.0,99.0,921.4,128.2,4886.9,-49.969961,1.8077663,0.0465002268333333,0.0429417716666666,-1.2016220000000002,65.64166666666667,0.0409658861666666,0.04902575,-1.169561,0.9857190699999998,1.468425,10.0813958,-158.5,-15.5,63.5,-78.5,91.0,250.5,-1081.0,-3.5,285.5,1019.5255,-2.5796485,3521.5,0.0409658861666666,0.0490067633333333,0.04902575,0.015008931,-1.169561,0.0164475781666666,65670.0,29299.5,22760.0,197.5,-465.5,101.5,0,None
2022-12-29 11:57:04,171.35899999999998,0.0999999999999999,96.0,1043.0,23854.5,4885.0,99.0,1039.0,130.9,4884.5,-49.274234,1.8012232,0.02640304,0.050428666,-1.1940546,67.04,0.024755222,0.058155698,-1.1595764000000002,0.71150595,1.37630122,11.7000267,-142.0,-28.5,71.5,-57.5,-61.0,270.5,-1053.0,-16.5,319.0,1019.2545,-2.8510155,3524.0,0.024755222,-0.0346591396,0.058155698,0.0157987352,-1.1595764000000002,-0.0069154572,66910.0,29357.5,24000.0,143.5,-320.0,112.0,0,None
2022-12-29 11:57:05,172.33144444444443,0.1044444444444473,96.0,1029.0,23874.0,4888.5,99.0,1000.2222222222222,133.66666666666666,4892.777777777777,-48.154268888888886,1.788486,0.04094024,0.0509011949999999,-1.2006385,68.3224975,0.041244485,0.0601742874999999,-1.1642942500000002,0.6055263666666667,1.4932888888888889,10.934506111111112,-99.5,-13.0,79.0,-77.5,49.0,264.5,-922.0,5.5,295.5,1019.0365,-3.0686720000000003,3526.5,0.041244485,0.06273839,0.0601742874999999,0.005026572575,-1.1642942500000002,-0.00336343425,68345.0,29330.0,25435.0,97.5,-205.5,85.0,0,None
2022-12-29 11:57:06,173.32520000000002,0.1060999999999978,96.0,860.5,23908.0,4893.0,99.0,863.4,136.2,4884.3,-46.888186,1.7812900000000005,0.041168434,0.062432706,-1.1880128,69.259998,0.042040948,0.071950896,-1.149623,0.61997229,1.5052729999999996,10.5570909,-103.5,-2.5,84.0,-48.0,-22.5,279.5,-1003.5,-12.0,310.0,1018.97,-3.1353905,3528.5,0.042040948,-0.0032638479999999,0.071950896,-0.00071057754,-1.149623,0.0204853876,69325.0,29420.5,26415.0,68.0,-93.5,2.0,0,None
2022-12-29 11:57:07,174.32577777777774,0.1022222222222239,96.0,989.0,23869.0,4879.0,99.0,977.5555555555557,138.77777777777777,4894.666666666667,-45.37718111111111,1.7816718888888887,0.0174160178,0.022058668,-1.1803762,69.372,0.0202585088,0.0321388919999999,-1.1415624,0.5962343555555555,1.58093,13.41024,-51.0,-79.5,87.5,-12.5,22.5,248.0,-1030.0,-1.5,303.5,1018.936,-3.169258,3531.0,0.0202585088,0.04611953,0.0321388919999999,-0.0275742597,-1.1415624,-0.01536442,69365.0,29461.5,26455.0,47.5,-26.0,-37.5,0,None
2022-12-29 11:57:08,175.27800000000002,0.0999999999999999,96.0,1021.0,23920.5,4895.5,99.0,1014.6,141.3,4889.7,-44.070984,1.7867314999999997,0.0609786359999999,0.011735966,-1.1858388,69.38999999999999,0.0620278179999999,0.023129214,-1.1471124,0.53277664,1.5712275000000002,13.421788,-59.0,10.0,72.0,-67.5,9.5,250.0,-1112.5,-20.0,304.5,1018.935,-3.1702345000000003,3533.5,0.0620278179999999,0.0041860219999999,0.023129214,-0.002213265,-1.1471124,0.001828888,69395.0,29426.0,26485.0,0.5,44.5,-37.5,0,None
2022-12-29 11:57:09,176.2845,0.1020999999999986,95.0,1047.0,23859.5,4888.5,99.0,1058.5,144.3,4889.3,-42.879048,1.7949855999999995,0.05678026,0.01479635,-1.1941323999999998,69.44,0.0581108039999999,0.026448452,-1.1554712,0.51329349,1.5146554,11.6352016,-36.5,-5.0,61.0,-10.5,21.0,258.0,-1048.0,11.0,315.5,1018.8835,-3.221836,3535.5,0.0581108039999999,-0.0051112168,0.026448452,0.005730854,-1.1554712,0.01193935128,69445.0,29377.0,26535.0,-50.0,123.0,-43.0,0,None
2022-12-29 11:57:10,177.2801111111111,0.1066666666666675,95.0,1083.5,23850.5,4894.0,99.0,1088.111111111111,147.22222222222223,4892.555555555556,-41.94879,1.810822,0.0506183875,0.0208142775,-1.1936495,69.495,0.0523179375,0.03180393,-1.1562972500000002,0.4939231111111112,1.1694015555555557,8.715311111111113,-41.0,5.0,72.5,-37.5,6.0,264.0,-973.5,-10.5,311.0,1018.8415,-3.2638285,3537.5,0.0523179375,0.0003516735,0.03180393,0.00571726575,-1.1562972500000002,0.0040275945,69490.0,29375.0,26580.0,-82.0,176.0,-48.0,0,None
2022-12-29 11:57:11,178.30700000000002,0.1079999999999983,95.0,1152.0,23821.0,4900.0,99.0,1131.0,150.4,4889.8,-41.020050000000005,1.8350404000000005,0.067332864,0.02050937,-1.1945637999999998,69.512,0.06851443,0.030744726,-1.1583702,0.44860765,1.2779913,9.1413752,-35.0,-5.5,69.0,-60.0,31.0,267.5,-1115.5,2.0,323.5,1018.878,-3.2271875000000003,3540.5,0.06851443,0.0378196504,0.030744726,0.0064016452,-1.1583702,-0.015189079,69503.33333333333,29366.33333333333,26593.33333333333,-116.33333333333331,243.0,-48.0,0,None
2022-12-29 11:57:12,179.339,0.0999999999999999,95.0,1172.0,23814.5,4887.5,99.0,1203.9,153.8,4886.7,-40.23055,1.8622234,0.086765408,0.019683958,-1.1971768,69.47599999999998,0.087866858,0.029758582,-1.1625212,0.44687355,1.5219529,9.1468405,-19.0,15.0,54.0,-47.0,-45.5,261.5,-1155.5,4.5,324.0,1018.917,-3.188281,3542.5,0.087866858,-0.0416080976,0.029758582,0.0092985182,-1.1625212,-0.026203904,69460.0,29316.0,26550.0,-167.0,343.5,-44.5,0,None
2022-12-29 11:57:13,180.3394,0.1001000000000004,95.0,1211.5,23801.0,4886.5,99.0,1202.8,157.2,4883.9,-39.490546,1.8895118000000004,-0.1063146841999999,0.0285283359999999,-1.2108176,69.41799799999998,-0.1006499322,0.038650386,-1.1796452,0.42365857,1.8057979,10.6675742,-26.0,36.5,112.5,-92.0,-175.5,258.5,-1005.0,13.0,302.0,1018.9495,-3.1554295,3544.0,-0.1006499322,-0.1770117539999999,0.038650386,0.035972327,-1.1796452,-0.0161221039999999,69410.0,29248.5,26500.0,-142.5,286.5,-37.5,0,None
2022-12-29 11:57:14,181.3276666666667,0.1065555555555559,95.0,1181.5,23801.0,4875.0,99.0,1189.111111111111,160.33333333333334,4881.222222222223,-38.77013777777778,1.9143844444444444,-0.127811998,0.048128278,-1.1979922,69.41,-0.1234050839999999,0.0574424579999999,-1.1698774,0.4013285555555556,1.6594722222222225,8.96881222222222,-33.5,-5.0,129.5,-28.5,5.0,286.0,-1220.5,9.0,289.5,1018.943,-3.161836,3546.5,-0.1234050839999999,0.0793924172,0.0574424579999999,0.0276795181999999,-1.1698774,0.0093672304,69410.0,29302.0,26500.0,-88.0,195.0,-38.0,0,None
2022-12-29 11:57:15,182.3258,0.1040999999999996,95.0,1193.0,23795.5,4868.5,98.0,1153.4,163.7,4881.4,-38.117830000000005,1.9431064,-0.028871892,0.19276958,-1.191524,69.41,-0.029030314,0.20015738,-1.1681566,0.4935248599999999,1.7488802000000003,11.6089006,-44.5,170.0,98.0,-29.0,37.0,300.5,-990.5,-3.5,251.5,1018.884,-3.221133,3548.5,-0.029030314,0.024355922,0.20015738,0.132054308,-1.1681566,0.0011319698,69405.0,29302.5,26495.0,-24.0,170.0,-38.0,0,None
2022-12-29 11:57:16,183.3165555555556,0.1044444444444441,95.0,947.0,23831.5,4886.5,98.0,1009.6666666666666,166.77777777777777,4891.222222222223,-37.53451111111111,1.979111,-0.092009218,0.057565196,-1.1835336,69.464,-0.092253622,0.0684763,-1.159754,0.4882634666666667,1.7512913333333333,13.497113333333331,-54.0,-250.0,117.5,-91.5,-95.5,295.0,-1011.0,15.5,285.5,1018.887,-3.2185545,3550.5,-0.092253622,-0.056286206,0.0684763,-0.2976345,-1.159754,0.0216466448,69450.0,29344.5,26540.0,114.5,212.5,-36.0,0,None
2022-12-29 11:57:17,184.3039,0.1058999999999997,95.0,978.0,23851.0,4891.5,98.0,968.4,169.3,4893.4,-36.919402,2.0208242,-0.073478134,-0.1065405779999999,-1.1869826,69.404,-0.072876558,-0.092455918,-1.1675088,0.5347634899999999,1.7796485,13.347409000000004,-55.0,-50.0,118.0,-36.5,62.0,198.0,-1058.5,-6.0,315.5,1019.0185,-3.0867185,3553.5,-0.072876558,0.1029522298,-0.092455918,-0.028582756326,-1.1675088,-0.0038093881779999,69435.0,29326.0,26525.0,86.5,120.0,-42.0,0,None
2022-12-29 11:57:18,185.3239,0.0981000000000022,95.0,1075.0,23827.0,4889.0,98.0,1059.3,172.3,4895.5,-36.486946,2.060337,-0.022694122,-0.108614138,-1.169737,69.24199999999999,-0.0238050439999999,-0.09845613,-1.1537562,0.55094467,1.4730180000000002,11.6587249,-70.0,20.5,106.0,-30.0,-23.0,206.5,-1016.0,12.0,334.5,1019.037,-3.068594,3554.5,-0.0238050439999999,-0.02814239,-0.09845613,0.037023126,-1.1537562,0.0115002685999999,69265.0,29370.5,26355.0,-44.0,50.0,-27.0,0,None
2022-12-29 11:57:19,186.364,0.1060000000000002,95.0,1141.0,23816.5,4873.5,98.0,1154.1,175.5,4887.1,-36.140374,2.0985600000000004,-0.070526216,0.037836317,-1.1765168,69.18799600000001,-0.069127,0.0439717602,-1.1637026,0.4744584,1.4928575,8.4826229,-36.5,275.5,103.5,-23.0,-69.5,240.5,-1089.5,-15.0,305.5,1019.0375,-3.06793,3557.0,-0.069127,-0.0305839032,0.0439717602,0.16534221,-1.1637026,-0.0074641529999999,69190.0,29361.0,26280.0,-138.5,14.0,-20.0,0,None
2022-12-29 11:57:20,187.35444444444445,0.1044444444444441,95.0,1207.5,23781.0,4875.5,98.0,1190.888888888889,178.66666666666666,4898.111111111111,-35.81903222222222,2.1373564444444444,-0.177315675,0.0515757725,-1.19376475,69.2099975,-0.1739557499999999,0.05585416,-1.18060225,0.4592583444444444,1.9197918888888887,8.937602,-42.5,-118.5,137.5,-82.0,-126.5,279.0,-991.0,23.5,273.0,1019.0015,-3.103867,3559.5,-0.1739557499999999,-0.083278285,0.05585416,-0.1057363124999999,-1.18060225,-0.0059365685,69205.0,29242.0,26295.0,-68.5,-28.5,-17.5,0,None
2022-12-29 11:57:21,188.34580000000005,0.1058999999999997,94.0,1019.0,23823.5,4886.5,98.0,1032.6,181.9,4893.2,-35.530504,2.1759038,-0.053766806,0.040244596,-1.1901322,69.276,-0.052109374,0.047394978,-1.1777444,0.54397753,1.3296129,8.295434100000001,-65.5,13.0,109.5,-32.0,201.5,259.0,-1121.5,6.5,277.0,1018.979,-3.126484,3560.5,-0.052109374,0.236791012,0.047394978,0.0279489024,-1.1777444,-0.0021810868,69280.0,29253.0,26370.0,-14.5,-113.0,-20.0,0,None
2022-12-29 11:57:22,189.33644444444445,0.1023333333333324,94.0,1035.0,23812.0,4886.5,98.0,1041.7777777777778,184.55555555555557,4892.666666666667,-35.27766666666667,2.215307111111111,0.077246705,0.02129243125,-1.1663640000000002,69.33399999999999,0.078738242,0.027960196,-1.1528782,0.5113788666666665,1.4674624444444444,11.399824888888888,-62.5,-75.0,64.0,-48.0,-2.0,270.5,-1101.5,0.5,301.5,1018.945,-3.1605075,3563.0,0.078738242,-0.0318019419999999,0.027960196,-0.02706374,-1.1528782,-0.00277040614,69335.0,29397.5,26425.0,-37.5,-9.0,-30.0,0,None
2022-12-29 11:57:23,190.322,0.1039999999999991,94.0,1119.0,23807.5,4878.5,98.0,1120.4,187.7,4891.7,-34.988637999999995,2.2531942000000003,-0.0887239059999999,0.0609562819999999,-1.1741154,69.372,-0.08433032,0.069543242,-1.1621126,0.4908881000000001,1.3959098,9.3495244,-66.0,8.5,107.0,-33.0,-125.0,275.0,-1065.5,-1.0,287.0,1018.928,-3.177109,3565.0,-0.08433032,-0.08547843,0.069543242,0.043042012,-1.1621126,0.0344048794,69375.0,29321.5,26465.0,-46.0,38.0,-35.0,0,None
2022-12-29 11:57:24,191.3322222222222,0.1066666666666675,94.0,1146.5,23784.5,4889.0,98.0,1088.7777777777778,190.66666666666663,4886.444444444444,-34.75619666666667,2.287882888888889,-0.06283918,0.042644545,-0.90305305,69.4274975,-0.0610971674999999,0.0523489425,-0.8913901999999999,0.5913229000000001,1.5834774444444446,8.494413111111111,-86.0,1.5,163.0,-38.5,106.5,260.0,-1053.5,351.0,291.5,1018.951,-3.1542575,3567.0,-0.0610971674999999,0.0717773975,0.0523489425,-0.0129604,-0.8913901999999999,0.38319808,69425.0,31040.0,26515.0,8.5,19.5,-38.0,0,None
2022-12-29 11:57:25,192.33,0.1060000000000002,94.0,1109.0,23787.0,4882.5,98.0,1103.0,193.7,4885.4,-34.52318,2.3265218,-0.0466025859999999,0.013659271,-0.97695452,69.37,-0.0460445719999999,0.023500356,-0.96719946,0.45650837,1.360573,7.5964191,-54.5,-36.0,167.0,-52.0,-11.0,212.0,-1058.5,-383.0,274.0,1018.9645,-3.140352,3568.5,-0.0460445719999999,-0.0150734509999999,0.023500356,-0.02005886592,-0.96719946,-0.44946458,69360.0,29839.5,26450.0,5.5,21.5,-34.0,0,None
2022-12-29 11:57:26,193.3432222222222,0.108777777777776,94.0,1073.5,23810.5,4893.0,98.0,1052.111111111111,196.88888888888889,4892.888888888889,-34.30195666666666,2.362982222222222,-0.050628978,0.026351256,-1.283015,69.43,-0.047340954,0.036074478,-1.2759728,0.5976588444444445,1.6573281111111111,11.291402111111111,-78.5,39.5,72.0,-92.5,-8.0,276.0,-1047.0,-16.0,316.5,1018.8515,-3.25375,3570.5,-0.047340954,-8.751340000000136e-05,0.036074478,0.0347980968,-1.2759728,-0.008006646,69455.0,28723.0,26545.0,0.0,14.0,-36.5,0,None
2022-12-29 11:57:27,194.328,0.1001000000000004,94.0,1057.5,23812.0,4875.5,98.0,1054.7,199.8,4891.7,-34.176644,2.3960723999999995,-0.045314594,0.049860916,-1.2494454,69.48400000000001,-0.0421122659999999,0.0590472259999999,-1.243306,0.4910923599999999,1.4396239,11.3823126,-57.0,20.0,79.5,-55.5,-6.0,276.5,-1093.0,35.0,284.0,1018.902,-3.203203,3572.5,-0.0421122659999999,0.00452163728,0.0590472259999999,0.0084834662,-1.243306,0.0135183216,69455.0,28883.5,26545.0,8.5,19.0,-53.5,0,None
2022-12-29 11:57:28,195.32333333333332,0.1066666666666675,94.0,1165.5,23784.5,4894.0,98.0,1170.6666666666667,202.66666666666663,4893.777777777777,-34.04789333333334,2.429458777777777,-0.03980629,0.037791104,-1.2506415999999998,69.21799999999999,-0.03620685,0.04655615,-1.2445642,0.4996720777777777,1.5069073333333334,10.256797222222223,-45.0,-15.5,81.5,-50.5,-0.5,287.0,-1170.5,12.0,299.5,1018.9025,-3.203008,3574.5,-0.03620685,-0.0132771666,0.04655615,-0.0205222764,-1.2445642,-0.012165578,69180.0,28878.0,26270.0,17.0,24.0,-57.0,0,None
2022-12-29 11:57:29,196.32,0.1039999999999991,94.0,1076.0,23799.0,4891.0,98.0,1077.2,205.9,4894.1,-33.873874,2.464961,-0.0512428099999999,0.0334296819999999,-1.2559312,69.27199999999999,-0.046935036,0.041795132,-1.2503182,0.49493986,1.3180185,9.034767400000002,-56.5,6.5,82.5,-28.5,17.0,259.5,-1067.0,-4.0,275.0,1018.889,-3.216523,3576.0,-0.046935036,0.0177108578,0.041795132,0.0082064606,-1.2503182,0.0023005283999999,69230.0,28845.5,26320.0,13.0,27.5,-37.0,0,None
2022-12-29 11:57:30,197.3619,0.104000000000002,94.0,860.5,23872.0,4898.0,98.0,881.2,208.8,4891.9,-33.716759999999994,2.4988954,-0.042794628,0.0346390399999999,-1.2516816,69.028,-0.039048584,0.042579112,-1.2465396,0.5542526000000001,1.3130126,8.6706702,-57.0,-14.0,79.5,-71.0,0.5,281.5,-977.0,-8.5,309.5,1018.9215,-3.183672,3577.5,-0.039048584,0.01476474666,0.042579112,0.00198052,-1.2465396,0.0020184548,69210.0,28850.5,26300.0,13.0,23.5,-71.0,0,None
2022-12-29 11:57:31,198.3388888888889,0.1022222222222208,94.0,1151.5,23787.0,4890.5,98.0,1105.111111111111,211.22222222222223,4898.0,-33.57298888888889,2.531540111111111,-0.0084944425,0.01202174075,-1.24916875,68.075,-0.0057788654999999,0.0204889525,-1.2437414999999998,0.5856752555555556,1.5001474444444445,12.840216888888888,-52.5,-44.0,61.0,-31.5,32.0,249.5,-1122.5,-15.5,275.0,1019.0595,-3.045625,3579.5,-0.0057788654999999,0.0375805674999999,0.0204889525,-0.0352766575,-1.2437414999999998,0.01275583,68300.0,28872.0,25390.0,10.5,29.0,-154.0,0,None
2022-12-29 11:57:32,199.322,0.1039999999999991,94.0,1132.5,23793.5,4896.5,98.0,1172.9,214.7,4894.2,-33.40790199999999,2.5567094,-0.06239327,0.0263578374,-1.2430036000000002,67.62,-0.058757952,0.035224634,-1.2388644000000002,0.5413033,1.5602789,11.1697169,-75.0,32.0,81.5,-46.0,-96.0,265.0,-1122.5,-5.5,295.0,1019.0295,-3.075508,3581.5,-0.058757952,-0.0708962139999999,0.035224634,0.03935605,-1.2388644000000002,0.016819441,67615.0,28904.0,24705.0,-8.5,36.5,-49.0,0,None
2022-12-29 11:57:33,200.3619,0.104000000000002,94.0,1000.5,23804.5,4891.5,98.0,990.8,217.7,4891.4,-33.292246,2.5772986,-0.036875925,0.043870136,-1.2603748,67.82000000000001,-0.0331679638599999,0.052089278,-1.2570956,0.50066053,1.7640929,12.65265,-39.5,-36.0,84.5,-62.0,97.5,266.5,-943.0,-12.5,270.0,1019.052,-3.0529685,3582.5,-0.0331679638599999,0.091762046,0.052089278,0.02394894172,-1.2570956,-0.0162541201999999,67805.0,28807.5,24895.0,-0.5,4.0,-49.0,0,None
2022-12-29 11:57:34,201.361,0.1066666666666643,94.0,1071.5,23813.5,4892.5,98.0,1034.6666666666667,220.22222222222223,4892.888888888889,-33.1726888888889,2.599773111111111,-0.0022684257999999,0.049612532,-1.2470234000000002,67.76599999999999,2.74079999999996e-06,0.058067066,-1.2439228,0.5032312444444446,1.6468467777777778,10.769473777777778,-45.0,25.5,71.0,-39.0,0.5,284.5,-1052.0,1.5,295.5,1019.148,-2.9573435000000003,3584.5,2.74079999999996e-06,-0.050765784,0.058067066,0.0141631334,-1.2439228,0.0263935955,67795.0,28858.0,24885.0,9.5,17.5,-54.5,0,None
2022-12-29 11:57:35,202.323,0.1066666666666674,94.0,991.5,23822.0,4890.0,98.0,1103.5555555555557,223.44444444444449,4887.333333333333,-32.94068222222222,2.615799111111111,-0.0374397875,0.0289282925,-1.2492015,67.67999999999999,-0.0337899075,0.0376935174999999,-1.246085,0.4657278,2.023077555555556,11.971404444444444,-45.5,20.5,76.5,-62.5,-39.5,267.0,-1045.0,-22.5,302.5,1019.1065,-2.99875,3586.0,-0.0340033375,0.014522776,0.03778224,-0.00109634675,-1.24579575,-0.0334290624999999,67680.0,28861.0,24770.0,11.0,29.0,-40.5,0,None
2022-12-29 11:57:36,203.3237,0.1039999999999991,94.0,1065.0,23796.5,4891.5,98.0,1098.9,226.4,4884.0,-32.638494,2.6316648,-0.0216502381999999,0.041578656,-1.2515584,67.681998,-0.0178809154,0.049520308,-1.2496648,0.46321342,1.9743387,13.42262,-48.0,-32.5,70.0,-15.0,-16.5,273.0,-1150.5,-4.0,312.5,1019.159,-2.946367,3587.5,-0.0178809154,0.002063096,0.049520308,0.009312934,-1.2496648,-0.004916442,67670.0,28839.5,24760.0,9.0,35.5,-42.5,0,None
2022-12-29 11:57:37,204.3618,0.104000000000002,94.0,1065.0,23810.5,4892.0,98.0,1073.0,229.5,4890.0,-32.33177599999999,2.6470028,-0.04463928,0.02795161,-1.2517196,67.628,-0.040587286,0.036335962,-1.250738,0.48086937,1.5439297,10.5745548,-50.5,2.0,71.5,-37.0,23.5,267.5,-1158.0,-5.0,298.0,1019.125,-2.979844,3589.5,-0.040587286,0.0289061954,0.036335962,0.0139709992,-1.250738,0.0052523519999999,67635.0,28834.0,24725.0,6.0,35.5,-35.5,0,None
2022-12-29 11:57:38,205.3388888888889,0.1022222222222208,94.0,1014.5,23804.0,4895.5,98.0,1053.3333333333333,232.33333333333331,4897.555555555556,-32.06726777777778,2.663177333333333,-0.0525359,0.031344806,-1.2411106,67.63,-0.0486134879999999,0.0389201,-1.2408372,0.5178164666666666,1.444794666666667,12.41495011111111,-57.0,-6.5,84.0,-59.5,-38.5,278.5,-1040.5,22.5,312.0,1019.174,-2.9309765,3591.0,-0.0486134879999999,-0.0218583228,0.0389201,-0.0044627805999999,-1.2408372,-0.0002116031999999,67620.0,28889.5,24710.0,2.5,36.0,-35.5,0,None
2022-12-29 11:57:39,206.322,0.1039999999999991,94.0,1078.0,23779.0,4889.5,98.0,1078.4,235.3,4896.5,-31.875660000000003,2.68041,-0.06544108,0.02387319,-1.2462866,67.582,-0.06098539,0.031853318,-1.2461835999999995,0.5086257599999999,1.3030705,11.908219600000002,-52.5,13.5,88.0,-19.0,3.5,265.0,-1019.0,5.0,288.0,1019.1425,-2.962422,3592.5,-0.06098539,0.0084397038,0.031853318,0.000204154,-1.2461835999999995,-0.001861432,67580.0,28857.5,24670.0,-3.5,16.5,-34.5,0,None
2022-12-29 11:57:40,207.3617,0.104000000000002,94.0,1071.0,23798.5,4900.5,98.0,1083.7,238.4,4892.0,-31.788474,2.699673600000001,-0.045074984,0.043401694,-1.2488148,67.612,-0.0414246479999999,0.050746736,-1.2484716,0.48038936,1.5789864999999998,8.885247199999998,-71.5,40.5,72.5,-60.5,6.5,258.5,-1098.5,-17.5,292.0,1019.142,-2.9631645,3594.0,-0.0414246479999999,0.037490783,0.050746736,0.0032514419999999,-1.2484716,0.0042032005,67615.0,28846.0,24705.0,-1.0,8.5,-33.0,0,None
2022-12-29 11:57:41,208.37411111111112,0.1065555555555527,94.0,1055.0,23803.5,4894.5,98.0,1077.3333333333333,241.44444444444449,4891.666666666667,-31.73661222222222,2.721872222222222,-0.0445145725,0.0430572525,-1.24058175,67.6175,-0.0412925875,0.0501470525,-1.2406265,0.5036926666666667,1.608851666666667,11.569590111111111,-77.0,-3.0,83.0,-35.5,-5.5,280.5,-1123.0,13.5,287.0,1019.1765,-2.9285545,3595.5,-0.0412925875,0.0013526072,0.0501470525,-0.017751915,-1.2406265,0.003235641675,67615.0,28896.5,24705.0,9.0,18.0,-32.5,0,None
2022-12-29 11:57:42,209.3298888888889,0.1088888888888908,94.0,1091.0,23767.0,4891.5,98.0,1100.888888888889,244.22222222222223,4891.555555555556,-31.67187333333333,2.7422045555555554,-0.04905441,0.023792962,-1.2457238,67.598,-0.045375484,0.032148652,-1.245567,0.480361111111111,1.423379222222222,10.868626999999998,-54.0,11.0,81.0,-33.0,11.5,260.0,-972.0,-19.5,305.0,1019.1095,-2.9957815,3597.0,-0.045375484,0.02348849592,0.032148652,0.0221936789999999,-1.245567,0.00354943,67590.0,28854.0,24680.0,11.0,8.0,-31.0,0,None
2022-12-29 11:57:43,210.33,0.1040999999999996,94.0,1158.0,23748.0,4893.0,98.0,1090.2,247.4,4894.5,-31.62536,2.7648352,-0.0177327936,0.050502632,-1.2428082,67.622,-0.0145322284,0.05711192,-1.242451,0.50077135,1.4262409000000005,9.3191401,-62.0,6.5,77.0,-31.5,20.0,287.5,-1075.5,4.0,317.5,1019.21,-2.8953905,3598.5,-0.0145322284,0.0422991402,0.05711192,0.0217533622,-1.242451,-0.00804758,67630.0,28880.5,24720.0,10.5,10.5,-37.5,0,None
2022-12-29 11:57:44,211.3322222222222,0.1044444444444441,94.0,873.5,23830.0,4890.0,98.0,916.0,250.11111111111111,4892.222222222223,-31.552753333333328,2.783054,-0.04736605,0.0033387611999999,-1.241101,67.52799999999999,-0.042744238,0.0105819774,-1.2394009999999998,0.6125827,1.6068365555555555,15.071913333333336,-66.5,5.5,70.0,-51.5,-223.5,241.0,-1060.0,16.0,287.5,1019.2715,-2.8336325,3600.5,-0.042744238,-0.0118106313999999,0.0105819774,-0.032492072,-1.2394009999999998,0.02300150488,67545.0,28872.5,24635.0,21.5,40.5,-20.0,0,None
2022-12-29 11:57:45,212.3278,0.1060000000000001,94.0,912.0,23809.5,4887.5,98.0,1025.4,252.8,4885.9,-31.519260000000003,2.795538,-0.0520629159999999,0.0091170145999999,-1.1792782,67.47799999999998,-0.0478958699999999,0.015954008,-1.1784278,0.5898755499999999,1.401564,13.831322,-60.0,2.5,98.5,-29.5,-61.5,262.0,-1004.5,81.0,301.5,1019.252,-2.853203,3601.0,-0.0478958699999999,0.02414424,0.015954008,0.0269649999999999,-1.1784278,0.081261574,67485.0,29154.5,24575.0,8.5,19.0,-21.5,0,None
2022-12-29 11:57:46,213.352,0.1066666666666675,94.0,932.5,23806.0,4891.5,98.0,987.5555555555557,255.66666666666663,4889.666666666667,-31.58401555555556,2.806168888888889,-0.0495635875,0.0203560225,-1.09123425,67.49,-0.0472561175,0.0276693725,-1.0904995,0.5449440999999999,1.4700974444444443,11.797483333333334,-71.0,52.0,126.0,-37.0,-41.5,251.0,-1059.0,111.5,300.0,1019.195,-2.9105860000000003,3603.5,-0.0472561175,-0.0034239774999999,0.0276693725,0.031176569,-1.0904995,0.1040605775,67480.0,29689.5,24570.0,0.0,12.0,-22.0,0,None
2022-12-29 11:57:47,214.33,0.1019999999999981,94.0,1032.0,23778.5,4888.0,98.0,1044.2,258.4,4888.3,-31.671072,2.8161968,-0.058149714,0.025224428,-0.8859658799999999,67.542,-0.057292344,0.032474084,-0.88390886,0.62476807,1.4293229,9.859539300000002,-64.5,33.0,171.5,3.5,12.0,234.0,-1118.0,409.5,303.0,1019.1945,-2.9109765,3605.0,-0.057292344,0.0111075343999999,0.032474084,0.0263161307999999,-0.88390886,0.4114588799999999,67545.0,30908.5,24635.0,-0.5,17.5,-29.5,0,None
2022-12-29 11:57:48,215.32111111111112,0.1066666666666675,94.0,1080.0,23771.5,4898.5,98.0,1093.111111111111,261.3333333333333,4891.666666666667,-31.752501111111105,2.828266,-0.06428433,-0.003690612,-0.3476487,67.526,-0.067585564,0.0020832248,-0.34377354,0.6617317777777778,1.3224641111111108,9.88594422222222,-82.5,-22.0,272.5,-3.0,3.0,144.5,-1072.0,536.5,325.5,1019.146,-2.958906,3606.0,-0.067585564,0.0020136488,0.0020832248,-0.0118838826,-0.34377354,0.54324032,67525.0,34031.0,24615.0,10.5,35.5,-28.0,0,None
2022-12-29 11:57:49,216.3257,0.1038999999999986,94.0,1074.0,23785.5,4895.5,98.0,1054.0,264.3,4896.0,-31.845775999999997,2.8441602,-0.041073504,-0.065147328,0.22116435,67.66999999999999,-0.0467951719999999,-0.06405737,0.219753712,0.70401388,1.6103905,13.502277,-38.0,-12.5,311.0,40.0,12.0,-25.0,-991.5,565.0,295.0,1019.0155,-3.0896095,3607.5,-0.0467951719999999,0.007706346,-0.06405737,-0.0110471699999999,0.219753712,0.5568571999999999,67670.0,1254.0,24760.0,13.0,38.0,-36.5,0,None
2022-12-29 11:57:50,217.3438,0.1001000000000004,93.0,1130.5,23761.5,4899.0,98.0,1110.5,267.5,4893.1,-31.955240000000003,2.8641648,-0.00518890536,-0.075707996,0.80227486,67.814,-0.0086708561999999,-0.081157738,0.7905436,0.60612892,1.4812733000000002,13.699673900000002,-8.444444444444445,-4.555555555555555,223.77777777777777,53.888888888888886,3.2222222222222223,-193.33333333333331,-1049.4444444444443,589.1111111111111,295.6666666666667,1019.0493333333332,-3.0558247777777776,3609.222222222222,-0.0086708561999999,-0.010170366,-0.081157738,-0.006062695,0.7905436,0.57596604,67815.0,4496.0,24905.0,8.5,25.0,-53.5,0,None
2022-12-29 11:57:51,218.34,0.0999999999999999,93.0,1117.5,23739.5,4896.5,98.0,1108.7,270.5,4889.6,-32.07376000000001,2.8883762,0.051214974,-0.070264142,1.3839434000000002,67.802,0.05443783,-0.077755492,1.3669218,0.4778333,1.350918,13.2218925,33.8,10.6,82.7,39.0,58.6,-271.5,-1039.2,593.7,298.0,1019.0302,-3.0750313,3610.6,0.05443783,0.059136366,-0.077755492,0.004904618,1.3669218,0.59086722,67800.0,7798.0,24890.0,15.0,19.5,-51.5,0,None
2022-12-29 11:57:52,219.34,0.0999999999999999,93.0,1103.5,23750.5,4895.0,98.0,1126.9,273.6,4890.4,-32.202078,2.9159606,0.11118216,-0.0254546038,1.9462134,67.806,0.11985192,-0.030685444,1.9288654,0.6521431400000001,1.2947436,8.0372345,64.9,-7.7,-100.2,14.5,24.9,-272.4,-1061.3,537.1,297.6,1019.117,-2.9882344,3612.0,0.11985192,0.032172344,-0.030685444,-0.0152347367,1.9288654,0.5214420000000001,67810.0,11025.5,24900.0,17.5,-3.5,-52.5,0,None
2022-12-29 11:57:53,220.34,0.0999999999999999,93.0,1095.0,23757.5,4889.0,98.0,1143.9,276.8,4894.8,-32.348106,2.9466084,0.100785958,0.00916104068,2.4579828000000004,67.68599999999999,0.11272863,0.01145766792,2.444486,0.5357502399999999,1.4732086,6.128042899999999,62.2,-4.8,-225.5,-38.4,-23.4,-195.0,-1087.2,510.1,304.2,1019.1495,-2.9557654,3613.6,0.11272863,-0.0097587886,0.01145766792,0.0028641226,2.444486,0.51663778,67685.0,13979.5,24775.0,29.0,-37.5,-40.5,0,None
2022-12-29 11:57:54,221.34,0.0999999999999999,93.0,1156.5,23741.0,4898.0,98.0,1129.5,280.0,4894.0,-32.496698,2.9785902,0.073472198,0.041300012,1.7198694,67.662,0.08379771,0.050655178,1.7119204000000003,0.61913298,1.51634071,9.2678988,53.1,-24.0,-288.6,-91.6,16.1,-77.6,-1022.3,508.4,292.8,1019.0927,-3.0125625000000005,3614.8,0.08379771,0.0243668872,0.050655178,-0.0246004018,1.7119204000000003,0.56507058,67655.0,16974.0,24745.0,27.0,-42.0,-36.0,0,None
2022-12-29 11:57:55,222.34,0.0999999999999999,93.0,1080.5,23747.5,4887.5,98.0,1108.7,283.1,4887.9,-32.63101,3.0105582,0.064380474,0.053897012,-2.7682116,67.715998,0.0693207199999999,0.066624406,-2.7733054000000004,0.62092353,1.62080831,12.9431663,29.4,-9.8,-293.0,-99.6,43.0,75.5,-1068.7,571.3,292.9,1019.0886,-3.0167266,3616.2,0.0693207199999999,0.0351711324,0.066624406,-0.0071978641999999,-2.7733054000000004,0.55569598,67715.0,20075.0,24805.0,22.0,-36.0,-42.5,0,None
2022-12-29 11:57:56,223.342,0.0999999999999999,93.0,1148.0,23736.5,4897.0,98.0,1116.6,286.2,4890.1,-32.708516,3.0419588,0.048698044,0.061263198,-2.2012546,67.676,0.046454986,0.073617032,-2.2061808,0.50669167,1.7811051000000002,12.789491000000002,-16.5,-16.4,-204.9,-85.2,2.9,207.6,-1086.2,579.0,282.9,1019.1568,-2.9484218,3617.8,0.046454986,-0.0008459189999999,0.073617032,-0.006034612,-2.2061808,0.58360218,67675.0,23328.5,24765.0,37.5,-10.0,-39.0,0,None
2022-12-29 11:57:57,224.34,0.0999999999999999,93.0,1017.0,23783.5,4898.0,98.0,1042.0,289.1111111111111,4892.6,-32.74183999999999,3.070178,-0.0171247208,0.043349122,-1.6220612,67.61999999999999,-0.023709258,0.0514668739999999,-1.6267410000000002,0.52575544,1.7468647999999998,12.682985000000002,-52.5,-17.2,-35.3,-63.3,-23.1,270.1,-1078.5,584.0,303.7,1019.1422,-2.9629142,3619.2,-0.023709258,-0.0211809304,0.0514668739999999,-0.0159798088,-1.6267410000000002,0.5613642599999998,67620.0,26650.0,24710.0,47.5,19.0,-31.5,0,None
2022-12-29 11:57:58,225.34,0.0999999999999999,93.0,1034.0,23766.0,4896.0,98.0,1069.4,292.1,4891.4,-32.79693199999999,3.0935266,-0.0517493339999999,-0.004776678,-1.0712967,67.582,-0.05872806,-0.0029567648,-1.0762385599999995,0.54914431,1.9392033,13.342407,-75.0,-13.0,137.0,-31.1,27.4,256.2,-1069.1,533.2,313.9,1019.2386,-2.8667031,3620.6,-0.05872806,0.0044150710199999,-0.0029567648,0.0110647406,-1.0762385599999995,0.5384768,67590.0,29803.5,24680.0,34.0,15.0,-31.0,0,None
2022-12-29 11:57:59,226.342,0.0999999999999999,93.0,1067.5,23749.0,4896.0,98.0,1104.6,295.0,4892.5,-32.912834000000004,3.1124786,-0.036604228,-0.034787146,-0.54162614,67.45,-0.042981706,-0.03571866,-0.5477402600000001,0.72249436,1.4206887,8.179109,-71.6,14.4,248.1,-10.4,-15.4,146.2,-1055.3,523.3,295.8,1019.2796999999998,-2.8253358000000004,3621.8,-0.042981706,-0.0368703819999999,-0.03571866,0.0112974507999999,-0.5477402600000001,0.5245158,67450.0,32831.0,24540.0,7.0,4.0,-21.0,0,None
2022-12-29 11:58:00,227.342,0.0999999999999999,93.0,1144.5,23720.0,4894.0,98.0,1117.8,298.3,4894.0,-33.064284,3.127557,-0.032542812,-0.042295422,-0.0057992394,67.44200000000001,-0.03624909,-0.046843106,-0.0127919118,0.5863745400000001,1.7023822,12.226306,-65.2,19.5,297.6,37.5,-2.8,8.1,-1047.5,539.9,297.5,1019.0964,-3.008664,3623.2,-0.03624909,0.0096499048,-0.046843106,0.0155112466,-0.0127919118,0.5219519800000001,67435.0,17895.0,24525.0,-10.0,0.5,-15.0,0,None
2022-12-29 11:58:01,228.342,0.0999999999999999,93.0,1094.5,23726.0,4890.5,98.0,1110.0,301.2,4888.5,-33.254487999999995,3.1403666,-0.0124058841999999,-0.0560828259999999,0.54092554,67.64999800000001,-0.0121066778,-0.0613862839999999,0.5349301399999999,0.65568126,1.4701210999999998,13.260805,-23.4,-0.9,271.0,43.3,28.0,-130.2,-955.3,577.0,300.1,1019.0873,-3.0178125,3624.5,-0.0121066778,0.041308898,-0.0613862839999999,0.0071315455999999,0.5349301399999999,0.56053082,67645.0,3029.5,24735.0,-12.5,4.0,-37.5,0,None
2022-12-29 11:58:02,229.34,0.0999999999999999,93.0,1122.5,23730.5,4894.0,98.0,1152.4,304.5,4887.3,-33.45553,3.1552052,0.024543132,-0.0600736059999999,1.1040095600000002,67.687992,0.027401516,-0.0648792399999999,1.10051126,0.55036889,1.2976497,12.4745525,0.5,4.7,159.0,39.0,5.9,-244.7,-1063.1,560.0,300.4,1019.1009,-3.0041797,3625.7,0.027401516,0.0278980721999999,-0.0648792399999999,0.0174143992,1.10051126,0.57226198,67685.0,6276.0,24775.0,-17.0,2.0,-44.5,0,None
2022-12-29 11:58:03,230.348,0.102000000000001,93.0,1154.0,23729.5,4888.5,98.0,1062.2,307.5,4887.9,-33.64309,3.172211400000001,0.058593546,-0.045751722,1.6576228,67.717998,0.064815258,-0.047892448,1.6564246,0.59879228,1.21350791,9.2190705,28.1,8.0,-7.7,16.1,46.5,-284.9,-1055.9,562.5,302.7,1019.1055,-2.9996641,3627.3,0.064815258,-0.0024153555999999,-0.047892448,-0.0077683139999999,1.6564246,0.550836,67715.0,9461.0,24805.0,-7.5,1.5,-43.0,0,None
2022-12-29 11:58:04,231.36,0.0999999999999999,93.0,961.0,23754.5,4889.5,98.0,1097.6,310.5,4892.7,-33.818698,3.1908058,0.0862723619999999,-0.0110549094,2.2071108,67.688,0.093574342,-0.0103899562,2.2079212000000004,0.64443532,1.4271492999999995,8.4797732,49.2,-18.4,-166.9,-0.3,5.4,-233.3,-1085.8,534.2,301.8,1019.1827999999998,-2.9224609,3628.6,0.093574342,-0.028890228,-0.0103899562,-0.02832183,2.2079212000000004,0.5339688,67690.0,12614.5,24780.0,-4.5,-18.0,-43.5,0,None
2022-12-29 11:58:05,232.3602,0.0999999999999999,92.5,1161.0,23688.0,4901.5,98.0,1161.4,313.5,4891.7,-33.962706000000004,3.2104434000000004,0.089544936,0.0016684082,2.7262838,67.55999999999999,0.0966826459999999,0.0063886844,2.7284018,0.69697157,1.4789089,7.831028600000001,58.6,-29.7,-278.5,-32.4,-4.2,-131.4,-1070.9,514.2,295.6,1019.18,-2.9252264,3630.0,0.0966826459999999,0.001667014,0.0063886844,-0.0367880285999999,2.7284018,0.51029126,67560.0,15605.0,24650.0,6.0,-32.0,-33.5,0,None
2022-12-29 11:58:06,233.36,0.0999999999999999,92.0,981.0,23748.0,4888.5,98.0,1003.2,316.7,4887.6,-34.054140000000004,3.2303618,0.057112038,0.029162354,-1.7772608,67.59400000000001,0.063797022,0.0375586039999999,-1.773397,0.7258023899999999,1.1581381,6.914329599999999,39.0,-2.5,-302.5,-61.4,-15.2,0.6,-1044.3,523.1,297.1,1019.1086,-2.996625,3631.3,0.063797022,-0.0027441746,0.0375586039999999,-0.010575668,-1.773397,0.54584288,67590.0,18607.5,24680.0,21.0,-22.5,-28.5,0,None
2022-12-29 11:58:07,234.3601,0.0999999999999999,92.5,1037.0,23749.5,4888.5,98.0,1045.0,319.4,4887.7,-34.079228,3.2493854,0.061922618,0.041218464,-2.4839484,67.652,0.06564099,0.051656404,-2.4793194,0.58140248,1.53786887,12.5841626,2.6,0.5,-255.9,-80.4,74.8,149.9,-1083.8,577.8,295.8,1019.1225,-2.9828906,3632.5,0.06564099,0.0288156379999999,0.051656404,-0.029824676,-2.4793194,0.5541056,67655.0,21758.0,24745.0,21.5,-10.5,-41.0,0,None
2022-12-29 11:58:08,235.3687,0.1020999999999986,92.0,1099.0,23710.0,4899.5,98.0,1136.6,322.5,4895.6,-34.054098,3.2660759999999995,0.0041140024,0.05578038,-1.9034432,67.644,0.0022052915999999,0.065569426,-1.9002042000000003,0.53512442,1.7435855999999998,11.2782594,-38.2,-39.8,-113.6,-63.7,-66.2,254.7,-1053.2,592.0,296.4,1019.0945,-3.0107188000000003,3633.9,0.0022052915999999,-0.0952949959999999,0.065569426,-0.019048708,-1.9002042000000003,0.58410674,67635.0,25106.5,24725.0,57.0,31.5,-38.0,0,None
2022-12-29 11:58:09,236.3398888888889,0.1022222222222239,92.0,917.0,23798.0,4897.5,97.22222222222224,984.8888888888888,325.22222222222223,4898.444444444444,-34.05249666666666,3.279018111111111,-0.053508704,-0.023355027944,-1.338997,67.689998,-0.057453004,-0.01581405766,-1.3380714,0.577185511111111,1.7522533333333332,12.880524888888887,-58.44444444444444,-16.333333333333332,58.11111111111112,-45.66666666666666,28.11111111111111,264.3333333333333,-1054.6666666666667,530.6666666666666,310.8888888888889,1019.1673333333334,-2.9378904444444447,3634.8888888888887,-0.058037514,0.038941656,-0.01561591766,-0.0070807699999999,-1.3402294,0.5335509600000001,67685.0,28282.5,24775.0,47.0,16.5,-37.0,0,None
2022-12-29 11:58:10,237.3249,0.1039999999999991,93.0,1007.5,23767.5,4903.0,97.0,1054.6,328.2,4895.1,-34.135698000000005,3.2869266,-0.027011734,-0.027813036,-0.77308684,67.58200000000001,-0.032889062,-0.024732048,-0.7754540400000001,0.6262868700000002,1.7113708,12.7467772,-57.6,27.3,193.15,-23.2,7.8,191.4,-1033.6,535.45,297.95,1019.27625,-2.8289882000000004,3636.3,-0.032889062,0.055730402,-0.024732048,0.005205988,-0.7754540400000001,0.5280673599999999,67580.0,31559.0,24670.0,2.0,-6.0,-33.0,0,None
2022-12-29 11:58:11,238.33311111111112,0.1088888888888877,93.0,1158.5,23727.5,4896.5,97.0,1057.111111111111,331.22222222222223,4896.666666666667,-34.24646555555555,3.291360888888889,-0.0329788575,-0.0110486155,-0.2847359,67.45750000000001,-0.038292185,-0.0124986317,-0.28936715,0.7360883555555556,1.6457794444444442,13.803175111111113,-57.5,0.5555555555555556,284.0,-3.611111111111111,4.666666666666667,93.66666666666669,-1038.5555555555557,512.5,295.22222222222223,1019.1801666666664,-2.925091,3637.6666666666665,-0.038292185,-0.00227079,-0.0124986317,0.020052415,-0.28936715,0.52389935,67460.0,34637.5,24550.0,-10.0,2.0,-21.5,0,None
2022-12-29 11:58:12,239.33470000000003,0.1020000000000009,93.0,863.0,23799.5,4902.0,97.0,882.5,333.9,4898.9,-34.368724,3.2931176,-0.0076436999999999,-0.046766048,0.190802776,67.528,-0.0122304366,-0.049595784,0.187587864,0.5510104,1.7638393,12.9639396,-41.0,18.1,294.7,-11.8,10.4,-54.2,-1035.1,534.3,305.0,1019.2057,-2.8993593,3638.9,-0.0122304366,-0.0121858958,-0.049595784,0.021622323,0.187587864,0.5361491199999999,67540.0,1671.0,24630.0,-13.0,-11.5,-25.0,0,None
2022-12-29 11:58:13,240.3668,0.1039999999999991,93.0,1059.5,23756.5,4898.0,97.0,1026.4,336.5,4898.4,-34.51223,3.2934988000000005,-0.0066874052,-0.0196426624,0.75320408,67.53800000000001,-0.0071563546,-0.024500897,0.75114764,0.5908231600000001,1.6901559,16.472119600000003,-22.7,16.8,232.5,16.3,-32.4,-178.7,-1083.3,539.8,306.1,1019.1656,-2.9397578,3640.0,-0.0071563546,-0.0287267808,-0.024500897,0.0380707459999999,0.75114764,0.54981028,67535.0,4932.5,24625.0,-20.5,-10.0,-30.0,0,None
2022-12-29 11:58:14,241.3642222222222,0.1066666666666675,93.0,1080.0,23728.5,4901.5,97.0,1085.6666666666667,339.55555555555554,4902.555555555556,-34.63162555555556,3.2936366666666665,-0.0130869746,-0.051193454,1.3355926,67.562,-0.009749306,-0.05629408,1.3377232,0.5831284999999999,1.4329016666666667,10.944686333333337,6.111111111111111,-0.2777777777777778,97.38888888888889,28.77777777777778,87.55555555555556,-271.72222222222223,-1042.7777777777778,606.2222222222222,295.1666666666667,1019.084277777778,-3.0209546666666665,3641.444444444444,-0.009749306,0.0762251499999999,-0.05629408,0.002945006,1.3377232,0.60464474,67590.0,8342.5,24680.0,-7.0,29.0,-31.0,0,None
2022-12-29 11:58:15,242.3587,0.1020000000000009,93.0,959.5,23771.0,4894.5,97.0,981.0,342.3,4888.1,-34.735228000000006,3.2960094,0.089019,-0.015441941,1.9374444,67.724,0.094776358,-0.0181655654,1.9429154,0.8280684599999999,1.3395305,9.4707582,40.1,15.8,-105.9,17.9,53.6,-263.4,-1049.6,565.2,300.4,1019.1123,-2.9928593,3642.5,0.094776358,0.0832942918,-0.0181655654,-0.004638816,1.9429154,0.55170836,67740.0,11747.5,24830.0,4.0,13.5,-44.0,0,None
2022-12-29 11:58:16,243.37700000000004,0.1019999999999981,93.0,1103.0,23729.5,4893.0,97.0,1082.9,345.3,4898.1,-34.833296,3.3008914000000003,0.097214496,0.018813048,2.4824772000000004,67.66999799999999,0.10426943,0.020556222,2.4889756000000003,0.6687868299999999,1.3872728,7.198298999999999,57.5,-25.9,-238.5,-16.5,-15.6,-184.5,-1088.2,498.0,302.5,1019.1606000000002,-2.9446797000000005,3643.7,0.10426943,-0.0319616654,0.020556222,-0.0394642479999999,2.4889756000000003,0.5017027,67650.0,14818.0,24740.0,12.5,-24.0,-38.5,0,None
2022-12-29 11:58:17,244.3885,0.1200000000000009,93.0,1035.0,23753.0,4895.5,97.0,928.5625,347.9375,4892.5625,-34.927534375,3.308975125,0.062015736,0.036608726,1.7574877999999998,67.64,0.0698456039999999,0.043122478,0.5077062000000001,0.7382741812499999,1.2543564374999998,7.7965850625,55.4375,20.5625,-294.625,-46.0625,11.75,-61.0,-1038.8125,539.3125,308.125,1019.104625,-3.0007080625,3645.3125,0.0698456039999999,0.0086267558,0.043122478,0.011847062,0.5077062000000001,0.55108462,67630.0,17085.0,24720.0,22.0,-32.0,-32.0,0,None
2022-12-29 11:58:18,245.3648,0.1039999999999991,93.0,1067.0,23751.5,4890.0,97.0,1010.9,350.7,4889.2,-35.000328,3.3179672,0.035786212,0.0387773119999999,-2.7024042,67.689998,0.0406459979999999,0.048723512,-2.6952562,0.56325541,1.6858051,13.2807925,24.3,-21.5,-280.7,-61.6,6.6,87.1,-1010.6,556.9,295.9,1019.0984,-3.0068124000000003,3646.3,0.0406459979999999,-0.01219404664,0.048723512,-0.0205742646,-2.6952562,0.55984418,67685.0,19542.0,24775.0,21.5,-28.5,-46.5,0,None
2022-12-29 11:58:19,246.3573333333333,0.1044444444444441,93.0,1104.0,23727.0,4899.5,97.0,1118.3333333333333,353.6666666666667,4896.333333333333,-35.04765222222222,3.3275879999999995,0.0367710925,0.0569635825,-2.1726292500000004,67.64,0.038134635,0.0679442525,-2.166695,0.5424828333333332,1.8160062222222224,13.566074444444444,-28.5,8.277777777777779,-190.05555555555557,-92.55555555555556,23.38888888888889,211.05555555555557,-1101.7777777777778,583.3888888888889,293.3333333333333,1019.1167777777778,-2.988407,3647.555555555556,0.038134635,0.03880816,0.0679442525,-0.0141164909999999,-2.166695,0.605118225,67660.0,22851.5,24750.0,22.5,-10.5,-41.0,0,None
2022-12-29 11:58:20,247.3108888888889,0.1088888888888908,93.0,1112.0,23720.0,4896.0,97.0,1104.888888888889,356.6666666666667,4897.777777777777,-35.08176777777778,3.3358434444444445,-0.0411670428,0.037964196,-1.6288961999999998,67.676,-0.0450990022,0.0476386259999999,-1.6249664000000004,0.5080399888888888,1.7253578888888887,12.33123777777778,-66.88888888888889,-17.333333333333332,-19.444444444444443,-74.22222222222223,-52.11111111111112,274.3333333333333,-1068.2222222222222,550.3333333333334,293.55555555555554,1019.0435555555556,-3.061744888888889,3648.8888888888887,-0.0450990022,-0.0531807519999999,0.0476386259999999,-0.009780325,-1.6249664000000004,0.5610159,67660.0,26316.0,24750.0,36.5,19.0,-38.0,0,None
2022-12-29 11:58:21,248.3269,0.1039999999999991,93.0,1139.0,23727.0,4900.5,97.0,1138.8,359.7,4899.6,-35.14292199999999,3.3446268000000003,-0.0559932239999999,-0.0031185297999999,-1.0748652799999998,67.71199999999999,-0.062593002,0.0032696011999999,-1.07465638,0.51653951,1.6512679,9.6840976,-80.15,8.0,137.0,-47.45,34.1,238.75,-1056.85,522.95,291.85,1019.1805,-2.9247929,3650.1,-0.062593002,0.0345331579999999,0.0032696011999999,0.03189983,-1.07465638,0.52842926,67725.0,29418.0,24815.0,19.0,8.0,-46.5,0,None
2022-12-29 11:58:22,249.3864444444445,0.1155555555555546,93.0,1067.5,23741.0,4903.5,97.0,1059.0,362.8888888888889,4896.833333333333,-35.24219222222222,3.353237555555556,-0.031670342,-0.023378356,-0.52106918,67.554,-0.0395291059999999,-0.0219485119999999,-0.52411184,0.8417619222222223,1.821072777777778,8.315095777777778,-74.0,15.77777777777778,255.88888888888889,-31.55555555555556,5.666666666666667,146.44444444444446,-1117.0,517.7777777777778,307.8888888888889,1019.2743333333332,-2.830833277777778,3651.444444444444,-0.0395291059999999,0.01873439,-0.0219485119999999,0.002873228,-0.52411184,0.51869164,67580.0,32570.0,24670.0,-0.5,0.0,-32.5,0,None
2022-12-29 11:58:23,250.35977777777785,0.1044444444444441,92.5,1130.5,23709.5,4903.5,97.0,1205.2222222222222,366.1111111111111,4902.888888888889,-35.35758111111112,3.3599722222222224,-0.0544826249999999,-0.0335729575,-0.0251484199999999,67.45999499999999,-0.05950769,-0.0365320975,-0.0284128325,0.7071724666666667,1.7572914444444443,9.558454555555556,-50.61111111111112,38.388888888888886,306.0,31.22222222222222,-0.7222222222222222,19.166666666666668,-1058.6666666666667,548.8333333333334,283.6666666666667,1019.1007777777776,-3.0042361111111107,3652.444444444444,-0.05950769,-0.0126328449999999,-0.0365320975,0.0391124025,-0.0284128325,0.55223275,67460.0,17720.0,24550.0,-2.5,-7.0,-24.0,0,None
2022-12-29 11:58:24,251.3548,0.1059000000000025,92.0,938.0,23782.0,4901.5,97.0,992.4,369.0,4895.1,-35.478334000000004,3.3651560000000003,0.0015121608,-0.030892852,0.49202874,67.65,-0.0011856619999999,-0.0363130739999999,0.4905885599999999,0.68127903,1.6417709000000005,13.69729,-27.3,-7.5,264.9,-1.7,54.4,-118.9,-954.4,548.5,300.3,1019.0978,-3.0072110000000003,3653.6,-0.0011856619999999,0.0287478732,-0.0363130739999999,0.0093084394,0.4905885599999999,0.53622338,67670.0,3047.0,24760.0,3.0,-4.0,-34.0,0,None
