00000_Time_epoch,00000_Time_boot_sec,00000_Span_Time_boot_sec,1_battery_remaining_avg,1_current_battery_avg,1_voltage_battery_avg,125_Vcc_avg,147_battery_remaining_avg,147_current_battery_avg,147_current_consumed_avg,165_Vcc_avg,168_direction_avg,168_speed_avg,178_pitch_avg,178_roll_avg,178_yaw_avg,182_altitude_avg,182_pitch_avg,182_roll_avg,182_yaw_avg,241_vibration_x_avg,241_vibration_y_avg,241_vibration_z_avg,27_xacc_avg,27_xgyro_avg,27_xmag_avg,27_yacc_avg,27_ygyro_avg,27_ymag_avg,27_zacc_avg,27_zgyro_avg,27_zmag_avg,29_press_abs_avg,29_press_diff_avg,29_temperature_avg,30_pitch_avg,30_pitchspeed_avg,30_roll_avg,30_rollspeed_avg,30_yaw_avg,30_yawspeed_avg,33_alt_avg,33_hdg_avg,33_relative_alt_avg,33_vx_avg,33_vy_avg,33_vz_avg,label,diagnosis
2022-12-25 08:16:40,500.727,-0.450000000000017,100.0,74.0,25118.0,4861.0,99.0,74.0,106.0,4887.0,170.1749,0.02570274,0.01970876,0.02840564,-1.490295,26.62,0.02990582,0.03770441,-1.572194,0.02759359,0.02459357,0.03989449,9.5,7.5,0.0,-43.5,9.0,275.5,-1055.5,-1.5,325.5,1016.7105,-0.2971875,3211.0,0.02990582,0.008947498,0.03770441,0.007329923,-1.572194,-0.001727992,26620.0,26993.0,-60.0,15.0,19.0,-29.0,0,None
2022-12-25 08:16:41,501.327,0.0999999999999999,100.0,80.0,25109.0,4889.0,99.0,75.1,106.0,4884.2,62.449876,0.0873409999999999,0.020064224,0.027980126,-1.4904372,26.568,0.0300151699999999,0.037728224,-1.572142,0.025286227,0.025170596,0.037851934,9.2,6.9,-0.3,-43.5,9.0,275.6,-1056.1,-1.4,325.1,1016.7193,-0.28860937,3212.2,0.0300151699999999,0.0094764662,0.037728224,0.0075614379999999,-1.572142,-0.002066138,26560.0,26993.0,-120.0,15.0,19.0,-30.0,0,None
2022-12-25 08:16:42,502.327,0.0999999999999999,100.0,211.5,25036.0,4890.5,99.0,154.5,106.7,4885.3,45.717306,0.24931896,0.019926436,0.027974542,-1.4909838,26.506,0.0302033799999999,0.037894326,-1.5720592,0.137972527,0.193951609,0.892974036,8.6,7.3,-1.1,-42.0,8.3,272.9,-1052.9,-6.4,320.5,1016.7305,-0.27734374,3213.7,0.0302033799999999,0.0100746608,0.037894326,0.0066025751999999,-1.5720592,0.0036478714,26505.0,26992.5,-175.0,16.0,20.0,-30.5,0,None
2022-12-25 08:16:43,503.3042222222223,0.1067777777777791,100.0,728.5,24816.5,4886.0,99.0,292.55555555555554,107.11111111111111,4881.555555555556,43.95395666666666,0.4050912333333333,0.0197698075,0.0269471325,-1.49083725,26.4975,0.0300173649999999,0.0377053675,-1.5717802500000002,0.2155174444444444,0.3485330888888889,1.5828472222222223,6.5,1.5,-2.388888888888889,-48.833333333333336,9.333333333333334,271.1111111111111,-1053.0555555555557,1.5555555555555556,315.05555555555554,1016.7846111111112,-0.2231987764444444,3215.055555555556,0.0300173649999999,0.00621789925,0.0377053675,0.006899607,-1.5717802500000002,-0.00424841015,26510.0,26998.0,-170.0,15.0,20.0,-32.0,0,None
2022-12-25 08:16:44,504.314,0.1060000000000002,100.0,1666.5,24338.0,4868.5,99.0,1599.6,110.2,4878.8,43.590882,0.56449402,-0.0120279015999999,-0.0111863236,-1.4857002,26.856,-0.0016841668,-0.0017074904,-1.5635456,0.49810964,1.15605134,5.071545,-6.4,-13.5,-5.1,-23.2,-33.6,250.7,-1233.7,27.6,307.7,1016.8842,-0.1237187424,3216.5,-0.0016841668,-0.0194912913,-0.0017074904,-0.0274970479999999,-1.5635456,0.0287234759999999,26750.0,27023.5,70.0,10.5,17.5,32.5,0,None
2022-12-25 08:16:45,505.3224444444445,0.1044444444444441,100.0,1647.5,24258.5,4884.0,99.0,1713.2222222222222,114.88888888888889,4883.888888888889,45.296495555555566,0.6599428777777777,-0.0023718549999999,-0.0054855364,-1.4752603999999998,28.916,0.0073742849999999,0.0016560589199999,-1.5476724000000002,0.3572240555555556,1.4049825555555555,4.355235555555556,-7.277777777777778,-0.8333333333333334,-9.72222222222222,-11.22222222222222,66.88888888888889,248.88888888888889,-1195.8333333333333,-23.666666666666668,304.8333333333333,1016.4477777777776,-0.5600607611111111,3218.222222222222,0.0073742849999999,0.07148288554,0.0016560589199999,-0.0122704818,-1.5476724000000002,-0.024579735,28590.0,27153.5,1910.0,4.5,-11.5,210.0,0,None
2022-12-25 08:16:46,506.301,0.1021000000000014,100.0,1330.0,24387.0,4885.0,99.0,1479.5,119.4,4886.0,47.610242,0.7157240999999999,0.01879454,-0.0086971332,-1.4927398000000005,32.260000000000005,0.02736386,0.0037640919999999,-1.5618174,0.4032768799999999,1.41689864,5.673714899999999,-10.3,12.1,-14.6,2.2,-20.8,251.1,-1048.0,2.7,318.2,1016.0765,-0.93132812,3220.0,0.02736386,0.004891818,0.0037640919999999,0.037477414,-1.5618174,-0.0070955537999999,31885.0,27047.5,5205.0,10.5,-2.0,299.0,0,None
2022-12-25 08:16:47,507.3522,0.1062000000000011,100.0,1012.0,24542.5,4872.5,99.0,983.5,122.7,4881.1,49.77405600000001,0.7486484800000002,0.0036093012,0.00210843488,-1.5058972000000002,35.120000000000005,0.0137681219999999,0.014201242,-1.5719508,0.6598166899999999,0.81349147,2.756105,-5.0,21.0,-4.8,4.0,15.1,255.1,-850.9,-10.5,323.8,1015.7598,-1.2480935999999998,3221.2,0.0136984739999999,0.00931516,0.0140751159999999,0.03363309,-1.5719854,-0.01304218072,34910.0,26999.0,8230.0,16.5,4.5,198.0,0,None
2022-12-25 08:16:48,508.3462222222222,0.1066666666666643,100.0,1121.0,24456.5,4877.0,99.0,1090.888888888889,125.55555555555556,4884.888888888889,51.97048333333334,0.7717167777777779,0.020179296,-0.0034527907999999,-1.5031558,36.222,0.030991762,0.0076452813999999,-1.5655481999999998,0.4817669,0.8045786666666666,3.095363666666666,4.777777777777778,-11.444444444444445,-10.72222222222222,-5.222222222222222,28.0,258.1666666666667,-996.3333333333334,4.555555555555555,329.0,1015.6182222222222,-1.3894877222222222,3222.8888888888887,0.030991762,0.0304229752,0.0076452813999999,-0.002174817,-1.5655481999999998,0.0069932396,36155.0,27027.0,9475.0,30.0,4.0,49.5,0,None
2022-12-25 08:16:49,509.3379999999999,0.1021000000000014,100.0,1106.5,24459.0,4885.5,99.0,1121.5,128.6,4880.9,54.61681,0.79281428,0.0322477959999999,-0.0057244174,-1.5197489999999998,36.588,0.041934274,0.0049507262,-1.5798586,0.5401840800000001,0.97314607,5.2672889,-5.3,13.1,-18.5,-3.9,2.7,263.1,-1033.7,-10.9,323.7,1015.5624,-1.4455311000000002,3224.7,0.041934274,0.0038398509999999,0.0049507262,0.0276654828,-1.5798586,-0.03683706,36560.0,26963.0,9880.0,34.5,16.0,1.5,0,None
2022-12-25 08:16:50,510.368,0.1019999999999981,100.0,1114.5,24435.0,4886.5,99.0,1128.1,131.8,4881.5,58.26725799999999,0.8128526600000001,0.02055415,-0.0078226146,-1.5243616,36.760000000000005,0.030762962,0.0016982236399999,-1.581204,0.4280409800000001,1.3458175000000003,4.8011234,1.6,2.7,-17.6,5.0,1.2,249.3,-1060.8,26.2,333.9,1015.5376,-1.4701171,3226.0,0.030762962,0.0085569218,0.0016982236399999,-0.00134793,-1.581204,0.0161974464,36750.0,26930.5,10070.0,40.5,31.0,-16.0,0,None
2022-12-25 08:16:51,511.3372222222222,0.1045555555555526,100.0,1123.0,24435.5,4882.5,99.0,1120.6666666666667,134.77777777777777,4883.777777777777,62.18838,0.8251703555555554,0.0188016459999999,-0.0101201678,-1.5133580000000002,36.848,0.02851004,-0.00085799464,-1.5671084,0.4911534000000001,0.8792711666666667,4.209037333333333,15.77777777777778,7.944444444444445,-10.555555555555555,-13.833333333333334,14.72222222222222,250.94444444444449,-1033.1666666666667,-6.5,325.6111111111111,1015.5231111111112,-1.4847220555555554,3227.6111111111118,0.02851004,0.0122443664,-0.00085799464,-0.0015902106,-1.5671084,-0.0123425817799999,36840.0,27018.5,10160.0,41.5,33.0,-24.0,0,None
2022-12-25 08:16:52,512.3054,0.1002999999999985,100.0,1151.5,24414.0,4875.0,99.0,1136.5,138.0,4886.3,66.20563999999999,0.83426042,0.0096267259999999,-0.0152683212,-1.5089545999999998,36.892,0.0192902179999999,-0.0061015413999999,-1.5604082,0.4637519,0.8409015099999999,4.0704738,4.3,12.1,-5.5,-11.2,7.4,256.2,-1043.9,7.1,336.5,1015.5256,-1.4825155,3229.5,0.0193116199999999,-0.0011599219999999,-0.0060893881999999,0.0092228452,-1.5605108,0.0071712595999999,36885.0,27060.5,10205.0,37.0,33.5,-25.5,0,None
2022-12-25 08:16:53,513.3219999999999,0.1019999999999981,100.0,1144.0,24378.0,4883.5,99.0,1135.9,141.2,4884.3,70.08312600000002,0.8430122200000001,0.0095333914,-0.0044050876399999,-1.5196788,36.928,0.019235774,0.00363671776,-1.5688042,0.4622024,0.7655740699999999,3.7656793,-3.5,1.7,-11.9,12.8,4.2,260.1,-1058.7,-9.1,327.3,1015.5160000000002,-1.4918437999999998,3231.1,0.019235774,0.0024308900199999,0.00363671776,-0.0077192732,-1.5688042,-0.0121271621999999,36925.0,27019.0,10245.0,36.0,28.0,-29.0,0,None
2022-12-25 08:16:54,514.342,0.1020000000000095,100.0,1112.0,24364.5,4885.5,99.0,1139.0,144.3,4879.9,74.038938,0.84973972,0.0004172958,-0.029566026,-1.5288672,36.938,0.0101580146,-0.0209025546,-1.5751502000000002,0.4537360299999999,1.2265860199999998,4.480322900000001,2.7,-32.4,-8.3,-17.9,-5.6,254.9,-1050.0,-5.0,333.2,1015.5197,-1.4881719,3232.9,0.0101580146,-0.0105683398,-0.0209025546,-0.0437920059999999,-1.5751502000000002,-0.002207561,36935.0,26973.5,10255.0,39.5,25.5,-28.0,0,None
2022-12-25 08:16:55,515.3196666666668,0.1045555555555463,100.0,1106.0,24386.5,4882.0,99.0,1137.111111111111,147.33333333333334,4885.0,77.7808077777778,0.8549869888888888,-0.0360950524,-0.0227872248,-1.5261682,36.94,-0.0257811412,-0.0126101458,-1.5711156,0.4812097777777777,1.0265822333333334,4.931506888888888,-0.2222222222222222,46.44444444444444,1.2222222222222223,-4.277777777777778,-99.16666666666669,254.33333333333331,-1050.6666666666667,-21.38888888888889,327.8888888888889,1015.5147777777778,-1.4930121666666667,3234.555555555556,-0.0257811412,-0.16118176,-0.0126101458,0.02060019,-1.5711156,-0.0204013823999999,36940.0,27008.5,10260.0,19.0,12.0,-30.0,0,None
2022-12-25 08:16:56,516.3004999999999,0.0999999999999999,100.0,1160.0,24345.0,4869.0,99.0,1133.2,150.7,4878.7,82.024682,0.8610207799999999,-0.120177388,-0.03726398,-1.5278056,36.964,-0.10752589,-0.0283743279999999,-1.570299,0.4318163600000001,1.06540136,7.429549,-21.7,10.4,41.5,12.0,288.2,248.4,-1030.0,22.4,319.6,1015.5018,-1.5060391000000002,3236.3,-0.10752589,0.326764174,-0.0283743279999999,0.0154604014,-1.570299,0.0221807395999999,36960.0,26987.5,10280.0,11.0,-101.0,-27.0,0,None
2022-12-25 08:16:57,517.3204000000001,0.1040000000000077,100.0,1137.0,24381.5,4879.5,99.0,1139.7,153.8,4878.9,86.46778000000002,0.8666390199999998,0.0746990239999999,-0.089103718,-1.5392782,36.974,0.0806149606,-0.078684688,-1.5775508,0.5169138200000001,1.1346862400000002,10.2596115,-19.1,-166.0,-36.7,1.3,-111.0,231.7,-1036.1,-23.1,343.1,1015.5123,-1.4956797,3237.8,0.0806149606,-0.141721056,-0.078684688,-0.17933731,-1.5775508,-0.0320468406,36975.0,26969.0,10295.0,-4.0,-93.5,-29.5,0,None
2022-12-25 08:16:58,518.3515,0.1020999999999957,100.0,1078.0,24398.5,4876.0,99.0,1123.1,157.0,4877.9,90.287982,0.87281828,-0.0022761544,-0.013212996,-1.5406536,36.982,0.008454798,-0.001132422,-1.5781934,0.5211761,1.3870059,9.3687508,-21.9,417.0,-1.6,22.7,43.1,241.3,-1122.7,-29.4,343.2,1015.4738,-1.5341093,3239.4,0.008454798,0.102647286,-0.001132422,0.457584082,-1.5781934,-0.0208970994,36975.0,26965.5,10295.0,-101.5,-65.0,-27.0,0,None
2022-12-25 08:16:59,519.372,0.1019999999999981,100.0,1219.5,24322.5,4874.5,99.0,1239.6,160.2,4877.0,94.24419600000002,0.8816090999999998,0.0066386071999999,0.2268765499999999,-1.5445776,37.014,0.0126352204,0.2331469,-1.582368,0.47526126,1.5387528,9.8941829,-10.4,-133.9,-15.1,-11.6,-38.5,324.6,-1070.1,26.5,242.5,1015.4937,-1.5142813999999998,3241.0,0.0126352204,-0.041824214,0.2331469,-0.2261148979999999,-1.582368,0.028811204,37010.0,26927.0,10330.0,64.5,-54.0,-34.0,0,None
2022-12-25 08:17:00,520.378,0.0999999999999999,100.0,1288.0,24272.5,4870.0,98.0,1258.1,163.6,4875.9,97.90948,0.88459378,0.169121522,-0.088335828,-1.5373104000000002,36.968,0.173241734,-0.0721659966,-1.5677226,0.4503982799999999,0.96556811,5.258031300000001,-3.5,-166.5,-48.4,-19.7,248.4,223.1,-1086.6,10.6,329.1,1015.5286,-1.4791406,3242.7,0.173241734,0.2429686919999999,-0.0721659966,-0.1104426739999999,-1.5677226,0.02194974346,36975.0,27008.0,10295.0,170.5,-7.5,-32.0,0,None
2022-12-25 08:17:01,521.378,0.0999999999999999,100.0,1120.0,24359.0,4881.0,98.0,1164.6,167.2,4877.7,100.818882,0.8912424200000002,-0.077257594,-0.0310028052,-1.5289552,36.952000000000005,-0.0656497339999999,-0.01517081,-1.5547708,0.3578536499999999,1.1079275900000003,6.2406212,12.3,127.3,6.1,-14.7,-492.5,241.7,-1034.9,-26.8,326.8,1015.5211,-1.4865391999999995,3244.2,-0.0656497339999999,-0.5044343,-0.01517081,0.11032778,-1.5547708,-0.024674812,36945.0,27105.0,10265.0,79.5,129.5,-27.5,0,None
2022-12-25 08:17:02,522.378,0.0999999999999999,100.0,1206.5,24310.0,4885.0,98.0,1202.3,170.3,4882.5,103.5281,0.91081596,-0.2009356399999999,-0.062768406,-1.5479912000000002,36.958000000000006,-0.1849777199999999,-0.0544601858,-1.5662622000000002,0.48464314,0.98125458,6.500382400000001,-12.0,-166.6,60.7,-1.9,150.3,243.7,-1065.5,-12.2,320.1,1015.5226,-1.4851406,3245.8,-0.1849777199999999,0.145359052,-0.0544601858,-0.1862491,-1.5662622000000002,-0.0136909576,36960.0,27028.5,10280.0,65.5,-69.0,-28.5,0,None
2022-12-25 08:17:03,523.3348888888889,0.1044444444444504,100.0,1060.0,24357.5,4890.0,98.0,1115.4444444444443,173.44444444444446,4887.444444444444,106.61693333333334,0.9329573333333332,-0.1436387,-0.1076469525,-1.56331525,36.9425,-0.13248905,-0.0999179325,-1.577589,0.5189774555555555,0.9726424777777776,9.489746,-32.22222222222222,116.38888888888889,35.333333333333336,7.222222222222222,-30.5,219.61111111111111,-1074.0,-30.38888888888889,363.3333333333333,1015.4909444444444,-1.5168490555555556,3247.5,-0.13248905,-0.057903115,-0.0999179325,0.12338872475,-1.577589,-0.022277395,36940.0,26960.5,10260.0,-27.0,-231.0,-25.0,0,None
2022-12-25 08:17:04,524.3297999999999,0.1059999999999945,100.0,1171.0,24305.5,4888.5,98.0,1143.8,176.6,4886.5,109.88724,0.95997362,-0.2063141333333333,-0.0184136985,-1.5951189999999995,37.05,-0.1961850166666666,-0.0150453778333333,-1.6030911666666663,0.5690411299999999,1.3961833,14.611339,-45.5,-30.9,49.6,15.7,-12.9,254.6,-1146.2,-23.2,320.8,1015.4521,-1.5557811,3249.2,-0.1961850166666666,-0.035897055,-0.0150453778333333,-0.00037223,-1.6030911666666663,-0.0110404542833333,37035.0,26803.0,10355.0,-45.0,-391.5,-18.0,0,None
2022-12-25 08:17:05,525.3484444444446,0.1045555555555589,100.0,1077.0,24340.0,4882.5,98.0,1112.375,180.125,4886.888888888889,113.0029222222222,0.9830804444444444,-0.0211030875,-0.082178285,-1.59182425,37.715,-0.015224455,-0.0756830699999999,-1.589249,0.5771182333333332,1.4228820000000002,12.58813,-73.05555555555556,-26.22222222222222,2.388888888888889,14.444444444444445,306.6666666666667,227.55555555555557,-1111.2777777777778,5.722222222222222,345.22222222222223,1015.3804444444444,-1.6273480555555553,3250.6111111111118,-0.016500705,0.39020955,-0.0759265975,-0.05059993,-1.5892475,0.0396110425,37695.0,26887.0,11015.0,-40.5,-522.0,59.0,0,None
2022-12-25 08:17:06,526.3230000000001,0.1019999999999981,100.0,1138.5,24311.0,4888.5,98.0,1054.0,182.9,4882.9,116.16147999999998,1.0030503999999998,0.125804172,-0.062268194,-1.6057282000000002,38.67999999999999,0.12853396,-0.0503434579999999,-1.600311,0.5871460700000001,1.3100969,14.518461,-56.4,92.0,-59.0,25.2,-17.6,224.5,-1065.2,-18.2,338.2,1015.2936999999998,-1.7141247,3252.4,0.12853396,0.024374046,-0.0503434579999999,0.10199714,-1.600311,-0.01463220416,38770.0,26817.5,12090.0,-66.0,-385.0,65.5,0,None
2022-12-25 08:17:07,527.339,0.0999999999999999,100.0,1146.5,24278.5,4888.0,98.0,1127.8,185.9,4881.8,119.14792,1.021798,0.096946868,0.0043343338599999,-1.6008988000000002,39.692,0.10331462,0.0182779576,-1.5942630000000002,0.52078032,1.4714195,13.229309999999998,-37.9,32.6,-47.9,21.6,14.3,256.8,-1054.1,19.6,318.6,1015.1604,-1.8475233,3254.0,0.10331462,0.0185535178,0.0182779576,0.053431138,-1.5942630000000002,0.0180481794,39785.0,26872.5,13105.0,-44.5,-244.5,73.5,0,None
2022-12-25 08:17:08,528.3134444444445,0.1088888888888908,100.0,1207.0,24239.5,4881.5,98.0,1202.4444444444443,189.0,4882.444444444444,121.46966666666664,1.0320275555555556,0.1134447199999999,0.013896316,-1.5909202,40.77,0.1202690999999999,0.030337152,-1.5765794,0.4868849888888888,1.5448692222222222,11.731149444444446,-21.11111111111111,8.5,-53.333333333333336,32.888888888888886,42.388888888888886,251.05555555555557,-1066.2777777777778,13.0,310.1111111111111,1015.096,-1.911801277777778,3255.333333333333,0.1202690999999999,0.0462515673999999,0.030337152,0.0267383634,-1.5765794,0.0233429194,40860.0,26975.5,14180.0,-0.5,-120.5,76.0,0,None
2022-12-25 08:17:09,529.3444000000001,0.1039999999999963,100.0,1192.5,24243.0,4868.0,98.0,1207.0,192.5,4878.7,123.68457999999998,1.0377364,0.0816815239999999,0.0155696799999999,-1.5926316,41.866,0.089924456,0.032951802,-1.567086,0.4707969999999999,1.2248952700000002,8.1760564,-10.6,-1.3,-43.0,16.2,-95.1,256.6,-1092.4,-4.3,314.1,1014.9883,-2.0193985,3256.4,0.089924456,-0.081544784,0.032951802,0.0265909106,-1.567086,-0.0136042173999999,41955.0,27023.0,15275.0,30.0,-4.5,85.0,0,None
2022-12-25 08:17:10,530.3272222222222,0.1067777777777791,100.0,1024.0,24319.0,4879.0,98.0,1116.6666666666667,195.66666666666663,4884.555555555556,125.38563333333336,1.0442713333333336,-0.087909964,0.004694155,-1.6000875999999995,42.944,-0.0762862618,0.020233638,-1.5685146,0.4652701777777778,1.1786651444444445,6.290143666666666,-2.2777777777777777,7.333333333333333,4.111111111111111,-19.61111111111111,-209.83333333333331,266.05555555555554,-998.5555555555557,-1.2777777777777777,324.72222222222223,1014.8694444444444,-2.138472333333333,3258.1111111111118,-0.0762862618,-0.1963507726,0.020233638,-0.005567978,-1.5685146,-0.0032190357999999,43020.0,27012.5,16340.0,46.5,-12.5,69.5,0,None
2022-12-25 08:17:11,531.3241111111112,0.115222222222226,100.0,1061.5,24294.0,4890.5,98.0,1015.8888888888888,198.44444444444449,4882.666666666667,126.89632222222222,1.0564977777777778,-0.1080800959999999,-0.0062999138,-1.606221,43.482,-0.09711926,0.003086331,-1.5731522,0.5288559777777777,0.9752714111111112,6.67766088888889,-19.33333333333333,-19.166666666666668,29.666666666666668,4.611111111111111,187.83333333333331,258.72222222222223,-1018.7777777777778,-4.555555555555555,330.3888888888889,1014.7753888888888,-2.232556333333333,3259.4444444444443,-0.09711926,0.2206152,0.003086331,-0.02271727434,-1.5731522,0.00761649896,43490.0,26984.5,16810.0,55.5,-148.0,-15.0,0,None
2022-12-25 08:17:12,532.3046666666667,0.1024444444444472,100.0,1117.0,24275.0,4888.5,98.0,1139.4444444444443,201.66666666666663,4884.111111111111,128.76225555555556,1.066765222222222,0.13981245,-0.021026215,-1.6129527499999998,43.4975,0.1435142,-0.0125496855,-1.5810784999999998,0.5110321,1.1443986666666666,11.771672,-19.444444444444443,-16.333333333333332,-59.888888888888886,-0.2222222222222222,89.55555555555556,249.44444444444449,-1065.2222222222222,-13.444444444444445,332.8888888888889,1014.7315555555556,-2.2762497777777777,3261.0,0.1435142,0.0499211725,-0.0125496855,-0.0354318074999999,-1.5810784999999998,-0.0206862675,43490.0,26951.0,16810.0,58.0,-117.0,-25.0,0,None
2022-12-25 08:17:13,533.3135,0.1040999999999939,100.0,1252.0,24215.5,4876.0,98.0,1192.9,204.8,4884.8,130.73505999999998,1.0705151999999998,0.0414538573999999,-0.031657336,-1.6038014,43.548,0.0481413642,-0.019838471,-1.5724242,0.50165557,1.20158694,8.7721688,-8.4,30.35,-28.25,8.55,-104.75,250.45,-1067.35,16.6,333.45,1014.75305,-2.2549725,3262.5,0.0481413642,-0.119791092,-0.019838471,0.02552852784,-1.5724242,0.037901574,43556.66666666666,27002.33333333333,16876.666666666668,46.0,-13.0,-16.666666666666668,0,None
2022-12-25 08:17:14,534.34,0.1019999999999981,100.0,1090.0,24276.5,4885.5,98.0,1166.2,208.4,4877.0,132.37562,1.0773096,-0.0230651061999999,-0.031395004,-1.5802451999999998,43.898,-0.0132141602,-0.0202396134,-1.5485188,0.47968925,1.4410666200000004,7.488014799999999,-2.7,-23.2,2.6,18.9,-131.8,253.2,-1059.7,-11.7,338.1,1014.7027,-2.3053515,3263.6,-0.0132141602,-0.08408136,-0.0202396134,-0.0180481074,-1.5485188,0.013943384,44085.0,27124.5,17405.0,35.0,-22.0,31.5,0,None
2022-12-25 08:17:15,535.34,0.0999999999999999,100.0,1069.0,24311.5,4889.0,98.0,1076.5,211.3,4881.2,133.86512000000002,1.0903994,-0.15898654,-0.033018828,-1.5905064,44.282,-0.146782008,-0.0240045459999999,-1.5601918,0.56298547,1.0272547500000002,7.6537627,-30.0,20.0,38.3,7.7,150.4,248.3,-1018.2,-22.9,330.9,1014.6385,-2.3693985,3265.0,-0.146782008,0.0553542359999999,-0.0240045459999999,0.021146444,-1.5601918,-0.0248400924,44285.0,27022.0,17605.0,21.5,-144.0,-28.0,0,None
2022-12-25 08:17:16,536.34,0.0999999999999999,100.0,1144.5,24241.0,4880.0,98.0,1120.2,214.4,4882.2,135.54623999999998,1.1053806,0.128415254,-0.0362613439999999,-1.6207414,44.286,0.133555822,-0.028858848,-1.5878988,0.52857133,1.2892258,13.6876957,-22.9,-4.8,-63.5,17.1,146.0,241.8,-1060.8,-25.7,338.1,1014.6031,-2.4048985000000003,3266.5,0.133555822,0.215969574,-0.028858848,-0.0014283097999999,-1.5878988,-0.0242736868,44295.0,26852.5,17615.0,16.0,-74.5,-29.0,0,None
2022-12-25 08:17:17,537.34,0.0999999999999999,100.0,1138.5,24233.0,4875.0,98.0,1130.2,217.5,4879.6,137.33314,1.114699,0.038396914,-0.03203847,-1.629076,44.312,0.045392285,-0.0202600179999999,-1.5970358,0.5341178299999999,1.8642575,13.3854982,-11.8,25.8,-30.9,-3.9,-131.0,238.9,-1065.4,29.0,331.5,1014.638,-2.3699218,3268.0,0.045392285,-0.136522073,-0.0202600179999999,0.030914258,-1.5970358,0.015137378,44315.0,26902.0,17635.0,7.0,8.5,-29.5,0,None
2022-12-25 08:17:18,538.36,0.1019999999999981,100.0,1169.0,24243.0,4867.0,98.0,1162.4,220.8,4878.7,138.83124000000004,1.125568,-0.067350884,-0.01848433,-1.5956121999999997,44.29,-0.056041124,-0.0076366941999999,-1.5643356000000002,0.47965,1.4412498,9.7552872,-7.5,17.5,9.0,-12.2,-143.7,253.0,-1066.9,-2.4,322.2,1014.6447,-2.3632265,3269.3,-0.0555139199999999,-0.137234102,-0.0077369878,0.01636837,-1.5643272,0.0119293436,44280.0,27068.0,17600.0,8.5,-39.5,-32.0,0,None
2022-12-25 08:17:19,539.3655555555556,0.1066666666666706,100.0,1146.5,24237.5,4870.0,98.0,1150.111111111111,224.11111111111111,4876.222222222223,140.0527,1.137899777777778,-0.1680061,-0.019310884,-1.5913742000000002,44.242,-0.15608138,-0.0109000567999999,-1.5606894,0.4640982888888889,1.1876167777777775,10.206476,-24.0,-9.88888888888889,42.66666666666666,-2.333333333333333,60.333333333333336,256.6111111111111,-1056.7222222222222,-23.83333333333333,325.27777777777777,1014.637277777778,-2.3705034444444446,3270.5,-0.15608138,0.0518853539999999,-0.0109000567999999,-0.0034714276,-1.5606894,-0.0242328154,44230.0,27066.0,17550.0,16.0,-162.0,-27.0,0,None
2022-12-25 08:17:20,540.3539999999999,0.1039999999999963,100.0,1118.5,24242.5,4889.5,98.0,1107.7,227.0,4882.8,141.19286000000002,1.1486912,-0.0393582919999999,-0.0340326819999999,-1.618206,44.22,-0.0321931459999999,-0.027315682,-1.5885682,0.5121387800000001,1.16080627,13.078007,-42.7,2.2,-2.5,1.8,268.3,247.2,-1066.8,-13.0,331.7,1014.6081,-2.3996797,3271.9,-0.0321931459999999,0.27855852918,-0.027315682,0.0028926639999999,-1.5885682,-0.008040875,44213.333333333336,26907.33333333333,17533.333333333332,13.0,-246.33333333333331,-26.33333333333333,0,None
2022-12-25 08:17:21,541.3322222222222,0.1044444444444504,100.0,1357.0,24141.5,4877.0,98.0,1382.0,230.44444444444449,4885.0,142.56521111111113,1.1572653333333336,0.110897024,-0.02652447,-1.6110464,44.366,0.1156386079999999,-0.017017492,-1.5807176000000005,0.4576440555555555,1.4136574444444443,9.457102555555556,-29.11111111111111,14.38888888888889,-60.0,19.05555555555556,-41.27777777777778,238.77777777777777,-1115.7222222222222,18.27777777777778,330.77777777777777,1014.5965,-2.4113801111111117,3273.333333333333,0.1158451159999999,-0.0406891958,-0.017047232,0.02260696318,-1.580801,0.0190140002,44350.0,26941.0,17670.0,13.0,-149.0,16.0,0,None
2022-12-25 08:17:22,542.3321000000001,0.1039999999999963,100.0,1118.0,24223.5,4877.0,98.0,1178.0,234.2,4885.1,144.08138,1.1614754,0.062903348,-0.0134166659999999,-1.5877496,45.002,0.070803438,-0.0019743300199999,-1.5571948,0.4886363600000001,1.08759229,6.916937999999999,-23.2,12.5,-33.4,10.1,-38.1,259.4,-1026.7,7.1,340.4,1014.5675,-2.4403358,3274.6,0.070803438,-0.01878751,-0.0019743300199999,0.0209155096,-1.5571948,0.0093904228,44870.0,27067.5,18190.0,16.0,-68.0,42.5,0,None
2022-12-25 08:17:23,543.36,0.1040000000000077,100.0,1188.5,24180.5,4879.0,98.0,1157.3,237.2,4882.5,145.35562000000002,1.1613802000000002,0.01864229,-0.0082163646,-1.5897028,45.202000000000005,0.02919382,0.0037436743999999,-1.5579812,0.51902337,0.9806832900000002,6.828972,-18.6,14.4,-17.9,12.5,9.9,253.4,-1005.3,-2.6,328.4,1014.5356,-2.4722578,3275.8,0.02919382,-0.0127522181999999,0.0037436743999999,0.0121472129999999,-1.5579812,-0.0010244478,45230.0,27074.5,18550.0,22.0,-10.5,-15.0,0,None
2022-12-25 08:17:24,544.384,0.0999999999999999,100.0,1197.5,24173.0,4877.0,98.0,1209.7,240.6,4883.1,146.42442,1.158556,0.014394888,-0.013827001,-1.5888606000000003,45.11600000000001,0.024976458,-0.0036606081999999,-1.5564748000000002,0.51305869,1.25996282,6.901059200000001,-5.2,-5.8,-16.2,-11.7,10.5,251.2,-1041.8,-12.8,323.6,1014.5179,-2.4900703,3277.0,0.024976458,-0.0049346726,-0.0036606081999999,-0.01235515712,-1.5564748000000002,-0.0185299404,45125.0,27076.5,18445.0,31.5,10.5,-25.5,0,None
2022-12-25 08:17:25,545.3545555555555,0.1023333333333261,100.0,1163.0,24206.0,4893.0,98.0,1186.6666666666667,243.88888888888889,4881.444444444444,147.31971111111113,1.154679,0.0101006019999999,-0.021019602,-1.5948422,45.1,0.020740838,-0.0108432186,-1.5630105999999997,0.4836790444444444,1.2288460666666667,7.041335555555556,-22.0,12.555555555555555,-17.5,28.27777777777778,8.166666666666666,250.27777777777777,-1087.6666666666667,5.166666666666667,332.8333333333333,1014.5050000000002,-2.5029167222222224,3278.333333333333,0.021097332,0.004747304,-0.0107151586,0.0178389146,-1.5630194,-9.449960000000034e-05,45110.0,27062.0,18430.0,33.5,24.0,-24.5,0,None
2022-12-25 08:17:26,546.306,0.0999000000000023,100.0,1158.5,24174.5,4888.5,98.0,1155.0,247.2,4888.8,147.98855999999998,1.1530441999999996,0.0055347068,-0.022805712,-1.5936732,45.114,0.0152750239999999,-0.0141658834,-1.5628408,0.4955371899999999,1.23128908,8.0468449,-16.1,-9.1,-15.9,20.0,5.0,248.3,-1068.3,29.8,325.5,1014.4838999999998,-2.5238749,3279.6,0.0152750239999999,0.0022493725999999,-0.0141658834,-0.0118672992,-1.5628408,0.009613552,45105.0,27041.0,18425.0,35.0,30.5,-27.5,0,None
2022-12-25 08:17:27,547.316,0.1039999999999963,100.0,1321.5,24115.0,4877.0,98.0,1255.0,250.5,4880.3,148.55589999999998,1.1537859999999998,0.0079693849999999,-0.037424348,-1.5892102,45.158,0.01737367,-0.028897462,-1.5602076,0.4855994499999999,1.4718302,9.9534014,-3.9,-5.0,-14.0,13.1,25.6,248.1,-1089.6,7.0,341.9,1014.4763,-2.5315936,3281.0,0.01737367,0.0223731662,-0.028897462,-0.0214966066,-1.5602076,-0.0071799705999999,45130.0,27068.0,18450.0,33.5,27.5,-26.0,0,None
2022-12-25 08:17:28,548.358,0.1019999999999981,100.0,1210.0,24167.5,4883.5,98.0,1354.8,254.4,4882.5,149.1533,1.1580400000000002,0.0018321079999999,-0.036739056,-1.5917576,45.75,0.01123470574,-0.02873609,-1.5641056,0.45408556,1.620613,9.7704037,-11.2,9.3,-18.2,17.8,-18.4,234.7,-1094.5,-3.1,342.4,1014.4217,-2.5862343,3282.3,0.01123470574,-0.0269985503999999,-0.02873609,0.0138933932,-1.5641056,-0.0135132594,45550.0,27045.0,18870.0,19.5,32.0,45.5,0,None
2022-12-25 08:17:29,549.368,0.1020000000000095,100.0,1067.5,24204.5,4880.5,98.0,1026.9,257.3,4882.4,149.82621999999998,1.1662748,-0.0046126503999999,-0.028695596,-1.5934534,46.44800000000001,0.005085992,-0.021558722,-1.5691518000000002,0.5400633499999999,0.99044979,6.901953799999999,-8.1,18.3,-8.0,19.1,25.6,247.8,-947.1,0.0,334.4,1014.3357,-2.6720391,3283.5,0.005085992,0.0218812888,-0.021558722,0.0150068459799999,-1.5691518000000002,-0.0151950142,46400.0,27015.5,19720.0,13.0,27.5,17.5,0,None
2022-12-25 08:17:30,550.382,0.0999999999999999,100.0,1165.5,24168.5,4885.0,98.0,1197.4,260.6,4886.6,150.57074,1.1759657999999995,-0.0058358514,-0.0262427319999999,-1.5902768000000005,46.438,0.0030096619999999,-0.018721924,-1.5680886,0.53228019,1.3859008,9.9135901,-17.7,-1.6,-14.7,18.1,-14.5,247.3,-1086.6,21.6,333.1,1014.3275,-2.6803672,3284.6,0.0030096619999999,-0.0216357856,-0.018721924,-0.0124738983999999,-1.5680886,-0.00518579182,46435.0,27006.5,19755.0,16.0,25.5,-34.0,0,None
2022-12-25 08:17:31,551.3799999999999,0.0999999999999999,100.0,1204.0,24172.0,4884.5,98.0,1186.8,263.8,4886.8,151.30256,1.185574,-0.013793368,-0.033734742,-1.5840678,46.434000000000005,-0.0049448524,-0.026283098,-1.564013,0.44641689,1.01652029,6.9248216,-19.7,6.7,-7.0,23.6,14.5,241.6,-1051.1,12.8,333.4,1014.3316,-2.6762188,3285.9,-0.0049448524,0.0105382251779999,-0.026283098,0.0087939378,-1.564013,-0.0217715748,46435.0,27043.0,19755.0,16.0,19.0,-32.0,0,None
2022-12-25 08:17:32,552.3655555555555,0.1044444444444378,100.0,1397.0,24066.5,4886.5,98.0,1323.0,267.44444444444446,4891.555555555556,152.18044444444442,1.1953214444444444,-0.0054703107499999,-0.0241816725,-1.59014925,46.4725,0.0033533549999999,-0.0171697275,-1.572108,0.4269334222222222,1.488181777777778,11.668447333333331,-22.444444444444443,10.5,-16.27777777777778,24.77777777777778,20.88888888888889,250.88888888888889,-1104.4444444444443,-1.3333333333333333,331.05555555555554,1014.3243333333332,-2.683424555555556,3287.222222222222,0.0033533549999999,0.0229282715,-0.0171697275,0.0150815025,-1.572108,-0.01531154525,46460.0,26998.0,19780.0,13.0,11.5,-21.5,0,None
2022-12-25 08:17:33,553.336,0.1019999999999981,100.0,866.0,24288.0,4889.0,98.0,1124.5,270.9,4883.6,153.02159999999998,1.203731,-0.0114024197999999,-0.033859854,-1.588896,47.048,-0.0019688368,-0.0261708999999999,-1.5723406,0.45521926,1.00484006,7.123987399999999,-13.7,-3.4,-10.0,20.0,3.8,238.6,-999.4,8.2,329.1,1014.2682,-2.7396874,3288.1,-0.0019688368,0.0132745288,-0.0261708999999999,-0.0089612713999999,-1.5723406,0.0090671874,47035.0,26987.5,20355.0,14.5,10.0,47.0,0,None
2022-12-25 08:17:34,554.3462,0.1040000000000076,100.0,1181.0,24162.5,4868.5,98.0,1178.3,273.8,4884.6,153.91288,1.2123086000000003,0.00227843936,-0.01804618,-1.579088,47.386,0.010914098,-0.0096737189999999,-1.5649526,0.5003359700000001,1.15141189,7.4255556,-12.2,27.6,-11.1,-7.4,15.4,255.7,-982.7,-1.2,334.8,1014.2237,-2.7841795,3289.5,0.010914098,0.0113162299999999,-0.0096737189999999,0.0359119354,-1.5649526,-0.0009191873999999,47390.0,27033.5,20710.0,10.5,7.5,-29.0,0,None
2022-12-25 08:17:35,555.3605,0.0979999999999904,100.0,1166.0,24155.0,4887.5,98.0,1181.8,277.2,4887.2,154.76682,1.2193092,-0.00252405342,-0.022469284,-1.576667,47.358,0.0058937598,-0.0142664914,-1.5643068,0.45452208,0.98471759,6.821571200000001,-19.3,-11.1,-7.4,17.8,4.1,249.0,-1068.3,13.5,333.4,1014.2256,-2.7822656,3290.6,0.0058937598,0.0047824715999999,-0.0142664914,-0.0049957491999999,-1.5643068,-0.0043431537999999,47360.0,27040.0,20680.0,23.0,13.0,-27.5,0,None
2022-12-25 08:17:36,556.3306666666667,0.1045555555555589,100.0,1201.5,24153.0,4886.0,98.0,1179.5555555555557,280.44444444444446,4888.555555555556,155.52044444444442,1.224201111111111,-0.0053182538,-0.029825524,-1.5770692,47.362,0.00368301666,-0.020914504,-1.5663256,0.5069589777777778,1.2935593888888886,8.446121999999997,-13.5,12.555555555555555,-10.333333333333334,27.38888888888889,21.666666666666668,248.44444444444449,-1040.0555555555557,-26.666666666666668,340.0,1014.2139444444446,-2.793967055555556,3291.777777777778,0.00368301666,0.02665989,-0.020914504,0.0167348324,-1.5663256,0.0014439801999999,47365.0,27022.5,20685.0,22.5,10.5,-29.5,0,None
2022-12-25 08:17:37,557.317,0.1019999999999981,100.0,1132.5,24175.0,4889.0,98.0,1148.6,283.8,4890.3,156.27460000000002,1.2293688,0.0013235188,-0.027685698,-1.5802514,47.332,0.010179862,-0.01938801,-1.571125,0.50492081,1.4995244,10.0238584,-15.0,-0.6,-14.2,43.4,-11.2,246.3,-1043.4,-15.7,336.4,1014.1997,-2.8080468000000005,3292.9,0.010179862,-0.0070690076,-0.01938801,0.0037973769999999,-1.571125,-0.01719604,47330.0,26998.5,20650.0,21.5,13.0,-30.0,0,None
2022-12-25 08:17:38,558.3489999999999,0.1040000000000077,100.0,1170.0,24133.0,4886.5,98.0,1150.1,286.8,4888.3,156.99499999999998,1.2353242,0.00200522574,-0.03468547,-1.5802192,47.29,0.0108654538,-0.02627142,-1.5726204,0.5222269999999999,1.4012375,9.5634991,-15.5,5.3,-15.0,38.7,8.1,241.9,-1022.1,-5.1,333.6,1014.221,-2.7868514000000006,3294.1,0.0108654538,0.033730042,-0.02627142,0.01122591,-1.5726204,-0.0104882878,47285.0,26988.5,20605.0,18.0,14.5,-30.5,0,None
2022-12-25 08:17:39,559.379,0.1019999999999981,100.0,1161.5,24148.5,4880.5,98.0,1143.4,290.2,4886.3,157.74435,1.2427198000000002,0.00014460766,-0.026545644,-1.5806738,47.222,0.0096431732,-0.0185632599999999,-1.5752133999999998,0.4760350300000001,1.3886287099999997,9.3196889,-22.7,8.3,-13.3,41.2,16.4,248.0,-1094.2,8.0,328.4,1014.2306,-2.7773671,3295.2,0.0096431732,0.0230610248,-0.0185632599999999,0.01557502,-1.5752133999999998,-0.02403615,47220.0,26972.0,20540.0,14.5,16.0,-31.0,0,None
2022-12-25 08:17:40,560.381,0.0999999999999999,100.0,1170.0,24147.0,4887.5,98.0,1153.2,293.2,4886.1,158.43354000000002,1.2503813999999998,0.0058125804,-0.022397862,-1.582963,47.152,0.0145141027999999,-0.014291538,-1.5790646000000002,0.4698658999999999,1.4565821,10.284634100000002,-9.9,15.6,-15.6,-15.1,19.2,249.3,-1042.7,1.9,332.8,1014.2354,-2.7726095,3296.5,0.0145141027999999,-0.0034916219999999,-0.014291538,0.01394052,-1.5790646000000002,0.015241672,47150.0,26953.5,20470.0,17.0,22.0,-29.0,0,None
2022-12-25 08:17:41,561.381,0.0999999999999999,100.0,1118.5,24147.0,4889.0,98.0,1119.3,296.6,4891.7,159.03194000000002,1.2577534,-0.0079736505999999,-0.0259233999999999,-1.5806652,47.096,0.00086013996,-0.01756801,-1.5776578,0.47648624,1.4422784,10.6777877,-14.4,-1.9,-13.1,28.9,2.7,246.7,-1041.8,-17.7,332.3,1014.2328,-2.7749375,3297.5,0.00086013996,0.0102454686,-0.01756801,-0.0002233641999999,-1.5776578,-0.02308007904,47095.0,26965.0,20415.0,19.0,22.0,-27.5,0,None
2022-12-25 08:17:42,562.381,0.0999999999999999,100.0,1139.5,24143.0,4886.5,98.0,1144.7,299.5,4889.1,159.62107999999998,1.264207,-0.00340130722,-0.027160128,-1.5781763999999998,47.072,0.0052358725999999,-0.0190692679999999,-1.5759181999999998,0.4820977000000001,1.7305753,10.8522298,-26.0,15.6,-13.7,61.4,21.3,245.5,-1003.3,13.9,334.4,1014.2274,-2.7804140000000004,3298.6,0.0052358725999999,-0.00747872242,-0.0190692679999999,0.019579738,-1.5759181999999998,-0.02939488,47070.0,26970.5,20390.0,15.0,18.0,-32.5,0,None
2022-12-25 08:17:43,563.381,0.0999999999999999,100.0,1116.5,24137.0,4887.5,98.0,1131.9,302.8,4890.5,160.21804,1.2705192,-0.0098729948,-0.019950572,-1.5729246,47.032,-0.00163204212,-0.0120756146,-1.5723629999999995,0.49520961,1.4056552999999998,8.813249,-20.7,4.0,-10.3,41.6,-8.5,248.1,-1038.1,-6.5,334.0,1014.2348,-2.7730859000000003,3299.8,-0.00163204212,-0.010931278,-0.0120756146,0.01112462414,-1.5723629999999995,-0.030775448,47035.0,26992.5,20355.0,18.0,17.5,-29.0,0,None
2022-12-25 08:17:44,564.381,0.0999999999999999,100.0,1090.0,24141.5,4882.0,98.0,1126.9,305.9,4889.9,160.77422,1.2756864,-0.00663029186,-0.025268608,-1.5734564,47.014,0.001847870476,-0.018158308,-1.5733654,0.52173768,1.4396769,10.1728437,-19.9,-5.8,-13.3,40.2,26.4,248.8,-1105.8,13.2,336.1,1014.2219,-2.786117,3300.6,0.001847870476,0.0333485496,-0.018158308,-0.0075581358,-1.5733654,-0.00827134482,47015.0,26983.5,20335.0,24.5,7.0,-24.5,0,None
2022-12-25 08:17:45,565.381,0.0999999999999999,100.0,1149.0,24132.5,4892.5,98.0,1135.2,309.1,4891.8,161.30526,1.2801972,0.00584087,-0.0370923259999999,-1.571684,47.01,0.0139119279999999,-0.029224926,-1.573497,0.5336503300000001,1.5907851000000002,10.7336762,-4.4,1.8,-12.2,-0.6,8.5,247.1,-1044.6,2.4,340.1,1014.2164,-2.7914843,3301.9,0.0139119279999999,0.0293488954,-0.029224926,0.0098539542,-1.573497,0.0210282204,47010.0,26986.0,20330.0,24.0,7.5,-30.5,0,None
2022-12-25 08:17:46,566.381,0.0999999999999999,100.0,1140.5,24120.5,4889.0,98.0,1130.4,312.2,4890.7,161.85500000000002,1.2862552,0.0059332265999999,-0.0347392839999999,-1.5684984,46.958000000000006,0.0142651699999999,-0.026202192,-1.5717706,0.484267,1.6556342000000002,11.1279566,-10.7,9.0,-16.2,30.0,7.9,248.6,-1058.5,8.6,332.5,1014.2206,-2.7871874,3302.9,0.0142651699999999,0.016369229,-0.026202192,0.012966618,-1.5717706,-0.0038276764,46955.0,26990.5,20275.0,19.0,12.0,-27.5,0,None
2022-12-25 08:17:47,567.383,0.0999999999999999,100.0,1112.0,24140.5,4888.0,98.0,1140.5,315.3,4892.5,162.39068,1.2943881999999998,0.0081250218,-0.036022526,-1.5639898,46.896,0.016764282,-0.0274053319999999,-1.5682448,0.52305941,1.651107,10.873309,-5.4,4.9,-16.2,21.8,17.1,243.5,-1055.4,1.2,331.8,1014.2286,-2.7792422,3303.9,0.016764282,0.0333626056,-0.0274053319999999,0.0207045858,-1.5682448,0.0104084456,46895.0,27015.0,20215.0,19.0,12.5,-26.0,0,None
2022-12-25 08:17:48,568.381,0.0999999999999999,100.0,1122.0,24121.5,4888.0,98.0,1130.8,318.5,4893.3,162.8979,1.3041372,0.015845016,-0.0372090779999999,-1.5612536,46.832,0.023976318,-0.0277053679999999,-1.5666398,0.5316570300000001,1.597976,10.661375199999998,-8.5,13.4,-16.3,26.2,14.7,245.5,-1059.3,-3.5,336.2,1014.2312,-2.7767734000000006,3305.2,0.023976318,0.0005833618599999,-0.0277053679999999,0.0133871238399999,-1.5666398,-0.010805331,46830.0,27027.5,20150.0,17.0,15.5,-27.5,0,None
2022-12-25 08:17:49,569.383,0.0999999999999999,100.0,1139.5,24113.5,4889.5,98.0,1136.9,321.6,4890.1,163.34088000000003,1.3155764,0.0119813779999999,-0.035536394,-1.5626288000000002,46.78,0.020248988,-0.0269842499999999,-1.569028,0.5004088499999999,1.6673389,10.8466532,0.3,2.1,-16.6,17.9,4.1,247.4,-1053.4,-3.5,339.0,1014.2324999999998,-2.7754531,3306.0,0.020248988,0.0144753654,-0.0269842499999999,0.00494850366,-1.569028,0.00081361,46775.0,27009.5,20095.0,16.5,20.5,-26.5,0,None
2022-12-25 08:17:50,570.381,0.0999999999999999,100.0,1143.0,24125.5,4894.5,97.4,1147.3,324.9,4893.5,163.67340000000002,1.3283577999999998,0.012201284,-0.038432688,-1.561282,46.724,0.020417536,-0.03067034,-1.5683358000000005,0.52870401,1.6492467999999998,10.509999699999998,0.2,5.3,-16.9,23.7,11.3,240.8,-1053.6,1.7,335.8,1014.2269,-2.7810389,3306.9,0.020417536,0.017497162,-0.03067034,0.008315675,-1.5683358000000005,0.0031848052,46720.0,27013.5,20040.0,16.5,22.0,-26.5,0,None
2022-12-25 08:17:51,571.381,0.0999999999999999,100.0,1156.5,24104.5,4888.5,97.0,1138.2,328.0,4890.0,163.9237,1.3424424,0.0069649288,-0.038731956,-1.5606664,46.688,0.0154065439999999,-0.030664504,-1.568479,0.5132105900000001,1.637203,10.1840968,-7.6,16.6,-13.6,14.7,4.2,244.1,-1040.6,-21.0,337.0,1014.241,-2.7668046,3308.1,0.0154065439999999,-0.0061182774,-0.030664504,0.022674232,-1.568479,-0.0099778736,46685.0,27019.0,20005.0,15.0,26.5,-26.0,0,None
2022-12-25 08:17:52,572.381,0.0999999999999999,100.0,1157.0,24152.5,4886.5,97.0,1160.6,331.2,4890.6,164.12648000000002,1.3576354,-0.0038709049999999,-0.036091612,-1.5574586,46.672,0.0046574802559999,-0.0280359499999999,-1.5659762000000002,0.52999555,1.5359095,9.7568173,-3.9,14.1,-11.2,14.0,-4.7,242.5,-1061.9,16.6,334.8,1014.2335,-2.7743515000000003,3309.0,0.0046574802559999,-0.0020608816,-0.0280359499999999,0.01537027,-1.5659762000000002,0.0182924318,46670.0,27022.5,19990.0,17.5,24.0,-27.0,0,None
2022-12-25 08:17:53,573.381,0.0999999999999999,100.0,1136.0,24106.0,4884.5,97.0,1145.1,334.4,4891.1,164.33453999999998,1.3727669999999998,-0.003897886,-0.037105176,-1.5522908,46.678,0.0046785108399999,-0.029788426,-1.5609704,0.4793340499999999,1.518174,9.2657759,-1.4,7.3,-10.0,23.6,23.2,240.2,-1043.5,-21.7,335.2,1014.2551,-2.7527264,3310.1,0.0046785108399999,0.0324348792,-0.029788426,0.0074474886799999,-1.5609704,-0.0182089036,46680.0,27059.0,20000.0,15.5,8.5,-27.0,0,None
2022-12-25 08:17:54,574.383,0.0999999999999999,100.0,1139.0,24107.0,4894.0,97.0,1130.2,337.5,4891.0,164.56698,1.387534,0.0125964154,-0.027525164,-1.5579594,46.656,0.020547182,-0.0204773779999999,-1.5674386,0.50348953,1.5657784,10.0918091,-11.4,9.1,-15.5,35.6,10.1,250.4,-1049.3,0.5,330.3,1014.243,-2.7648594,3311.1,0.020547182,0.0180233574,-0.0204773779999999,0.0151684199999999,-1.5674386,-0.0182063019999999,46655.0,27020.0,19975.0,15.5,7.5,-25.0,0,None
2022-12-25 08:17:55,575.381,0.0999999999999999,100.0,1105.0,24125.0,4891.5,97.0,1116.0,340.6,4892.9,164.76304,1.4013356,0.007885662,-0.0336512319999999,-1.5627878000000002,46.678,0.0160112259999999,-0.0259183,-1.5733092,0.5299299399999999,1.6936521,11.567525800000002,-12.7,-0.7,-15.7,32.9,14.3,241.0,-1043.0,-1.4,335.8,1014.2336,-2.7742579,3312.0,0.0160112259999999,0.0095652384,-0.0259183,0.010361753,-1.5733092,-0.0080426484,46675.0,26987.0,19995.0,22.5,12.0,-26.0,0,None
2022-12-25 08:17:56,576.381,0.0999999999999999,100.0,1129.0,24127.0,4889.5,97.0,1123.8,343.8,4893.1,164.90421999999998,1.4142424,0.0041595542,-0.040510796,-1.5652296,46.69599999999999,0.0122467144,-0.03336555,-1.5758016,0.5216248400000001,1.7615085999999998,11.2735482,-9.2,7.5,-16.8,18.6,-16.4,237.1,-1075.7,-17.0,341.7,1014.2189999999998,-2.7888671,3313.2,0.0122467144,-0.0135026262,-0.03336555,-0.0153046828,-1.5758016,-0.0084242554,46695.0,26972.5,20015.0,22.5,17.5,-27.5,0,None
2022-12-25 08:17:57,577.381,0.0999999999999999,100.0,1147.5,24095.0,4889.0,97.0,1152.0,346.9,4892.5,165.02244000000002,1.4278803999999998,-0.0013976506,-0.050400128,-1.5678522,46.71,0.0068494474,-0.042985678,-1.5784814,0.51121051,1.7382942000000003,11.6597591,-12.3,1.8,-15.6,33.7,16.9,236.8,-1069.0,8.3,344.5,1014.2204,-2.7875312,3313.9,0.0068494474,0.0262344774,-0.042985678,0.0069641659999999,-1.5784814,0.0020686814,46710.0,26955.5,20030.0,20.0,14.5,-32.0,0,None
2022-12-25 08:17:58,578.381,0.0999999999999999,100.0,1130.0,24086.5,4891.5,97.0,1155.2,350.2,4893.6,165.16967999999997,1.4432402,-0.0003568093,-0.0485241359999999,-1.5583572,46.722,0.0081279194,-0.04254851,-1.5688964,0.52669871,1.6152474,10.2183088,-6.8,5.3,-13.8,27.8,3.8,245.7,-1036.8,-6.4,335.3,1014.2362,-2.7716953,3314.9,0.0081279194,0.0274761174,-0.04254851,-0.0034071359999999,-1.5688964,-0.0005503807999999,46725.0,27014.0,20045.0,16.5,14.0,-31.0,0,None
2022-12-25 08:17:59,579.381,0.0999999999999999,100.0,1191.0,24067.0,4879.5,97.0,1176.5,353.3,4888.5,165.33975999999998,1.4605822,0.0063120793999999,-0.0584647139999999,-1.5624778,46.694,0.01490111152,-0.051593658,-1.5729446,0.52559901,1.7032043,11.1308588,-12.3,4.3,-17.9,33.3,26.2,238.3,-1058.9,-0.5,344.9,1014.2277,-2.7801874,3316.2,0.01490111152,0.0285724879999999,-0.051593658,-0.0038536119999999,-1.5729446,0.00246996,46700.0,26986.0,20020.0,12.0,11.5,-25.5,0,None
2022-12-25 08:18:00,580.381,0.0999999999999999,100.0,1152.0,24062.5,4886.5,97.0,1178.8,356.5,4888.5,165.51487999999998,1.48009,0.000550604426,-0.044738288,-1.5544679999999995,46.71,0.0084587747999999,-0.037640018,-1.5650985999999998,0.50810773,1.4296283,9.239036799999996,-17.4,22.6,-13.2,54.6,-3.4,242.2,-1060.7,19.9,337.3,1014.2223,-2.7856874000000005,3317.1,0.0084587747999999,-0.0073564609999999,-0.037640018,0.033882598,-1.5650985999999998,-0.0018159832,46710.0,27032.5,20030.0,4.5,16.5,-27.0,0,None
2022-12-25 08:18:01,581.381,0.0999999999999999,100.0,1173.0,24059.0,4885.0,97.0,1179.9,359.9,4889.1,165.68594000000002,1.5005032000000005,-0.00024849932,-0.03938561,-1.5566598,46.71,0.0078025838,-0.03398298,-1.566697,0.5160493599999999,1.5456016,9.545447,-7.7,-6.9,-15.6,25.6,14.3,237.4,-1036.9,-19.1,338.6,1014.2208,-2.7873280000000005,3318.3,0.0078025838,0.0284993477999999,-0.03398298,-0.0012957089999999,-1.566697,-0.00200990044,46710.0,27026.0,20030.0,12.5,14.0,-30.5,0,None
2022-12-25 08:18:02,582.381,0.0999999999999999,100.0,1168.0,24075.0,4889.0,97.0,1159.5,363.2,4890.9,165.86610000000002,1.5198724,0.00131180122,-0.052800912,-1.5621102,46.716,0.0090585218,-0.046059292,-1.5718392,0.52755868,1.5362232000000002,10.7106454,-26.4,6.5,-12.5,59.6,15.7,240.8,-1055.9,13.3,342.2,1014.2247,-2.7832733,3319.3,0.0090585218,-0.002387216088,-0.046059292,0.0089518164,-1.5718392,-0.0215204816,46715.0,26990.5,20035.0,12.0,16.0,-30.0,0,None
2022-12-25 08:18:03,583.381,0.0999999999999999,100.0,1171.0,24055.5,4895.0,97.0,1164.3,366.3,4894.0,166.03942,1.53961,-0.009296952,-0.04514365,-1.5624271999999997,46.702,-0.0011357136,-0.03897476,-1.5717878,0.49438918,1.41095923,9.2391326,-26.2,16.3,-11.4,46.9,-10.0,242.1,-1080.0,34.3,339.7,1014.2268,-2.780945200000001,3320.1,-0.0011357136,-0.0219600743999999,-0.03897476,0.0135383578,-1.5717878,0.0081220948,46705.0,26989.0,20025.0,7.5,25.5,-27.5,0,None
2022-12-25 08:18:04,584.3465555555555,0.1022222222222176,100.0,1175.5,24066.5,4889.5,97.0,1174.5555555555557,369.55555555555554,4898.0,166.22585555555554,1.5598336666666666,-0.0183018094,-0.041036722,-1.5572132,46.694,-0.00897753456,-0.03480069,-1.5657446,0.5259300555555555,1.4899935555555557,8.924475444444443,-15.88888888888889,6.388888888888889,-8.055555555555555,29.666666666666668,43.27777777777778,237.05555555555557,-1095.111111111111,18.27777777777778,332.8333333333333,1014.2311111111112,-2.776870611111111,3321.222222222222,-0.00897753456,0.05153422,-0.03480069,0.0120147383999999,-1.5657446,0.0124135755999999,46695.0,27025.0,20015.0,7.0,8.0,-26.0,0,None
2022-12-25 08:18:05,585.3010000000002,0.0999999999999999,100.0,1145.0,24074.0,4889.0,97.0,1158.1,372.8,4899.4,166.46138,1.5779261999999998,0.00251671646,-0.037826438,-1.5614786000000005,46.69,0.0098956683999999,-0.03141028,-1.5690786,0.52842385,1.22188164,8.650094800000002,-23.4,22.5,-14.7,33.8,-2.7,244.2,-1081.7,12.0,334.1,1014.2375999999998,-2.7702032,3322.4,0.0098956683999999,-0.005145892,-0.03141028,0.02099870826,-1.5690786,0.0090552582,46695.0,27005.0,20015.0,8.5,10.0,-27.5,0,None
2022-12-25 08:18:06,586.307,0.0999999999999999,100.0,1108.0,24089.5,4893.0,97.0,1112.0,375.9,4898.4,166.70886,1.594767,0.00156978664,-0.036539522,-1.5822134,46.696000000000005,0.0095243994,-0.030052658,-1.5886468,0.53121959,1.380192,10.4752989,-28.8,-6.5,-21.2,31.9,-18.0,241.4,-1074.6,-24.2,335.5,1014.2528,-2.7549453,3323.2,0.0095243994,0.006352272,-0.030052658,0.017182252,-1.5886468,-0.032405754,46700.0,26896.0,20020.0,10.0,22.0,-25.0,0,None
2022-12-25 08:18:07,587.335,0.1040000000000077,100.0,1149.0,24079.5,4892.0,97.0,1147.6,379.2,4894.8,166.91246,1.6098120000000002,-0.03333679,-0.025026112,-1.5834782,46.672,-0.024800776,-0.0183314062,-1.5887585999999998,0.5175874899999999,1.3544164,10.0649623,-26.1,34.5,-10.5,41.9,-9.0,245.5,-1054.3,19.5,336.9,1014.2417,-2.766039,3324.2,-0.024800776,-0.0134330782,-0.0183314062,0.055751944,-1.5887585999999998,0.0011256333999999,46675.0,26893.0,19995.0,7.5,20.5,-24.5,0,None
2022-12-25 08:18:08,588.3689999999999,0.1039999999999963,100.0,1104.5,24064.5,4896.0,97.0,1141.3,382.3,4895.6,167.16022,1.6217469999999998,-0.0097205707999999,-0.0232863759999999,-1.5740344,46.672,-0.0016492292,-0.017765366,-1.577909,0.5391375299999999,1.7265115000000002,12.160396000000002,-31.6,-12.0,-11.8,51.8,91.8,252.4,-1019.4,19.3,337.8,1014.2243999999998,-2.7835780000000008,3325.4,-0.0016683572,0.0468938921999999,-0.017677674,-0.003475874,-1.5777245999999998,-0.0337421279999999,46675.0,26963.0,19995.0,20.0,0.0,-25.0,0,None
2022-12-25 08:18:09,589.382,0.1000999999999976,100.0,1124.0,24081.5,4883.0,97.0,1119.1,385.6,4889.4,167.44726,1.6294429999999998,-0.0016386545599999,-0.040958478,-1.5825856,46.706,0.00598022764,-0.03424893,-1.5855538,0.51184339,1.5444011,11.4201573,-28.2,2.3,-18.3,49.5,-36.9,239.1,-1048.2,-9.3,338.9,1014.2323,-2.7754612,3326.3,0.00598022764,-0.0188322992,-0.03424893,0.0131489554,-1.5855538,-0.0177357551999999,46710.0,26918.0,20030.0,20.5,15.5,-26.5,0,None
2022-12-25 08:18:10,590.3475555555556,0.1044444444444504,100.0,1179.0,24057.5,4886.0,97.0,1165.4444444444443,388.55555555555554,4897.0,167.75671111111114,1.6368778888888889,-0.0169880654,-0.036279832,-1.5840014,46.694,-0.0085155058,-0.030913114,-1.5858602,0.4995127333333334,1.6312166666666668,12.488228,-30.38888888888889,-2.5,-9.72222222222222,45.833333333333336,24.77777777777778,250.38888888888889,-1059.0555555555557,15.944444444444445,351.44444444444446,1014.2271666666668,-2.7806771111111117,3327.222222222222,-0.0085155058,0.031635706,-0.030913114,-0.0025111326,-1.5858602,-0.015954938,46700.0,26914.5,20020.0,16.0,13.5,-29.5,0,None
2022-12-25 08:18:11,591.322,0.0999999999999999,100.0,1199.0,24010.0,4885.5,97.0,1210.0,391.8,4887.9,168.08620000000002,1.6444734,-0.00331088568,-0.046788262,-1.5695248,46.682,0.00460770816,-0.040975116,-1.5698314000000002,0.4846426777777777,1.3642035555555556,9.870294444444443,-20.8,11.1,-12.7,12.9,-0.7,242.2,-1042.4,21.5,346.1,1014.229,-2.7788593,3328.2,0.0036032687,0.010963507,-0.0406980475,0.01877440275,-1.57085425,0.0063427667499999,46685.0,27007.0,20005.0,9.5,16.0,-26.0,0,None
2022-12-25 08:18:12,592.322,0.0999999999999999,99.5,1155.0,24051.0,4891.5,97.0,1176.1,395.2,4891.2,168.43366,1.6532931999999998,-0.017490256,-0.026551414,-1.5688454,46.70399999999999,-0.0095537116,-0.020848686,-1.5685889999999998,0.4844868600000001,1.2423746999999996,9.2163567,-19.7,18.1,-4.5,10.4,-12.0,259.1,-1073.9,-9.5,340.3,1014.2408,-2.7670311000000005,3329.2,-0.0095537116,-0.011971706,-0.020848686,0.026793279,-1.5685889999999998,-0.0132369038,46700.0,27013.5,20020.0,4.5,19.0,-24.5,0,None
2022-12-25 08:18:13,593.3340000000001,0.1019999999999981,99.0,1088.0,24058.5,4891.5,97.0,1115.5,398.4,4889.5,168.79998,1.6614715999999998,-0.0011545241999999,-0.020200482,-1.5805802,46.702,0.0066034899307999,-0.0144685616,-1.5794344,0.5252918,1.3276023,10.6362821,-27.5,15.7,-12.9,10.6,54.3,251.4,-1059.4,-19.4,339.3,1014.237,-2.7707888,3330.3,0.0066034899307999,0.045207278,-0.0144685616,0.0104656519999999,-1.5794344,-0.0188614766,46700.0,26955.0,20020.0,10.0,16.0,-25.5,0,None
2022-12-25 08:18:14,594.342,0.0999999999999999,99.0,1192.5,24022.0,4894.0,97.0,1135.3,401.5,4896.8,169.15722,1.6672494,-0.0287150099999999,-0.0253100479999999,-1.594823,46.702000000000005,-0.0215601368,-0.019867796,-1.5925544,0.54092293,1.4470527,12.5438963,-15.2,-3.0,-13.3,-5.3,-53.7,243.9,-1010.5,18.8,331.4,1014.2203,-2.7873906,3331.2,-0.0215601368,-0.0509930193999999,-0.019867796,-0.0117788,-1.5925544,0.022108736,46700.0,26872.0,20020.0,18.0,24.0,-30.5,0,None
2022-12-25 08:18:15,595.356,0.1019999999999981,99.0,1257.5,23984.5,4890.0,97.0,1224.5,404.8,4894.8,169.50996,1.6708656000000002,-0.020604081,-0.03832685,-1.5734974,46.696,-0.01308488186,-0.032825538,-1.5703234,0.49549427,1.4154138799999998,9.2782676,-15.1,-4.6,-4.9,-3.9,52.6,250.5,-1064.9,-4.6,345.0,1014.2193,-2.788601400000001,3332.0,-0.0137949838599999,0.0437264996,-0.032566002,-0.0187060431999999,-1.570497,-0.0038727529999999,46695.0,27005.5,20015.0,25.0,-0.5,-28.5,0,None
2022-12-25 08:18:16,596.3653333333334,0.1133333333333312,99.0,1244.0,24009.5,4894.0,97.0,1244.888888888889,408.22222222222223,4893.666666666667,169.91923333333332,1.6742819999999998,-0.0021560260213999,-0.0499084179999999,-1.5687374,46.696000000000005,0.0047451146,-0.044133438,-1.5649054,0.4790091888888889,1.3643539999999998,9.30237611111111,-22.61111111111111,12.72222222222222,-15.333333333333334,29.72222222222222,-5.722222222222222,246.44444444444449,-1060.2222222222222,-12.22222222222222,353.6666666666667,1014.2305555555554,-2.7773654444444444,3332.777777777778,0.0047451146,-0.0188939968,-0.044133438,0.0281600831999999,-1.5649054,0.0078403346,46695.0,27040.5,20015.0,20.5,8.0,-29.0,0,None
2022-12-25 08:18:17,597.3828,0.1000999999999976,99.0,1193.5,24037.0,4888.5,97.0,1171.1,411.5,4893.9,170.34596000000002,1.6798038000000002,-0.0079253179999999,-0.0479847339999999,-1.5663516,46.718,-0.00071356864,-0.042576644,-1.5620578000000005,0.5324373399999999,1.4957266,9.859950799999998,-24.2,-8.4,-9.2,62.6,10.5,243.0,-1020.6,-18.8,340.3,1014.2007,-2.8071717,3333.9,-0.00071356864,0.032231796,-0.042576644,-0.006968692,-1.5620578000000005,0.0001206306,46715.0,27055.0,20035.0,18.0,8.0,-29.0,0,None
2022-12-25 08:18:18,598.3643333333334,0.1044444444444504,99.0,1116.0,24071.0,4896.0,97.0,1164.5555555555557,414.8888888888889,4894.333333333333,170.77782222222223,1.6876734444444448,0.00400490225,-0.0504739799999999,-1.572232,46.74250000000001,0.01139924925,-0.04481738,-1.5675935,0.5360350666666666,1.6045381111111114,10.451377444444445,-15.11111111111111,14.5,-13.166666666666666,21.61111111111111,29.166666666666668,241.38888888888889,-1066.2222222222222,9.833333333333334,342.1666666666667,1014.2076111111112,-2.800260388888889,3334.722222222222,0.01139924925,0.043701743,-0.04481738,0.0265288874999999,-1.5675935,-0.00428035325,46745.0,27023.0,20065.0,9.0,8.5,-32.0,0,None
2022-12-25 08:18:19,599.3598,0.1060999999999921,99.0,1188.0,24033.666666666668,4892.0,97.0,1179.1,418.2,4888.6,171.1691,1.697212,0.0091597702,-0.0430785179999999,-1.5732528,46.724,0.0165146688,-0.038038322,-1.568503,0.5288143799999999,1.7351010000000002,10.3512143,-13.5,0.5,-16.8,29.6,-11.2,241.4,-1044.3,-2.9,333.4,1014.2027,-2.8051329,3335.4,0.0165146688,-0.0100011914,-0.038038322,0.0199763119199999,-1.568503,-0.006465114,46720.0,27013.5,20040.0,7.5,20.5,-32.5,0,None
2022-12-25 08:18:20,600.345111111111,0.1022222222222302,99.0,1165.0,24038.0,4896.0,97.0,1188.4444444444443,421.44444444444446,4894.555555555556,171.5158111111111,1.708113777777778,-0.00139746082,-0.0434328819999999,-1.5674856,46.742,0.0064308623999999,-0.03785194,-1.5626266,0.5196047111111111,1.457733333333333,9.047559444444444,-10.055555555555555,17.77777777777778,-10.5,36.55555555555556,18.27777777777778,244.33333333333331,-1046.7777777777778,4.0,343.1666666666667,1014.2184444444443,-2.789470444444444,3336.333333333333,0.0064308623999999,0.019726104,-0.03785194,0.03442268574,-1.5626266,-0.0103607111999999,46745.0,27055.0,20065.0,5.5,18.5,-31.0,0,None
2022-12-25 08:18:21,601.304,0.0999999999999999,99.0,1155.5,24030.5,4890.0,97.0,1167.7,424.7,4892.0,171.84058,1.7195313999999997,0.00743433354,-0.03973723,-1.5650204000000003,46.732,0.0149930401999999,-0.035024812,-1.5601860000000003,0.5295749200000001,1.5171808,9.4245525,-4.0,5.6,-10.0,23.0,15.6,237.3,-1066.9,15.6,330.8,1014.2327,-2.7751326000000005,3337.4,0.0149930401999999,0.0159303208,-0.035024812,0.002392269,-1.5601860000000003,0.0144278672,46720.0,27056.0,20040.0,7.0,18.5,-28.0,0,None
2022-12-25 08:18:22,602.304,0.0999999999999999,99.0,1166.0,24040.0,4892.5,97.0,1169.2,427.8,4893.9,172.12924,1.7307994,0.00263681148,-0.035291822,-1.5690876,46.672,0.0101316901999999,-0.0295652839999999,-1.5644892,0.5100174444444445,1.4483705555555555,9.423619555555556,-8.0,13.8,-13.9,2.9,6.6,240.7,-1054.2,-26.7,334.6,1014.2366,-2.7712188,3338.3,0.00954099275,0.0101139124999999,-0.0286432,0.01375594475,-1.56528575,-0.01165910925,46655.0,27033.0,19975.0,7.5,21.0,-27.5,0,None
2022-12-25 08:18:23,603.3167,0.1039999999999963,99.0,1216.5,23993.5,4896.5,97.0,1220.8,431.2,4891.0,172.37878,1.7414055999999998,-0.0041668422,-0.03023295,-1.5726196,46.61,0.00377533984,-0.024863648,-1.5674028,0.48647438,1.3985368299999998,8.043776,-13.7,17.4,-12.3,24.0,-13.7,246.4,-1068.1,8.4,338.5,1014.2446,-2.7632029,3339.2,0.00377533984,0.002547522874,-0.024863648,0.021883286,-1.5674028,0.0009316731999999,46595.0,27016.5,19915.0,10.5,20.0,-27.5,0,None
2022-12-25 08:18:24,604.329,0.0980999999999994,99.0,1188.0,24011.5,4891.5,97.0,1181.3333333333333,434.6666666666667,4896.444444444444,172.6148,1.7505626,-0.0049728525999999,-0.029011236,-1.5665412,46.54600000000001,0.0032179086,-0.023643768,-1.560579,0.5030249666666666,1.3681918888888889,8.631050222222221,-2.7777777777777777,-3.6666666666666665,-9.11111111111111,28.88888888888889,39.77777777777778,249.11111111111111,-1040.888888888889,-6.666666666666667,331.1111111111111,1014.2391111111112,-2.7687064444444447,3340.0,0.0032179086,0.045400954,-0.023643768,0.0078423158,-1.560579,-0.0065955574,46535.0,27071.0,19855.0,18.0,3.0,-27.0,0,None
2022-12-25 08:18:25,605.3530000000001,0.1040000000000077,99.0,1201.3333333333333,24025.33333333333,4897.666666666667,97.0,1198.1,437.8,4893.6,172.8295,1.7580236,0.019384156,-0.0414312779999999,-1.5672168000000002,46.5,0.0271717959999999,-0.035571054,-1.5613744,0.50727108,1.34575018,8.3279348,-2.2,0.3,-18.8,13.4,17.6,242.4,-1048.7,7.0,334.3,1014.2357,-2.7721406,3340.9,0.0271717959999999,0.0136321219999999,-0.035571054,0.0034812526,-1.5613744,0.0084067446,46490.0,27054.5,19810.0,20.0,7.0,-26.0,0,None
2022-12-25 08:18:26,606.3779000000001,0.1020999999999957,99.0,1206.0,23996.5,4895.5,97.0,1224.0,441.2,4896.6,173.01284,1.7654884,0.016892492,-0.041791322,-1.5646836000000002,46.438,0.024713174,-0.0350304679999999,-1.5586904,0.49200538,1.4006699299999998,8.6429404,-0.8,16.0,-17.5,25.4,-1.6,236.5,-1062.5,0.5,334.8,1014.2355,-2.7723047000000003,3341.6,0.024713174,0.0055805191999999,-0.0350304679999999,0.0183963379999999,-1.5586904,0.000458942,46430.0,27068.5,19750.0,14.0,15.0,-27.0,0,None
2022-12-25 08:18:27,607.3471111111111,0.1022222222222176,99.0,1130.0,24056.0,4903.0,97.0,1160.6666666666667,444.44444444444446,4898.111111111111,173.1599,1.7737738888888888,0.0132014356,-0.0357436879999999,-1.5647366000000005,46.404,0.021307606,-0.029999048,-1.5594806,0.5139091666666666,1.4203804444444446,8.606139111111112,5.555555555555555,2.555555555555556,-10.0,27.166666666666668,19.61111111111111,244.61111111111111,-1034.7777777777778,-15.555555555555555,339.0,1014.2351111111112,-2.7727344444444446,3342.333333333333,0.021307606,0.0146757697999999,-0.029999048,0.0013408383999999,-1.5594806,0.0041776308,46405.0,27067.5,19725.0,14.5,13.0,-25.5,0,None
2022-12-25 08:18:28,608.318,0.1019999999999981,98.5,1181.5,24004.0,4895.5,97.0,1197.3,447.8,4894.9,173.26404000000002,1.7821522,0.021133136,-0.038051908,-1.5637427999999998,46.352,0.028954702,-0.0313396119999999,-1.5586942,0.4798501899999999,1.2892765999999998,7.6455663,6.9,15.6,-15.9,8.1,10.4,242.5,-1051.9,2.0,336.3,1014.2404,-2.7674685,3343.3,0.028954702,0.0182033756,-0.0313396119999999,0.0114031568,-1.5586942,0.000433462,46345.0,27066.5,19665.0,13.0,17.5,-25.5,0,None
2022-12-25 08:18:29,609.3004444444445,0.1066666666666706,98.0,1191.0,24005.0,4903.5,97.0,1196.888888888889,451.0,4901.222222222223,173.30885555555554,1.7902516666666668,0.0136775719999999,-0.03387767,-1.5659576,46.294,0.021484644,-0.02763623,-1.5609294000000002,0.5082577555555556,1.3866443111111113,8.403317111111111,-1.8888888888888888,5.444444444444445,-16.555555555555557,40.0,-1.1111111111111112,247.66666666666663,-1062.6666666666667,0.1111111111111111,329.0,1014.2391111111112,-2.7687151111111112,3344.4444444444443,0.0205144525,-0.00275740375,-0.0277957675,0.00375287465,-1.56110925,-0.0155765825,46300.0,27058.0,19620.0,14.0,21.0,-27.0,0,None
2022-12-25 08:18:30,610.3223,0.1100000000000022,98.0,1184.6666666666667,24004.0,4889.0,97.0,1190.5,454.4,4897.7,173.29895000000002,1.7984581000000002,0.011762119,-0.0359176619999999,-1.5674606,46.24,0.01964018,-0.03016124,-1.562817,0.52090915,1.3985331,8.6897184,6.05,8.1,-11.4,11.8,8.95,243.15,-1036.85,-16.65,338.05,1014.2466,-2.7611757,3345.3,0.01964018,0.015315692,-0.03016124,0.0014845734,-1.562817,-0.01236414824,46243.333333333336,27048.666666666668,19563.33333333333,14.0,18.33333333333333,-25.0,0,None
2022-12-25 08:18:31,611.3277777777778,0.0999999999999974,98.0,1116.0,24044.0,4903.0,97.0,1173.111111111111,457.77777777777777,4900.777777777777,173.2591555555556,1.8063065555555555,0.011928411,-0.035166315,-1.5654845,46.195,0.0195965275,-0.02961823,-1.56097,0.5124678555555556,1.3724125555555553,8.072746222222221,2.111111111111111,6.555555555555555,-16.0,27.77777777777778,6.0,243.66666666666663,-1059.6666666666667,18.88888888888889,333.22222222222223,1014.232,-2.7757551111111107,3346.0,0.0195965275,0.0028273739999999,-0.02961823,0.0114448923999999,-1.56097,0.0029799094999999,46190.0,27054.0,19510.0,14.0,15.0,-25.0,0,None
2022-12-25 08:18:32,612.3364,0.1100000000000022,98.0,1152.0,24024.0,4901.0,97.0,1161.2,460.8,4900.2,173.18984,1.814365,0.012954388,-0.039396376,-1.5700856,46.16,0.021329086,-0.033266196,-1.5655778,0.52188949,1.4075398,9.0052794,3.3,12.45,-18.8,20.35,22.35,246.9,-1043.05,-26.55,336.7,1014.2352,-2.77250375,3346.8,0.0213001219999999,0.01245672,-0.033469652,0.0001713878999999,-1.5655664,-0.016903003,46165.0,27038.0,19485.0,15.5,14.0,-24.5,0,None
